"{'name': '星瀚云动健身', 'location': {'lat': 34.196208, 'lng': 108.878605}, 'address': '高新区锦业一路56号3幢1单元10000室西安研祥城市广场3-02号', 'province': '陕西省', 'city': '西安市', 'area': '雁塔区', 'telephone': '(029)88899935', 'detail': 1, 'uid': '7a85cd0d9998e273d91318fd', 'detail_info': {'tag': '运动健身;健身中心', 'type': 'life', 'detail_url': 'http://api.map.baidu.com/place/detail?uid=7a85cd0d9998e273d91318fd&output=html&source=placeapi_v2', 'overall_rating': '4.7', 'image_num': '44', 'comment_num': '23', 'children': []}}"
"{'name': '良得健身', 'location': {'lat': 34.217118, 'lng': 108.887707}, 'address': '科技六路枫林意树9号楼', 'province': '陕西省', 'city': '西安市', 'area': '雁塔区', 'telephone': '15209264420', 'detail': 1, 'uid': 'c91d8361667d3453f4eafc1a', 'detail_info': {'tag': '运动健身;健身中心', 'navi_location': {'lng': 108.8879511029, 'lat': 34.216936971859}, 'type': 'life', 'detail_url': 'http://api.map.baidu.com/place/detail?uid=c91d8361667d3453f4eafc1a&output=html&source=placeapi_v2', 'overall_rating': '4.6', 'image_num': '15', 'comment_num': '53', 'children': []}}"
"{'name': '瑞力健身', 'location': {'lat': 34.234543, 'lng': 108.882113}, 'address': '西安市雁塔区汇德科技园10113室', 'province': '陕西省', 'city': '西安市', 'area': '雁塔区', 'street_id': '24ce35a57ed4df79be4842d4', 'detail': 1, 'uid': '24ce35a57ed4df79be4842d4', 'detail_info': {'tag': '运动健身;健身中心', 'navi_location': {'lng': 108.88215472821, 'lat': 34.234378509744}, 'type': 'life', 'detail_url': 'http://api.map.baidu.com/place/detail?uid=24ce35a57ed4df79be4842d4&output=html&source=placeapi_v2', 'overall_rating': '4.0', 'image_num': '9', 'comment_num': '34', 'children': []}}"
"{'name': '美格菲健身中心(锦业铂金店)', 'location': {'lat': 34.199127, 'lng': 108.883993}, 'address': '陕西省西安市雁塔区高新锦业路东段32号锦业时代B1F4层', 'province': '陕西省', 'city': '西安市', 'area': '雁塔区', 'street_id': '4a0a4e371f67c60e3686f416', 'telephone': '(029)81106688', 'detail': 1, 'uid': '4a0a4e371f67c60e3686f416', 'detail_info': {'tag': '运动健身;健身中心', 'navi_location': {'lng': 108.88405101431, 'lat': 34.199683056929}, 'type': 'life', 'detail_url': 'http://api.map.baidu.com/place/detail?uid=4a0a4e371f67c60e3686f416&output=html&source=placeapi_v2', 'overall_rating': '4.1', 'image_num': '12', 'comment_num': '38', 'children': []}}"
"{'name': '启力健身', 'location': {'lat': 34.188264, 'lng': 108.861702}, 'address': '陕西省西安市雁塔区锦业二路73号', 'province': '陕西省', 'city': '西安市', 'area': '雁塔区', 'street_id': 'c87be9adf6be00cbfe0eb067', 'detail': 1, 'uid': 'c87be9adf6be00cbfe0eb067', 'detail_info': {'tag': '运动健身;健身中心', 'type': 'life', 'detail_url': 'http://api.map.baidu.com/place/detail?uid=c87be9adf6be00cbfe0eb067&output=html&source=placeapi_v2', 'overall_rating': '4.0', 'image_num': '24', 'comment_num': '4', 'children': []}}"
"{'name': '欧迈健身', 'location': {'lat': 34.18865, 'lng': 108.887913}, 'address': '锦业二路逸翠尚府北区商业街区70104', 'province': '陕西省', 'city': '西安市', 'area': '雁塔区', 'detail': 1, 'uid': '5033bdc85d1f4f23c036441e', 'detail_info': {'tag': '运动健身;健身中心', 'type': 'life', 'detail_url': 'http://api.map.baidu.com/place/detail?uid=5033bdc85d1f4f23c036441e&output=html&source=placeapi_v2', 'overall_rating': '4.9', 'image_num': '3', 'comment_num': '17', 'children': []}}"
"{'name': '零距离游泳健身(唐沣国际店)', 'location': {'lat': 34.228625, 'lng': 108.893241}, 'address': '陕西省西安市雁塔区沣惠南路18号', 'province': '陕西省', 'city': '西安市', 'area': '雁塔区', 'detail': 1, 'uid': '798ea9ac0bb1f17432f71db5', 'detail_info': {'tag': '运动健身;健身中心', 'type': 'life', 'detail_url': 'http://api.map.baidu.com/place/detail?uid=798ea9ac0bb1f17432f71db5&output=html&source=placeapi_v2', 'overall_rating': '5.0', 'image_num': '33', 'comment_num': '7', 'children': []}}"
"{'name': '荣誉搏击健身俱乐部', 'location': {'lat': 34.246509, 'lng': 108.887051}, 'address': '西安市雁塔区文兴巷与团结南路交叉路口往西约50米(中建国熙台)', 'province': '陕西省', 'city': '西安市', 'area': '雁塔区', 'telephone': '(029)88621233', 'detail': 1, 'uid': 'b08003ec965148aae8e5822f', 'detail_info': {'tag': '运动健身;健身中心', 'navi_location': {'lng': 108.88684369432, 'lat': 34.246306644352}, 'type': 'life', 'detail_url': 'http://api.map.baidu.com/place/detail?uid=b08003ec965148aae8e5822f&output=html&source=placeapi_v2', 'overall_rating': '4.6', 'image_num': '14', 'comment_num': '14', 'children': []}}"
"{'name': '快快智能健身(逸翠园店)', 'location': {'lat': 34.187333, 'lng': 108.886933}, 'address': '高新区丈八二路逸翠尚府南区逸翠园3B期1幢7单元70101号', 'province': '陕西省', 'city': '西安市', 'area': '雁塔区', 'street_id': 'b4b629c78158773681288aeb', 'detail': 1, 'uid': 'b4b629c78158773681288aeb', 'detail_info': {'tag': '运动健身;健身中心', 'type': 'life', 'detail_url': 'http://api.map.baidu.com/place/detail?uid=b4b629c78158773681288aeb&output=html&source=placeapi_v2', 'overall_rating': '4.8', 'image_num': '5', 'comment_num': '28', 'children': []}}"
"{'name': '蓝度健身(响塘店)', 'location': {'lat': 34.248829, 'lng': 108.88795}, 'address': '团结南路响塘广场二层', 'province': '陕西省', 'city': '西安市', 'area': '雁塔区', 'telephone': '13679128372', 'detail': 1, 'uid': 'a371f701eb093f60d8131824', 'detail_info': {'tag': '运动健身;健身中心', 'type': 'life', 'detail_url': 'http://api.map.baidu.com/place/detail?uid=a371f701eb093f60d8131824&output=html&source=placeapi_v2', 'image_num': '1', 'children': []}}"
"{'name': '高科朗山运动健身会所', 'location': {'lat': 34.21296, 'lng': 108.887168}, 'address': '科技七路与团结南路交叉口高科朗山商铺', 'province': '陕西省', 'city': '西安市', 'area': '雁塔区', 'detail': 1, 'uid': '42a7df33a03b0c3338221c77', 'detail_info': {'tag': '运动健身;健身中心', 'type': 'life', 'detail_url': 'http://api.map.baidu.com/place/detail?uid=42a7df33a03b0c3338221c77&output=html&source=placeapi_v2', 'overall_rating': '4.4', 'image_num': '1', 'comment_num': '5', 'children': []}}"
"{'name': '贝斯特健身俱乐部', 'location': {'lat': 34.224924, 'lng': 108.888093}, 'address': '西安市雁塔区团结南路与科技四路交叉路口往南约50米(南窑头小区-西区)', 'province': '陕西省', 'city': '西安市', 'area': '雁塔区', 'telephone': '13032982776,(029)88698669', 'detail': 1, 'uid': '4e3f5f751ed4c4f85d17c337', 'detail_info': {'tag': '运动健身;健身中心', 'navi_location': {'lng': 108.88792435765, 'lat': 34.225065822783}, 'type': 'life', 'detail_url': 'http://api.map.baidu.com/place/detail?uid=4e3f5f751ed4c4f85d17c337&output=html&source=placeapi_v2', 'overall_rating': '3.5', 'image_num': '5', 'comment_num': '6', 'children': []}}"
"{'name': '泛运动游泳健身综合馆', 'location': {'lat': 34.202435, 'lng': 108.870645}, 'address': '丈八五路高科尚都·one商城B座', 'province': '陕西省', 'city': '西安市', 'area': '雁塔区', 'telephone': '(029)62316000', 'detail': 1, 'uid': 'af69a83d6c83235d82a12e71', 'detail_info': {'tag': '运动健身;健身中心', 'type': 'life', 'detail_url': 'http://api.map.baidu.com/place/detail?uid=af69a83d6c83235d82a12e71&output=html&source=placeapi_v2', 'overall_rating': '4.7', 'image_num': '4', 'comment_num': '44', 'children': []}}"
"{'name': 'BODYLOVE普拉提', 'location': {'lat': 34.243671, 'lng': 108.883625}, 'address': '陕西省西安市雁塔区科技路与高新六路十字东北角伟业公馆1号楼2层', 'province': '陕西省', 'city': '西安市', 'area': '雁塔区', 'telephone': '(029)88636870', 'detail': 1, 'uid': '8354ceaebf966ec39e95de39', 'detail_info': {'tag': '运动健身;健身中心', 'type': 'life', 'detail_url': 'http://api.map.baidu.com/place/detail?uid=8354ceaebf966ec39e95de39&output=html&source=placeapi_v2', 'overall_rating': '5.0', 'image_num': '1', 'comment_num': '31', 'children': []}}"
"{'name': '橙月健身', 'location': {'lat': 34.216543, 'lng': 108.880161}, 'address': '西安市雁塔区丈八北路与科技六路交叉路口往南约50米(茶张馨苑)', 'province': '陕西省', 'city': '西安市', 'area': '雁塔区', 'detail': 1, 'uid': 'a93c4b6fb48d0c056268589d', 'detail_info': {'tag': '运动健身;健身中心', 'type': 'life', 'detail_url': 'http://api.map.baidu.com/place/detail?uid=a93c4b6fb48d0c056268589d&output=html&source=placeapi_v2', 'overall_rating': '1.0', 'image_num': '6', 'comment_num': '4', 'children': []}}"
"{'name': '每日瑜伽', 'location': {'lat': 34.228845, 'lng': 108.891049}, 'address': '陕西省西安市雁塔区科技三路57号融城云谷B座22层', 'province': '陕西省', 'city': '西安市', 'area': '雁塔区', 'telephone': '(029)82305104', 'detail': 1, 'uid': '613bb859b385de44d5b74eac', 'detail_info': {'tag': '运动健身;健身中心', 'type': 'life', 'detail_url': 'http://api.map.baidu.com/place/detail?uid=613bb859b385de44d5b74eac&output=html&source=placeapi_v2', 'overall_rating': '5.0', 'image_num': '3', 'comment_num': '4', 'children': []}}"
"{'name': 'AIMO·HIIT智慧轻健身', 'location': {'lat': 34.243027, 'lng': 108.883593}, 'address': '高新六路2号七星花园小区2号楼1F102室', 'province': '陕西省', 'city': '西安市', 'area': '雁塔区', 'telephone': '19929935608', 'detail': 1, 'uid': '1881fa9f34ab045b81a12e21', 'detail_info': {'tag': '运动健身;健身中心', 'type': 'life', 'detail_url': 'http://api.map.baidu.com/place/detail?uid=1881fa9f34ab045b81a12e21&output=html&source=placeapi_v2', 'overall_rating': '4.3', 'image_num': '2', 'comment_num': '4', 'children': []}}"
"{'name': 'UP GOING少儿体适能运动馆', 'location': {'lat': 34.216407, 'lng': 108.892605}, 'address': '高新区科技六路橡树街区E座6-20103号', 'province': '陕西省', 'city': '西安市', 'area': '雁塔区', 'telephone': '(029)88896622', 'detail': 1, 'uid': '23ae912934eb5173ae080fc4', 'detail_info': {'tag': '运动健身;健身中心', 'type': 'life', 'detail_url': 'http://api.map.baidu.com/place/detail?uid=23ae912934eb5173ae080fc4&output=html&source=placeapi_v2', 'overall_rating': '5.0', 'image_num': '6', 'comment_num': '16', 'children': []}}"
"{'name': '北京红舞鞋少儿芭蕾形体舞蹈(高新绿地校区)', 'location': {'lat': 34.200258, 'lng': 108.881221}, 'address': '陕西省西安市雁塔区锦业路绿地国际俱乐部二层', 'province': '陕西省', 'city': '西安市', 'area': '雁塔区', 'telephone': '(029)88889780,15353658843', 'detail': 1, 'uid': 'bf6ffa0e9a49e89c882fb5b0', 'detail_info': {'tag': '运动健身;健身中心', 'type': 'life', 'detail_url': 'http://api.map.baidu.com/place/detail?uid=bf6ffa0e9a49e89c882fb5b0&output=html&source=placeapi_v2', 'overall_rating': '5.0', 'image_num': '4', 'comment_num': '1', 'children': []}}"
"{'name': '辉力搏击健身中心', 'location': {'lat': 34.203174, 'lng': 108.858528}, 'address': '丈八西路袁旗寨51排2号辉力搏击', 'province': '陕西省', 'city': '西安市', 'area': '雁塔区', 'telephone': '13389247434', 'detail': 1, 'uid': '3851329df2129f66081cc71f', 'detail_info': {'tag': '运动健身;健身中心', 'type': 'life', 'detail_url': 'http://api.map.baidu.com/place/detail?uid=3851329df2129f66081cc71f&output=html&source=placeapi_v2', 'overall_rating': '3.0', 'image_num': '7', 'comment_num': '1', 'children': []}}"
"{'name': '懒虫健身(西安中投国际店)', 'location': {'lat': 34.196682, 'lng': 108.888444}, 'address': '陕西省西安市雁塔区锦业一路中投国际B座1001室', 'province': '陕西省', 'city': '西安市', 'area': '雁塔区', 'detail': 1, 'uid': '8186ac71b35f0c2f901fc913', 'detail_info': {'tag': '运动健身;健身中心', 'type': 'life', 'detail_url': 'http://api.map.baidu.com/place/detail?uid=8186ac71b35f0c2f901fc913&output=html&source=placeapi_v2', 'overall_rating': '4.8', 'image_num': '1', 'comment_num': '39', 'children': []}}"
"{'name': '温蒂妮舞蹈形体中心', 'location': {'lat': 34.248702, 'lng': 108.885999}, 'address': '陕西省西安市团结南路德兴巷豌豆家综合体3楼', 'province': '陕西省', 'city': '西安市', 'area': '雁塔区', 'telephone': '13474006646', 'detail': 1, 'uid': '0a365b80bf2c638df02d8376', 'detail_info': {'tag': '运动健身;健身中心', 'type': 'life', 'detail_url': 'http://api.map.baidu.com/place/detail?uid=0a365b80bf2c638df02d8376&output=html&source=placeapi_v2', 'overall_rating': '4.5', 'image_num': '1', 'comment_num': '3', 'children': []}}"
"{'name': '俄派形体健身馆', 'location': {'lat': 34.24389, 'lng': 108.879443}, 'address': '陕西省西安市雁塔区科技路259号', 'province': '陕西省', 'city': '西安市', 'area': '雁塔区', 'telephone': '13152106631', 'detail': 1, 'uid': '34f8d3642d6327b54151c0d4', 'detail_info': {'tag': '运动健身;健身中心', 'type': 'life', 'detail_url': 'http://api.map.baidu.com/place/detail?uid=34f8d3642d6327b54151c0d4&output=html&source=placeapi_v2', 'overall_rating': '5.0', 'image_num': '2', 'comment_num': '2', 'children': []}}"
"{'name': '雅健身俱乐部', 'location': {'lat': 34.226308, 'lng': 108.888912}, 'address': '团结南路与科技四路交口东北角高新新天地2号楼1405', 'province': '陕西省', 'city': '西安市', 'area': '雁塔区', 'telephone': '(029)81775499', 'detail': 1, 'uid': '335ec056ec53a25c2811d18b', 'detail_info': {'tag': '运动健身;健身中心', 'type': 'life', 'detail_url': 'http://api.map.baidu.com/place/detail?uid=335ec056ec53a25c2811d18b&output=html&source=placeapi_v2', 'overall_rating': '5.0', 'image_num': '1', 'comment_num': '1', 'children': []}}"
"{'name': 'TNT健身', 'location': {'lat': 34.213918, 'lng': 108.878068}, 'address': '丈八街办科技七路国宾中央区底商19号楼三楼302室', 'province': '陕西省', 'city': '西安市', 'area': '雁塔区', 'detail': 1, 'uid': 'ed40e9380ac0fcec260bd01b', 'detail_info': {'tag': '运动健身;健身中心', 'type': 'life', 'detail_url': 'http://api.map.baidu.com/place/detail?uid=ed40e9380ac0fcec260bd01b&output=html&source=placeapi_v2', 'image_num': '1', 'children': []}}"
"{'name': 'DOUBLE LEE FIT健身工作室', 'location': {'lat': 34.24248, 'lng': 108.892657}, 'address': '陕西省西安市高新区枫叶新都市11楼1004室', 'province': '陕西省', 'city': '西安市', 'area': '雁塔区', 'detail': 1, 'uid': '031dfce4ec932d959d9d6824', 'detail_info': {'tag': '运动健身;健身中心', 'type': 'life', 'detail_url': 'http://api.map.baidu.com/place/detail?uid=031dfce4ec932d959d9d6824&output=html&source=placeapi_v2', 'overall_rating': '5.0', 'image_num': '25', 'comment_num': '6', 'children': []}}"
"{'name': '西安绿地假日酒店-健身中心', 'location': {'lat': 34.200273, 'lng': 108.890076}, 'address': '锦业路5号西安绿地假日酒店4楼', 'province': '陕西省', 'city': '西安市', 'area': '雁塔区', 'telephone': '(029)68689999', 'detail': 1, 'uid': '19c1f55dfa200f7f990050ce', 'detail_info': {'tag': '运动健身;健身中心', 'type': 'life', 'detail_url': 'http://api.map.baidu.com/place/detail?uid=19c1f55dfa200f7f990050ce&output=html&source=placeapi_v2', 'overall_rating': '4.5', 'image_num': '1', 'comment_num': '2', 'children': []}}"
"{'name': 'S+健身工作室', 'location': {'lat': 34.187814, 'lng': 108.883997}, 'address': '陕西省西安市雁塔区锦业二路辅路', 'province': '陕西省', 'city': '西安市', 'area': '雁塔区', 'telephone': '17782963636', 'detail': 1, 'uid': '54fdd636403910a175e5b625', 'detail_info': {'tag': '运动健身;健身中心', 'type': 'life', 'detail_url': 'http://api.map.baidu.com/place/detail?uid=54fdd636403910a175e5b625&output=html&source=placeapi_v2', 'overall_rating': '5.0', 'image_num': '4', 'comment_num': '1', 'children': []}}"
"{'name': '初姀普拉提孕产健身', 'location': {'lat': 34.247634, 'lng': 108.887316}, 'address': '团结南路200号国熙台小区8栋3单元102室', 'province': '陕西省', 'city': '西安市', 'area': '雁塔区', 'telephone': '18966688871', 'detail': 1, 'uid': '46ceedfb377026d9593ac8b5', 'detail_info': {'tag': '运动健身;健身中心', 'type': 'life', 'detail_url': 'http://api.map.baidu.com/place/detail?uid=46ceedfb377026d9593ac8b5&output=html&source=placeapi_v2', 'overall_rating': '5.0', 'image_num': '1', 'comment_num': '35', 'children': []}}"
"{'name': '梵宁瑜伽', 'location': {'lat': 34.237428, 'lng': 108.879756}, 'address': '陕西省西安市雁塔区唐兴路20号利君明天小区2号楼2004', 'province': '陕西省', 'city': '西安市', 'area': '雁塔区', 'detail': 1, 'uid': 'fb023d2c82f2c21ff703b87c', 'detail_info': {'tag': '运动健身;健身中心', 'type': 'life', 'detail_url': 'http://api.map.baidu.com/place/detail?uid=fb023d2c82f2c21ff703b87c&output=html&source=placeapi_v2', 'overall_rating': '4.6', 'image_num': '1', 'comment_num': '9', 'children': []}}"
"{'name': '星幻舞蹈团(绿地世纪城店)', 'location': {'lat': 34.201368, 'lng': 108.881367}, 'address': '西安市锦业路绿地世纪城艺饕街2层', 'province': '陕西省', 'city': '西安市', 'area': '雁塔区', 'street_id': '4813747709a97202a2d2304e', 'telephone': '15829255007', 'detail': 1, 'uid': '4813747709a97202a2d2304e', 'detail_info': {'tag': '运动健身;健身中心', 'type': 'life', 'detail_url': 'http://api.map.baidu.com/place/detail?uid=4813747709a97202a2d2304e&output=html&source=placeapi_v2', 'overall_rating': '4.5', 'image_num': '3', 'comment_num': '2', 'children': []}}"
"{'name': '芭蒂拉普拉提健身馆', 'location': {'lat': 34.243652, 'lng': 108.883602}, 'address': '陕西省西安市雁塔区高新六路北口北100米', 'province': '陕西省', 'city': '西安市', 'area': '雁塔区', 'telephone': '(029)88636870', 'detail': 1, 'uid': '0651bbe113b129f22b201aa5', 'detail_info': {'tag': '运动健身;健身中心', 'type': 'life', 'detail_url': 'http://api.map.baidu.com/place/detail?uid=0651bbe113b129f22b201aa5&output=html&source=placeapi_v2', 'overall_rating': '5.0', 'image_num': '5', 'comment_num': '11', 'children': []}}"
"{'name': '青苗瑜伽东方舞', 'location': {'lat': 34.209699, 'lng': 108.861799}, 'address': '西安市雁塔区高新区科技八路与丈八六路什字西南角盛泽万家灯火小区3号楼18层1802室', 'province': '陕西省', 'city': '西安市', 'area': '雁塔区', 'telephone': '15902936445,15229056589', 'detail': 1, 'uid': '2d097d6831223ab0b35c6af8', 'detail_info': {'tag': '运动健身;健身中心', 'type': 'life', 'detail_url': 'http://api.map.baidu.com/place/detail?uid=2d097d6831223ab0b35c6af8&output=html&source=placeapi_v2', 'overall_rating': '5.0', 'image_num': '1', 'comment_num': '2', 'children': []}}"
"{'name': '千水莲瑜伽大寨路会馆', 'location': {'lat': 34.251275, 'lng': 108.889051}, 'address': '大寨路金辉融桥城2期25-1201号', 'province': '陕西省', 'city': '西安市', 'area': '雁塔区', 'street_id': '6545db4b21a3f3a3b7f42f4e', 'telephone': '13891436101', 'detail': 1, 'uid': '6545db4b21a3f3a3b7f42f4e', 'detail_info': {'tag': '运动健身;健身中心', 'type': 'life', 'detail_url': 'http://api.map.baidu.com/place/detail?uid=6545db4b21a3f3a3b7f42f4e&output=html&source=placeapi_v2', 'price': '736', 'overall_rating': '4.8', 'image_num': '10', 'comment_num': '20', 'children': []}}"
"{'name': '云上健身工作室(科技三路店)', 'location': {'lat': 34.228333, 'lng': 108.890266}, 'address': '科技三路,融城云谷b座,1805室', 'province': '陕西省', 'city': '西安市', 'area': '雁塔区', 'telephone': '13289349282', 'detail': 1, 'uid': '716fa78c024ec302aeee7af7', 'detail_info': {'tag': '运动健身;健身中心', 'type': 'life', 'detail_url': 'http://api.map.baidu.com/place/detail?uid=716fa78c024ec302aeee7af7&output=html&source=placeapi_v2', 'image_num': '1', 'children': []}}"
"{'name': '舞8瑜伽会所(夏日景色店)', 'location': {'lat': 34.228058, 'lng': 108.88079}, 'address': '西安市雁塔区丈八沟街道科技三路西口夏日景色小区8号楼对面', 'province': '陕西省', 'city': '西安市', 'area': '雁塔区', 'street_id': '844a3915ea0b5300931fc9a3', 'detail': 1, 'uid': '844a3915ea0b5300931fc9a3', 'detail_info': {'tag': '运动健身;健身中心', 'type': 'life', 'detail_url': 'http://api.map.baidu.com/place/detail?uid=844a3915ea0b5300931fc9a3&output=html&source=placeapi_v2', 'overall_rating': '0.0', 'image_num': '8', 'children': []}}"
"{'name': '西安瑜舍连锁瑜伽教室(中华世纪城店)', 'location': {'lat': 34.246162, 'lng': 108.88911}, 'address': '陕西省西安市雁塔区科技路239号中华世纪城二期8号楼3单元702室', 'province': '陕西省', 'city': '西安市', 'area': '雁塔区', 'street_id': '901832b459dd9d17df1e52d4', 'telephone': '17792467851', 'detail': 1, 'uid': '901832b459dd9d17df1e52d4', 'detail_info': {'tag': '运动健身;健身中心', 'type': 'life', 'detail_url': 'http://api.map.baidu.com/place/detail?uid=901832b459dd9d17df1e52d4&output=html&source=placeapi_v2', 'overall_rating': '4.8', 'image_num': '1', 'comment_num': '11', 'children': []}}"
"{'name': 'kems studio健身(西安软件园店)', 'location': {'lat': 34.230411, 'lng': 108.886727}, 'address': '西安市科技二路57号西安软件园零壹广场E座401', 'province': '陕西省', 'city': '西安市', 'area': '雁塔区', 'detail': 1, 'uid': '9240f8a104436c813904b13d', 'detail_info': {'tag': '运动健身;健身中心', 'type': 'life', 'detail_url': 'http://api.map.baidu.com/place/detail?uid=9240f8a104436c813904b13d&output=html&source=placeapi_v2', 'image_num': '1', 'children': []}}"
"{'name': '陕西省体育训练中心', 'location': {'lat': 34.207925, 'lng': 108.891704}, 'address': '陕西省西安市丈八东路303号', 'province': '陕西省', 'city': '西安市', 'area': '雁塔区', 'street_id': '5e6e03365aaa62676140a943', 'telephone': '(029)88587205', 'detail': 1, 'uid': '5e6e03365aaa62676140a943', 'detail_info': {'tag': '运动健身;体育场馆', 'navi_location': {'lng': 108.89562479328, 'lat': 34.204355270456}, 'type': 'education', 'detail_url': 'http://api.map.baidu.com/place/detail?uid=5e6e03365aaa62676140a943&output=html&source=placeapi_v2', 'overall_rating': '2.5', 'children': []}}"
"{'name': '励进海升酒店-健身中心', 'location': {'lat': 34.218525, 'lng': 108.891524}, 'address': '西安市高新区沣惠南路34号励进海升酒店4层', 'province': '陕西省', 'city': '西安市', 'area': '雁塔区', 'street_id': '7f38f29abf32b34dad31e5c7', 'telephone': '(029)83266666', 'detail': 1, 'uid': '7f38f29abf32b34dad31e5c7', 'detail_info': {'tag': '运动健身;健身中心', 'type': 'life', 'detail_url': 'http://api.map.baidu.com/place/detail?uid=7f38f29abf32b34dad31e5c7&output=html&source=placeapi_v2', 'overall_rating': '0.0', 'image_num': '1', 'children': []}}"
"{'name': 'inner健身会馆', 'location': {'lat': 34.243562, 'lng': 108.883717}, 'address': '陕西省西安市雁塔区科技路70号西北80米', 'province': '陕西省', 'city': '西安市', 'area': '雁塔区', 'detail': 1, 'uid': '46131a91dc8f8c7a03ec010d', 'detail_info': {'tag': '运动健身;健身中心', 'type': 'life', 'detail_url': 'http://api.map.baidu.com/place/detail?uid=46131a91dc8f8c7a03ec010d&output=html&source=placeapi_v2', 'image_num': '1', 'children': []}}"
"{'name': '一木瑜伽生活馆', 'location': {'lat': 34.243884, 'lng': 108.879358}, 'address': '陕西省西安市雁塔区科技路259号丈八北路地铁口B口北20米1505室(华润万家楼上)', 'province': '陕西省', 'city': '西安市', 'area': '雁塔区', 'telephone': '(029)88647193', 'detail': 1, 'uid': '0330e1f411cd3ced7dc876b5', 'detail_info': {'tag': '运动健身;健身中心', 'type': 'life', 'detail_url': 'http://api.map.baidu.com/place/detail?uid=0330e1f411cd3ced7dc876b5&output=html&source=placeapi_v2', 'image_num': '1', 'children': []}}"
"{'name': '阵风少儿健身俱乐部', 'location': {'lat': 34.2242, 'lng': 108.870994}, 'address': '西安市雁塔区', 'province': '陕西省', 'city': '西安市', 'area': '雁塔区', 'detail': 1, 'uid': 'baa60dd1a4214ab715c90538', 'detail_info': {'tag': '运动健身;健身中心', 'type': 'life', 'detail_url': 'http://api.map.baidu.com/place/detail?uid=baa60dd1a4214ab715c90538&output=html&source=placeapi_v2', 'image_num': '1', 'children': []}}"
"{'name': '净心莲瑜伽', 'location': {'lat': 34.224226, 'lng': 108.872155}, 'address': '陕西省西安市雁塔区科技四路鸿基新城祥园', 'province': '陕西省', 'city': '西安市', 'area': '雁塔区', 'telephone': '13689290008', 'detail': 1, 'uid': 'd5675c34985c747cd22dd616', 'detail_info': {'tag': '运动健身;健身中心', 'type': 'life', 'detail_url': 'http://api.map.baidu.com/place/detail?uid=d5675c34985c747cd22dd616&output=html&source=placeapi_v2', 'overall_rating': '0.0', 'image_num': '4', 'children': []}}"
"{'name': '陕西网球中心', 'location': {'lat': 34.205868, 'lng': 108.894135}, 'address': '陕西省西安市雁塔区丈八东路303号', 'province': '陕西省', 'city': '西安市', 'area': '雁塔区', 'street_id': '6fddd7fd759011663417dcb5', 'telephone': '(029)88587777', 'detail': 1, 'uid': '6fddd7fd759011663417dcb5', 'detail_info': {'tag': '运动健身;体育场馆', 'navi_location': {'lng': 108.89399974334, 'lat': 34.205353603367}, 'type': 'life', 'detail_url': 'http://api.map.baidu.com/place/detail?uid=6fddd7fd759011663417dcb5&output=html&source=placeapi_v2', 'price': '50', 'overall_rating': '4.4', 'image_num': '21', 'comment_num': '29', 'children': []}}"
"{'name': '图腾羽毛球俱乐部', 'location': {'lat': 34.199514, 'lng': 108.868921}, 'address': '高新区锦业路70号卫星大厦1号馆', 'province': '陕西省', 'city': '西安市', 'area': '雁塔区', 'street_id': '2a01f2649f895fba14948eb6', 'telephone': '(029)81026078', 'detail': 1, 'uid': '2a01f2649f895fba14948eb6', 'detail_info': {'tag': '运动健身;体育场馆', 'navi_location': {'lng': 108.86872154037, 'lat': 34.199959772233}, 'type': 'life', 'detail_url': 'http://api.map.baidu.com/place/detail?uid=2a01f2649f895fba14948eb6&output=html&source=placeapi_v2', 'price': '38', 'overall_rating': '4.1', 'image_num': '30', 'comment_num': '32', 'children': []}}"
"{'name': '西安捷阳篮球馆', 'location': {'lat': 34.191949, 'lng': 108.885561}, 'address': '丈八二路16号', 'province': '陕西省', 'city': '西安市', 'area': '雁塔区', 'street_id': '856bfed89273444754bfffce', 'telephone': '(029)81128300,18829788869', 'detail': 1, 'uid': '856bfed89273444754bfffce', 'detail_info': {'tag': '运动健身;体育场馆', 'navi_location': {'lng': 108.88656858108, 'lat': 34.191739189474}, 'type': 'life', 'detail_url': 'http://api.map.baidu.com/place/detail?uid=856bfed89273444754bfffce&output=html&source=placeapi_v2', 'overall_rating': '3.6', 'image_num': '10', 'comment_num': '19', 'children': []}}"
"{'name': '金泰恒业羽毛球馆', 'location': {'lat': 34.213374, 'lng': 108.87363}, 'address': '陕西省西安市雁塔区科技七路32号金泰新理城东门对面停车场楼上4楼', 'province': '陕西省', 'city': '西安市', 'area': '雁塔区', 'street_id': 'ae1ac2b763c9dc0d83a00c1c', 'telephone': '(029)84505997', 'detail': 1, 'uid': 'ae1ac2b763c9dc0d83a00c1c', 'detail_info': {'tag': '运动健身;体育场馆', 'navi_location': {'lng': 108.87314692299, 'lat': 34.213246603685}, 'type': 'life', 'detail_url': 'http://api.map.baidu.com/place/detail?uid=ae1ac2b763c9dc0d83a00c1c&output=html&source=placeapi_v2', 'overall_rating': '3.4', 'image_num': '15', 'comment_num': '10', 'children': []}}"
"{'name': '西安外事学院南区体育馆', 'location': {'lat': 34.235196, 'lng': 108.871438}, 'address': '陕西省西安市雁塔区鱼斗路18号西安外事学院南区内', 'province': '陕西省', 'city': '西安市', 'area': '雁塔区', 'detail': 1, 'uid': 'd1da377121ca4b962b3a9f7f', 'detail_info': {'tag': '运动健身;体育场馆', 'navi_location': {'lng': 108.87176484853, 'lat': 34.234529057938}, 'type': 'life', 'detail_url': 'http://api.map.baidu.com/place/detail?uid=d1da377121ca4b962b3a9f7f&output=html&source=placeapi_v2', 'image_num': '1', 'children': []}}"
"{'name': '羽德羽毛球馆', 'location': {'lat': 34.224308, 'lng': 108.883593}, 'address': '高新六路52号立人科技B座顶层', 'province': '陕西省', 'city': '西安市', 'area': '雁塔区', 'street_id': 'fc1a40f0620875392bfc4840', 'telephone': '(029)88454520', 'detail': 1, 'uid': 'fc1a40f0620875392bfc4840', 'detail_info': {'tag': '运动健身;体育场馆', 'navi_location': {'lng': 108.88371730369, 'lat': 34.224331299699}, 'type': 'life', 'detail_url': 'http://api.map.baidu.com/place/detail?uid=fc1a40f0620875392bfc4840&output=html&source=placeapi_v2', 'price': '80', 'overall_rating': '4.2', 'image_num': '4', 'comment_num': '17', 'children': []}}"
"{'name': 'P.E-MIX综合体育运动中心', 'location': {'lat': 34.250895, 'lng': 108.873554}, 'address': '陕西省西安市雁塔区大寨路与丈八北路交叉路口向西两百米', 'province': '陕西省', 'city': '西安市', 'area': '雁塔区', 'street_id': '42fd22f22dd3eca2e81e9776', 'telephone': '(029)85237607', 'detail': 1, 'uid': '42fd22f22dd3eca2e81e9776', 'detail_info': {'tag': '运动健身;体育场馆', 'navi_location': {'lng': 108.87302383807, 'lat': 34.249366464754}, 'type': 'life', 'detail_url': 'http://api.map.baidu.com/place/detail?uid=42fd22f22dd3eca2e81e9776&output=html&source=placeapi_v2', 'overall_rating': '4.3', 'image_num': '4', 'comment_num': '20', 'children': []}}"
"{'name': '华夏国武散打馆', 'location': {'lat': 34.209368, 'lng': 108.888001}, 'address': '西高新丈八东路319号', 'province': '陕西省', 'city': '西安市', 'area': '雁塔区', 'telephone': '(029)83704618', 'detail': 1, 'uid': '56ab3a97ee509f45246e9887', 'detail_info': {'tag': '运动健身;体育场馆', 'type': 'life', 'detail_url': 'http://api.map.baidu.com/place/detail?uid=56ab3a97ee509f45246e9887&output=html&source=placeapi_v2', 'overall_rating': '4.5', 'image_num': '3', 'comment_num': '2', 'children': []}}"
"{'name': '奥体球场', 'location': {'lat': 34.210656, 'lng': 108.891609}, 'address': '西安市雁塔区唐延路303号', 'province': '陕西省', 'city': '西安市', 'area': '雁塔区', 'street_id': '6a942c8fee22eb482cb96d04', 'detail': 1, 'uid': '6a942c8fee22eb482cb96d04', 'detail_info': {'tag': '运动健身;体育场馆', 'type': 'life', 'detail_url': 'http://api.map.baidu.com/place/detail?uid=6a942c8fee22eb482cb96d04&output=html&source=placeapi_v2', 'overall_rating': '3.0', 'image_num': '2', 'comment_num': '1', 'children': []}}"
"{'name': '西安外事学院南校区篮排球场', 'location': {'lat': 34.235506, 'lng': 108.874894}, 'address': '西安市雁塔区凌云路与龙腾路交叉口北100米', 'province': '陕西省', 'city': '西安市', 'area': '雁塔区', 'detail': 1, 'uid': 'd67ce835a2812a064c3a5984', 'detail_info': {'tag': '运动健身;体育场馆', 'type': 'life', 'detail_url': 'http://api.map.baidu.com/place/detail?uid=d67ce835a2812a064c3a5984&output=html&source=placeapi_v2', 'image_num': '1', 'children': []}}"
"{'name': '胜仕台球俱乐部', 'location': {'lat': 34.250825, 'lng': 108.88219}, 'address': '大寨路东段8号莱安逸辉售楼处西隔壁', 'province': '陕西省', 'city': '西安市', 'area': '雁塔区', 'street_id': '29ba001d2e0435869fec2b0b', 'telephone': '(029)89636243', 'detail': 1, 'uid': '29ba001d2e0435869fec2b0b', 'detail_info': {'tag': '运动健身;体育场馆', 'type': 'life', 'detail_url': 'http://api.map.baidu.com/place/detail?uid=29ba001d2e0435869fec2b0b&output=html&source=placeapi_v2', 'overall_rating': '4.5', 'image_num': '34', 'comment_num': '26', 'children': []}}"
"{'name': '陕西省体育训练中心-游泳馆', 'location': {'lat': 34.209788, 'lng': 108.887894}, 'address': '高新区丈八东路319号体育训练中心(跳水馆西边500米)', 'province': '陕西省', 'city': '西安市', 'area': '雁塔区', 'street_id': '7929e011aefd208e1cf74d49', 'telephone': '13379183487', 'detail': 1, 'uid': '7929e011aefd208e1cf74d49', 'detail_info': {'tag': '运动健身;体育场馆', 'navi_location': {'lng': 108.88791618936, 'lat': 34.209559240043}, 'type': 'life', 'detail_url': 'http://api.map.baidu.com/place/detail?uid=7929e011aefd208e1cf74d49&output=html&source=placeapi_v2', 'price': '38', 'overall_rating': '4.0', 'image_num': '24', 'comment_num': '100', 'children': []}}"
"{'name': '奥林匹克公园', 'location': {'lat': 34.208848, 'lng': 108.887398}, 'address': '高新区科技八路', 'province': '陕西省', 'city': '西安市', 'area': '雁塔区', 'street_id': '565f7133801ef8ff78f79686', 'detail': 1, 'uid': '565f7133801ef8ff78f79686', 'detail_info': {'tag': '运动健身;体育场馆', 'navi_location': {'lng': 108.88697050722, 'lat': 34.207856146504}, 'type': 'scope', 'detail_url': 'http://api.map.baidu.com/place/detail?uid=565f7133801ef8ff78f79686&output=html&source=placeapi_v2', 'overall_rating': '1.3', 'children': []}}"
"{'name': '乐奇亲子游泳俱乐部(西安中心)', 'location': {'lat': 34.216594, 'lng': 108.892918}, 'address': '沣惠南路36号橡树街区7号楼3层', 'province': '陕西省', 'city': '西安市', 'area': '雁塔区', 'telephone': '(029)89581964,(029)89581946', 'detail': 1, 'uid': 'f85f65093ff7fa80fa2d6189', 'detail_info': {'tag': '运动健身;体育场馆', 'navi_location': {'lng': 108.89300512241, 'lat': 34.216729825481}, 'type': 'life', 'detail_url': 'http://api.map.baidu.com/place/detail?uid=f85f65093ff7fa80fa2d6189&output=html&source=placeapi_v2', 'overall_rating': '4.8', 'image_num': '5', 'comment_num': '22', 'children': []}}"
"{'name': '星珲尚运动中心', 'location': {'lat': 34.250531, 'lng': 108.883422}, 'address': '陕西省西安市雁塔区大寨路6号莱安逸珲B1层', 'province': '陕西省', 'city': '西安市', 'area': '雁塔区', 'street_id': '9492e7e6c291b8d399005068', 'telephone': '(029)62906555', 'detail': 1, 'uid': '9492e7e6c291b8d399005068', 'detail_info': {'tag': '运动健身;体育场馆', 'navi_location': {'lng': 108.88336454418, 'lat': 34.250651233901}, 'type': 'life', 'detail_url': 'http://api.map.baidu.com/place/detail?uid=9492e7e6c291b8d399005068&output=html&source=placeapi_v2', 'overall_rating': '4.2', 'image_num': '52', 'comment_num': '59', 'children': []}}"
"{'name': '奥斯丁台球俱乐部', 'location': {'lat': 34.215989, 'lng': 108.88043}, 'address': '陕西省西安市雁塔区高新区丈八北路茶张馨苑东门门口三楼', 'province': '陕西省', 'city': '西安市', 'area': '雁塔区', 'telephone': '15829269295', 'detail': 1, 'uid': 'e39316810b6c4f92a10464fc', 'detail_info': {'tag': '运动健身;体育场馆', 'navi_location': {'lng': 108.88025647991, 'lat': 34.215984711941}, 'type': 'life', 'detail_url': 'http://api.map.baidu.com/place/detail?uid=e39316810b6c4f92a10464fc&output=html&source=placeapi_v2', 'overall_rating': '4.4', 'image_num': '4', 'comment_num': '8', 'children': []}}"
"{'name': '祯泰拳馆', 'location': {'lat': 34.199204, 'lng': 108.884822}, 'address': '西安市雁塔区锦业路锦业时代b3栋4楼', 'province': '陕西省', 'city': '西安市', 'area': '雁塔区', 'street_id': 'ac80cc5251ee5325f50e775b', 'telephone': '(029)88863020', 'detail': 1, 'uid': 'ac80cc5251ee5325f50e775b', 'detail_info': {'tag': '运动健身;体育场馆', 'navi_location': {'lng': 108.88342493759, 'lat': 34.199459685539}, 'type': 'life', 'detail_url': 'http://api.map.baidu.com/place/detail?uid=ac80cc5251ee5325f50e775b&output=html&source=placeapi_v2', 'overall_rating': '4.9', 'image_num': '19', 'comment_num': '34', 'children': []}}"
"{'name': '陕西省奥体青少年体育俱乐部', 'location': {'lat': 34.211027, 'lng': 108.890717}, 'address': '陕西省西安市雁塔区丈八东路303号陕西省体育训练中心内', 'province': '陕西省', 'city': '西安市', 'area': '雁塔区', 'street_id': '6bc20fcdbea896e83f9a5ec5', 'telephone': '(029)88587020', 'detail': 1, 'uid': '6bc20fcdbea896e83f9a5ec5', 'detail_info': {'tag': '运动健身;体育场馆', 'type': 'life', 'detail_url': 'http://api.map.baidu.com/place/detail?uid=6bc20fcdbea896e83f9a5ec5&output=html&source=placeapi_v2', 'overall_rating': '4.5', 'image_num': '5', 'comment_num': '2', 'children': []}}"
"{'name': '艾游游泳俱乐部', 'location': {'lat': 34.200218, 'lng': 108.890079}, 'address': '西安市高新区丈八东路与锦业路十字绿地假日酒店4楼', 'province': '陕西省', 'city': '西安市', 'area': '雁塔区', 'street_id': '0227b5652e67ba44c4f50dc9', 'telephone': '18220193157', 'detail': 1, 'uid': '0227b5652e67ba44c4f50dc9', 'detail_info': {'tag': '运动健身;体育场馆', 'type': 'life', 'detail_url': 'http://api.map.baidu.com/place/detail?uid=0227b5652e67ba44c4f50dc9&output=html&source=placeapi_v2', 'overall_rating': '4.8', 'image_num': '28', 'comment_num': '6', 'children': []}}"
"{'name': '星极篮球训练营', 'location': {'lat': 34.2003, 'lng': 108.880526}, 'address': '绿地国际俱乐部四楼篮球馆(丈八三路和锦业路交叉口西北角)', 'province': '陕西省', 'city': '西安市', 'area': '雁塔区', 'telephone': '(029)63372535,18182434013', 'detail': 1, 'uid': '13a95ac947ed103541d63e8e', 'detail_info': {'tag': '运动健身;体育场馆', 'type': 'life', 'detail_url': 'http://api.map.baidu.com/place/detail?uid=13a95ac947ed103541d63e8e&output=html&source=placeapi_v2', 'overall_rating': '4.7', 'image_num': '1', 'comment_num': '3', 'children': []}}"
"{'name': '卓力跆拳道俱乐部', 'location': {'lat': 34.237668, 'lng': 108.879658}, 'address': '陕西省西安市雁塔区唐兴路20号', 'province': '陕西省', 'city': '西安市', 'area': '雁塔区', 'telephone': '13201855852', 'detail': 1, 'uid': 'cd1c2d7607c2d58cb8bd6312', 'detail_info': {'tag': '运动健身;体育场馆', 'type': 'life', 'detail_url': 'http://api.map.baidu.com/place/detail?uid=cd1c2d7607c2d58cb8bd6312&output=html&source=placeapi_v2', 'overall_rating': '4.0', 'image_num': '9', 'comment_num': '2', 'children': []}}"
"{'name': 'v爱瑜伽', 'location': {'lat': 34.198064, 'lng': 108.881675}, 'address': '西安市雁塔区高新区丈八三路十字西南角旗远锦樾1号楼3单元32层3204室', 'province': '陕西省', 'city': '西安市', 'area': '雁塔区', 'street_id': '2efe990042da7a695e17c35e', 'telephone': '13759889683', 'detail': 1, 'uid': '2efe990042da7a695e17c35e', 'detail_info': {'tag': '运动健身;健身中心', 'type': 'life', 'detail_url': 'http://api.map.baidu.com/place/detail?uid=2efe990042da7a695e17c35e&output=html&source=placeapi_v2', 'overall_rating': '5.0', 'image_num': '13', 'comment_num': '31', 'children': []}}"
"{'name': '元海鱼化羽毛球馆', 'location': {'lat': 34.239521, 'lng': 108.877698}, 'address': '西安市雁塔区鱼斗路与丈八北路交叉路口往西约100米(尊贵壹中心西北侧)', 'province': '陕西省', 'city': '西安市', 'area': '雁塔区', 'detail': 1, 'uid': 'cc198b4796bbb687c056ac92', 'detail_info': {'tag': '运动健身;体育场馆', 'type': 'life', 'detail_url': 'http://api.map.baidu.com/place/detail?uid=cc198b4796bbb687c056ac92&output=html&source=placeapi_v2', 'overall_rating': '4.0', 'image_num': '1', 'children': []}}"
"{'name': '岳旗足球场', 'location': {'lat': 34.247165, 'lng': 108.823667}, 'address': '陕西省西安市雁塔区鱼跃路', 'province': '陕西省', 'city': '西安市', 'area': '雁塔区', 'telephone': '13572993621', 'detail': 1, 'uid': 'e0787d4c5359bbefc27da273', 'detail_info': {'tag': '运动健身;体育场馆', 'type': 'life', 'detail_url': 'http://api.map.baidu.com/place/detail?uid=e0787d4c5359bbefc27da273&output=html&source=placeapi_v2', 'overall_rating': '0.0', 'image_num': '2', 'comment_num': '1', 'children': []}}"
"{'name': '韩国台球馆', 'location': {'lat': 34.188852, 'lng': 108.888613}, 'address': '锦业二路逸翠尚府北区8号楼1层(招商银行后面)', 'province': '陕西省', 'city': '西安市', 'area': '雁塔区', 'detail': 1, 'uid': '618d30624b2456f007fef5ad', 'detail_info': {'tag': '运动健身;体育场馆', 'type': 'life', 'detail_url': 'http://api.map.baidu.com/place/detail?uid=618d30624b2456f007fef5ad&output=html&source=placeapi_v2', 'image_num': '1', 'children': []}}"
"{'name': '旭日篮球丈八训练营', 'location': {'lat': 34.211272, 'lng': 108.887546}, 'address': '西安市高新区上陕西省体育训练中心西北角综合馆', 'province': '陕西省', 'city': '西安市', 'area': '雁塔区', 'street_id': 'a444e66bee437b555d17c30d', 'detail': 1, 'uid': 'a444e66bee437b555d17c30d', 'detail_info': {'tag': '运动健身;体育场馆', 'type': 'life', 'detail_url': 'http://api.map.baidu.com/place/detail?uid=a444e66bee437b555d17c30d&output=html&source=placeapi_v2', 'image_num': '1', 'children': []}}"
"{'name': '亨泰·田邦丈八足球训练基地', 'location': {'lat': 34.208541, 'lng': 108.88927}, 'address': '丈八东路303号', 'province': '陕西省', 'city': '西安市', 'area': '雁塔区', 'street_id': 'f6e8037700e598af932ca3e9', 'detail': 1, 'uid': 'f6e8037700e598af932ca3e9', 'detail_info': {'tag': '运动健身;体育场馆', 'navi_location': {'lng': 108.88923372596, 'lat': 34.208358715848}, 'type': 'life', 'detail_url': 'http://api.map.baidu.com/place/detail?uid=f6e8037700e598af932ca3e9&output=html&source=placeapi_v2', 'overall_rating': '0.0', 'image_num': '1', 'children': []}}"
"{'name': '水晶岛酒店-羽毛球馆', 'location': {'lat': 34.213684, 'lng': 108.894188}, 'address': '陕西省西安市雁塔区西安高新区沣惠南路南端水晶岛酒店8层', 'province': '陕西省', 'city': '西安市', 'area': '雁塔区', 'street_id': '7ccb33339ae0d620c61b7541', 'telephone': '(029)88159999', 'detail': 1, 'uid': '7ccb33339ae0d620c61b7541', 'detail_info': {'tag': '运动健身;体育场馆', 'navi_location': {'lng': 108.89444146801, 'lat': 34.213910753627}, 'type': 'life', 'detail_url': 'http://api.map.baidu.com/place/detail?uid=7ccb33339ae0d620c61b7541&output=html&source=placeapi_v2', 'price': '30', 'overall_rating': '3.0', 'image_num': '1', 'comment_num': '2', 'children': []}}"
"{'name': '红涛武馆', 'location': {'lat': 34.188329, 'lng': 108.838058}, 'address': '西安市长安区定昆池一路与上林苑一路交叉路口往西南约50米(西安高新创汇社区)', 'province': '陕西省', 'city': '西安市', 'area': '长安区', 'detail': 1, 'uid': 'f0ae6433a6b8cdc32b11d136', 'detail_info': {'tag': '运动健身;体育场馆', 'type': 'life', 'detail_url': 'http://api.map.baidu.com/place/detail?uid=f0ae6433a6b8cdc32b11d136&output=html&source=placeapi_v2', 'image_num': '4', 'children': []}}"
"{'name': '城市风景都市印象游泳馆', 'location': {'lat': 34.241278, 'lng': 108.879449}, 'address': '高新区科技路82号都市印象小区内', 'province': '陕西省', 'city': '西安市', 'area': '雁塔区', 'detail': 1, 'uid': '7310f2c408693a502bd7abc9', 'detail_info': {'tag': '运动健身;体育场馆', 'type': 'life', 'detail_url': 'http://api.map.baidu.com/place/detail?uid=7310f2c408693a502bd7abc9&output=html&source=placeapi_v2', 'overall_rating': '4.5', 'image_num': '1', 'comment_num': '2', 'children': []}}"
"{'name': '天朗森柏大酒店-室内游泳池', 'location': {'lat': 34.242086, 'lng': 108.878338}, 'address': '丈八北路380号天朗森柏大酒店内', 'province': '陕西省', 'city': '西安市', 'area': '雁塔区', 'street_id': '569b76124ce947c033169b2b', 'telephone': '(029)84118888', 'detail': 1, 'uid': '569b76124ce947c033169b2b', 'detail_info': {'tag': '运动健身;体育场馆', 'type': 'life', 'detail_url': 'http://api.map.baidu.com/place/detail?uid=569b76124ce947c033169b2b&output=html&source=placeapi_v2', 'overall_rating': '5.0', 'image_num': '1', 'comment_num': '1', 'children': []}}"
"{'name': '西安绿地假日酒店-游泳池', 'location': {'lat': 34.200277, 'lng': 108.890041}, 'address': '高新区锦业路1号西安绿地假日酒店3-4楼', 'province': '陕西省', 'city': '西安市', 'area': '雁塔区', 'street_id': '13f89260fdebf8544207c1ad', 'telephone': '18538111293', 'detail': 1, 'uid': '13f89260fdebf8544207c1ad', 'detail_info': {'tag': '运动健身;体育场馆', 'navi_location': {'lng': 108.88991239578, 'lat': 34.200288028288}, 'type': 'life', 'detail_url': 'http://api.map.baidu.com/place/detail?uid=13f89260fdebf8544207c1ad&output=html&source=placeapi_v2', 'overall_rating': '5.0', 'image_num': '1', 'comment_num': '1', 'children': []}}"
"{'name': '博凯体育俱乐部', 'location': {'lat': 34.242371, 'lng': 108.87842}, 'address': '陕西省西安市雁塔区丈八北路380号', 'province': '陕西省', 'city': '西安市', 'area': '雁塔区', 'telephone': '(029)88693936', 'detail': 1, 'uid': '3b0b788c818f0649ad0457eb', 'detail_info': {'tag': '运动健身;体育场馆', 'type': 'life', 'detail_url': 'http://api.map.baidu.com/place/detail?uid=3b0b788c818f0649ad0457eb&output=html&source=placeapi_v2', 'image_num': '1', 'children': []}}"
"{'name': '陕西省奥体青少年体育俱乐部五人制足球场', 'location': {'lat': 34.210668, 'lng': 108.888873}, 'address': '陕西省西安市雁塔区丈八东路303号陕西体育训练中心', 'province': '陕西省', 'city': '西安市', 'area': '雁塔区', 'telephone': '(029)88587020', 'detail': 1, 'uid': 'c5ba9d7b47099e98420245ba', 'detail_info': {'tag': '运动健身;体育场馆', 'type': 'life', 'detail_url': 'http://api.map.baidu.com/place/detail?uid=c5ba9d7b47099e98420245ba&output=html&source=placeapi_v2', 'overall_rating': '4.0', 'image_num': '1', 'comment_num': '1', 'children': []}}"
"{'name': '陕西宾馆-游泳中心', 'location': {'lat': 34.208851, 'lng': 108.880675}, 'address': '丈八东路', 'province': '陕西省', 'city': '西安市', 'area': '雁塔区', 'street_id': 'd5169dc4adaf043407026f39', 'detail': 1, 'uid': 'd5169dc4adaf043407026f39', 'detail_info': {'tag': '运动健身;体育场馆', 'type': 'life', 'detail_url': 'http://api.map.baidu.com/place/detail?uid=d5169dc4adaf043407026f39&output=html&source=placeapi_v2', 'overall_rating': '3.0', 'image_num': '1', 'comment_num': '2', 'children': []}}"
"{'name': '绿地国际俱乐部', 'location': {'lat': 34.200322, 'lng': 108.881008}, 'address': '锦业路3号', 'province': '陕西省', 'city': '西安市', 'area': '雁塔区', 'street_id': '61a8d69e05134551744ff182', 'telephone': '(029)81109548', 'detail': 1, 'uid': '61a8d69e05134551744ff182', 'detail_info': {'tag': '休闲娱乐;ktv', 'navi_location': {'lng': 108.88114778792, 'lat': 34.19998681467}, 'type': 'life', 'detail_url': 'http://api.map.baidu.com/place/detail?uid=61a8d69e05134551744ff182&output=html&source=placeapi_v2', 'overall_rating': '0.0', 'image_num': '3', 'comment_num': '1', 'children': []}}"
"{'name': '凯普飞游泳俱乐部(锦业路店)', 'location': {'lat': 34.200316, 'lng': 108.890525}, 'address': '锦业路绿地假日酒店4楼', 'province': '陕西省', 'city': '西安市', 'area': '雁塔区', 'detail': 1, 'uid': '0669976c8669f0cfae31e57e', 'detail_info': {'tag': '运动健身;体育场馆', 'type': 'life', 'detail_url': 'http://api.map.baidu.com/place/detail?uid=0669976c8669f0cfae31e57e&output=html&source=placeapi_v2', 'image_num': '1', 'children': []}}"
"{'name': '正大桌球会所', 'location': {'lat': 34.203348, 'lng': 108.858014}, 'address': '高新区丈八西路袁旗寨新村40排7号商铺2楼(家都购物广场)', 'province': '陕西省', 'city': '西安市', 'area': '雁塔区', 'street_id': 'a69055eb2d9808f54f3a5970', 'telephone': '17782630918', 'detail': 1, 'uid': 'a69055eb2d9808f54f3a5970', 'detail_info': {'tag': '休闲娱乐;游戏场所', 'navi_location': {'lng': 108.85796288472, 'lat': 34.203536821083}, 'type': 'life', 'detail_url': 'http://api.map.baidu.com/place/detail?uid=a69055eb2d9808f54f3a5970&output=html&source=placeapi_v2', 'overall_rating': '4.8', 'image_num': '22', 'comment_num': '5', 'children': []}}"
"{'name': '蓝鲸快乐宝贝游泳馆(伟业公馆店)', 'location': {'lat': 34.244831, 'lng': 108.883514}, 'address': '伟业公馆西门', 'province': '陕西省', 'city': '西安市', 'area': '雁塔区', 'detail': 1, 'uid': 'db1b815ef50f2f003ce231f9', 'detail_info': {'tag': '运动健身;体育场馆', 'type': 'life', 'detail_url': 'http://api.map.baidu.com/place/detail?uid=db1b815ef50f2f003ce231f9&output=html&source=placeapi_v2', 'overall_rating': '1.0', 'image_num': '1', 'comment_num': '1', 'children': []}}"
"{'name': '西安外事学院南校区羽毛球场', 'location': {'lat': 34.235194, 'lng': 108.872372}, 'address': '凌云路附近', 'province': '陕西省', 'city': '西安市', 'area': '雁塔区', 'detail': 1, 'uid': '823a603efb863014c356acd9', 'detail_info': {'tag': '运动健身;体育场馆', 'type': 'life', 'detail_url': 'http://api.map.baidu.com/place/detail?uid=823a603efb863014c356acd9&output=html&source=placeapi_v2', 'image_num': '1', 'children': []}}"
"{'name': '源动力乒乓球体育运动中心(紫薇总店)', 'location': {'lat': 34.187428, 'lng': 108.888569}, 'address': '唐延南路与锦业二路交叉口西南150米习致学堂2层', 'province': '陕西省', 'city': '西安市', 'area': '雁塔区', 'telephone': '15596809802', 'detail': 1, 'uid': '906eb6add623a28e047ce8be', 'detail_info': {'tag': '运动健身;体育场馆', 'type': 'life', 'detail_url': 'http://api.map.baidu.com/place/detail?uid=906eb6add623a28e047ce8be&output=html&source=placeapi_v2', 'image_num': '1', 'children': []}}"
"{'name': 'P.E-MIX综合运动中心', 'location': {'lat': 34.249273, 'lng': 108.873276}, 'address': '丈八北路与大寨路十字路口向西200米(南风日化厂内)', 'province': '陕西省', 'city': '西安市', 'area': '雁塔区', 'street_id': '63b3c7ff0f665734b21e36ad', 'detail': 1, 'uid': '63b3c7ff0f665734b21e36ad', 'detail_info': {'tag': '运动健身;其他', 'type': 'life', 'detail_url': 'http://api.map.baidu.com/place/detail?uid=63b3c7ff0f665734b21e36ad&output=html&source=placeapi_v2', 'overall_rating': '4.7', 'image_num': '1', 'comment_num': '6', 'children': []}}"
"{'name': '陕西生奥体青少年体育俱乐部室外篮球场', 'location': {'lat': 34.211718, 'lng': 108.885647}, 'address': '陕西省西安市雁塔区丈八东路与科技八路交叉口东北200米', 'province': '陕西省', 'city': '西安市', 'area': '雁塔区', 'street_id': '4e929a087d7b20312fb90801', 'detail': 1, 'uid': '4e929a087d7b20312fb90801', 'detail_info': {'tag': '运动健身;体育场馆', 'type': 'life', 'detail_url': 'http://api.map.baidu.com/place/detail?uid=4e929a087d7b20312fb90801&output=html&source=placeapi_v2', 'image_num': '1', 'children': []}}"
"{'name': '励进海升酒店-私人会所', 'location': {'lat': 34.218525, 'lng': 108.891524}, 'address': '西安市高新区沣惠南路34号励进海升酒店4层', 'province': '陕西省', 'city': '西安市', 'area': '雁塔区', 'street_id': 'ff678492c9096efdbfa822e2', 'telephone': '(029)83266666', 'detail': 1, 'uid': 'ff678492c9096efdbfa822e2', 'detail_info': {'tag': '运动健身;体育场馆', 'type': 'life', 'detail_url': 'http://api.map.baidu.com/place/detail?uid=ff678492c9096efdbfa822e2&output=html&source=placeapi_v2', 'overall_rating': '0.0', 'image_num': '1', 'children': []}}"
"{'name': '乐道跆拳道馆(绿地世纪城店)', 'location': {'lat': 34.200724, 'lng': 108.879856}, 'address': '锦业路绿地世纪城艺饕街A10221', 'province': '陕西省', 'city': '西安市', 'area': '雁塔区', 'street_id': '7b91d5b0be34c0346d20b9c5', 'detail': 1, 'uid': '7b91d5b0be34c0346d20b9c5', 'detail_info': {'tag': '运动健身;体育场馆', 'navi_location': {'lng': 108.87991243099, 'lat': 34.200142413238}, 'type': 'life', 'detail_url': 'http://api.map.baidu.com/place/detail?uid=7b91d5b0be34c0346d20b9c5&output=html&source=placeapi_v2', 'overall_rating': '4.0', 'image_num': '19', 'comment_num': '5', 'children': []}}"
"{'name': '卓越跆拳道', 'location': {'lat': 34.227158, 'lng': 108.880021}, 'address': '陕西省西安市雁塔区丈八北路与科技四路十字东北角夏日景色小区西口中国移动二楼', 'province': '陕西省', 'city': '西安市', 'area': '雁塔区', 'detail': 1, 'uid': '63deb6704fc807eec26c145b', 'detail_info': {'tag': '运动健身;体育场馆', 'type': 'life', 'detail_url': 'http://api.map.baidu.com/place/detail?uid=63deb6704fc807eec26c145b&output=html&source=placeapi_v2', 'overall_rating': '0.0', 'image_num': '1', 'comment_num': '1', 'children': []}}"
"{'name': '亿龙桌球俱乐部', 'location': {'lat': 34.233297, 'lng': 108.85694}, 'address': '陕西省西安市雁塔区英农路', 'province': '陕西省', 'city': '西安市', 'area': '雁塔区', 'street_id': '7e3b2a54aca27072f4e73bff', 'detail': 1, 'uid': '7e3b2a54aca27072f4e73bff', 'detail_info': {'tag': '运动健身;体育场馆', 'type': 'life', 'detail_url': 'http://api.map.baidu.com/place/detail?uid=7e3b2a54aca27072f4e73bff&output=html&source=placeapi_v2', 'image_num': '3', 'children': []}}"
"{'name': '海星游泳馆', 'location': {'lat': 34.234105, 'lng': 108.858852}, 'address': '陕西省西安市雁塔区鱼斗路257号附近', 'province': '陕西省', 'city': '西安市', 'area': '雁塔区', 'detail': 1, 'uid': '4eb9c9d454fe917f4afd3fcc', 'detail_info': {'tag': '运动健身;体育场馆', 'type': 'life', 'detail_url': 'http://api.map.baidu.com/place/detail?uid=4eb9c9d454fe917f4afd3fcc&output=html&source=placeapi_v2', 'image_num': '1', 'children': []}}"
"{'name': '动感游艺馆', 'location': {'lat': 34.242839, 'lng': 108.885205}, 'address': '西安市雁塔区陈家庄北门旁梧桐朗座1楼', 'province': '陕西省', 'city': '西安市', 'area': '雁塔区', 'street_id': 'c91ae534eca17eeef523106b', 'detail': 1, 'uid': 'c91ae534eca17eeef523106b', 'detail_info': {'tag': '运动健身;体育场馆', 'type': 'life', 'detail_url': 'http://api.map.baidu.com/place/detail?uid=c91ae534eca17eeef523106b&output=html&source=placeapi_v2', 'image_num': '1', 'children': []}}"
"{'name': '尚府桌球', 'location': {'lat': 34.188993, 'lng': 108.889329}, 'address': '陕西省西安市雁塔区唐延路与锦业二路十字西北角逸翠尚府8号楼4单元4楼401室', 'province': '陕西省', 'city': '西安市', 'area': '雁塔区', 'telephone': '(029)68723936', 'detail': 1, 'uid': 'ea19930b246100a2932ca358', 'detail_info': {'tag': '休闲娱乐;游戏场所', 'type': 'life', 'detail_url': 'http://api.map.baidu.com/place/detail?uid=ea19930b246100a2932ca358&output=html&source=placeapi_v2', 'price': '10', 'overall_rating': '4.5', 'image_num': '1', 'comment_num': '4', 'children': []}}"
"{'name': '陕西威纳尔网球俱乐部', 'location': {'lat': 34.235836, 'lng': 108.875443}, 'address': '西安市雁塔区高新区丈八北路头外事学院南校区内网球场', 'province': '陕西省', 'city': '西安市', 'area': '雁塔区', 'telephone': '13572209380', 'detail': 1, 'uid': 'e4a3f4ec10ebeb8fa2a93436', 'detail_info': {'tag': '运动健身;体育场馆', 'type': 'life', 'detail_url': 'http://api.map.baidu.com/place/detail?uid=e4a3f4ec10ebeb8fa2a93436&output=html&source=placeapi_v2', 'image_num': '1', 'children': []}}"
"{'name': '一如跆拳道(国宾馆)', 'location': {'lat': 34.215551, 'lng': 108.878149}, 'address': '陕西省西安市雁塔区科技七路', 'province': '陕西省', 'city': '西安市', 'area': '雁塔区', 'telephone': '15249000739', 'detail': 1, 'uid': 'bdda6e4754b3de854251c07b', 'detail_info': {'tag': '运动健身;体育场馆', 'type': 'life', 'detail_url': 'http://api.map.baidu.com/place/detail?uid=bdda6e4754b3de854251c07b&output=html&source=placeapi_v2', 'overall_rating': '0.0', 'image_num': '12', 'children': []}}"
"{'name': '陕西宜生阳光体育用品公司笼式足球场', 'location': {'lat': 34.211749, 'lng': 108.893167}, 'address': '科技八路北100米', 'province': '陕西省', 'city': '西安市', 'area': '雁塔区', 'detail': 1, 'uid': '9086e8c17965ece33586f4a4', 'detail_info': {'tag': '运动健身;体育场馆', 'type': 'life', 'detail_url': 'http://api.map.baidu.com/place/detail?uid=9086e8c17965ece33586f4a4&output=html&source=placeapi_v2', 'overall_rating': '3.0', 'image_num': '1', 'children': []}}"
"{'name': '弘德武术馆', 'location': {'lat': 34.245979, 'lng': 108.87982}, 'address': '陕西省西安市雁塔区丈八北路10号南90米', 'province': '陕西省', 'city': '西安市', 'area': '雁塔区', 'detail': 1, 'uid': '214e740639a47720fa42b23b', 'detail_info': {'tag': '运动健身;体育场馆', 'type': 'life', 'detail_url': 'http://api.map.baidu.com/place/detail?uid=214e740639a47720fa42b23b&output=html&source=placeapi_v2', 'image_num': '4', 'children': []}}"
"{'name': '陕西体育训练中心室外游泳场', 'location': {'lat': 34.20983, 'lng': 108.887856}, 'address': '陕西省西安市雁塔区高新区丈八东路319号体育训练中心', 'province': '陕西省', 'city': '西安市', 'area': '雁塔区', 'detail': 1, 'uid': '13c442982171a1d0cb213dd5', 'detail_info': {'tag': '运动健身;体育场馆', 'type': 'life', 'detail_url': 'http://api.map.baidu.com/place/detail?uid=13c442982171a1d0cb213dd5&output=html&source=placeapi_v2', 'image_num': '1', 'children': []}}"
"{'name': '陕西宾馆18号楼-乒乓球馆', 'location': {'lat': 34.209809, 'lng': 108.879037}, 'address': '丈八北路1号', 'province': '陕西省', 'city': '西安市', 'area': '雁塔区', 'street_id': '722232c531ab7f5d047ce83b', 'telephone': '(029)68899999', 'detail': 1, 'uid': '722232c531ab7f5d047ce83b', 'detail_info': {'tag': '运动健身;体育场馆', 'navi_location': {'lng': 108.87898876722, 'lat': 34.209505887184}, 'type': 'life', 'detail_url': 'http://api.map.baidu.com/place/detail?uid=722232c531ab7f5d047ce83b&output=html&source=placeapi_v2', 'image_num': '1', 'children': []}}"
"{'name': '陕西省武馆中心', 'location': {'lat': 34.211174, 'lng': 108.889821}, 'address': '丈八东路303号', 'province': '陕西省', 'city': '西安市', 'area': '雁塔区', 'detail': 1, 'uid': 'e29aca957c0e3b3acb213d0a', 'detail_info': {'tag': '运动健身;体育场馆', 'type': 'life', 'detail_url': 'http://api.map.baidu.com/place/detail?uid=e29aca957c0e3b3acb213d0a&output=html&source=placeapi_v2', 'image_num': '1', 'children': []}}"
"{'name': 'Golf Park模拟高尔夫', 'location': {'lat': 34.189217, 'lng': 108.888938}, 'address': '西安市雁塔区锦业二路与唐延南路交叉路口往西北约50米(逸翠·尚府北区)', 'province': '陕西省', 'city': '西安市', 'area': '雁塔区', 'street_id': '604ad0592d64a07cfda7782c', 'detail': 1, 'uid': '604ad0592d64a07cfda7782c', 'detail_info': {'tag': '运动健身;体育场馆', 'type': 'life', 'detail_url': 'http://api.map.baidu.com/place/detail?uid=604ad0592d64a07cfda7782c&output=html&source=placeapi_v2', 'image_num': '7', 'children': []}}"
"{'name': 'FourFit美式体能训练馆', 'location': {'lat': 34.250744, 'lng': 108.887499}, 'address': '西安市雁塔区大寨路与团结南路交叉路口西侧(盛景园)', 'province': '陕西省', 'city': '西安市', 'area': '雁塔区', 'detail': 1, 'uid': '0c99ebe59389d4044107c17b', 'detail_info': {'tag': '运动健身;体育场馆', 'type': 'life', 'detail_url': 'http://api.map.baidu.com/place/detail?uid=0c99ebe59389d4044107c17b&output=html&source=placeapi_v2', 'image_num': '1', 'children': []}}"
"{'name': '飞翔跆拳道', 'location': {'lat': 34.243944, 'lng': 108.879309}, 'address': '科技路华润万家楼上6楼', 'province': '陕西省', 'city': '西安市', 'area': '雁塔区', 'detail': 1, 'uid': '38209e1c6e4eb459c909f0fd', 'detail_info': {'tag': '运动健身;体育场馆', 'type': 'life', 'detail_url': 'http://api.map.baidu.com/place/detail?uid=38209e1c6e4eb459c909f0fd&output=html&source=placeapi_v2', 'image_num': '2', 'children': []}}"
"{'name': '秀川跆拳道俱乐部', 'location': {'lat': 34.207194, 'lng': 108.872652}, 'address': '高新区瞪羚路嘉禾广运大厦三楼', 'province': '陕西省', 'city': '西安市', 'area': '雁塔区', 'detail': 1, 'uid': '42578de226c4f6a2dbd891e3', 'detail_info': {'tag': '运动健身;体育场馆', 'type': 'life', 'detail_url': 'http://api.map.baidu.com/place/detail?uid=42578de226c4f6a2dbd891e3&output=html&source=placeapi_v2', 'image_num': '1', 'children': []}}"
"{'name': '7号桌球城', 'location': {'lat': 34.249605, 'lng': 108.851272}, 'address': '西安市雁塔区经十五路与纬一路交叉路口往北约100米(石桥欣苑东侧)', 'province': '陕西省', 'city': '西安市', 'area': '雁塔区', 'detail': 1, 'uid': 'c11974561cfa2e1eae080f3c', 'detail_info': {'tag': '休闲娱乐;游戏场所', 'type': 'life', 'detail_url': 'http://api.map.baidu.com/place/detail?uid=c11974561cfa2e1eae080f3c&output=html&source=placeapi_v2', 'overall_rating': '5.0', 'image_num': '6', 'comment_num': '1', 'children': []}}"
"{'name': 'GOLFZON室内高尔夫', 'location': {'lat': 34.201352, 'lng': 108.883181}, 'address': '锦业路绿地世纪城韩国城3层', 'province': '陕西省', 'city': '西安市', 'area': '雁塔区', 'street_id': '4fbf0a05dbcbdf44ae080f25', 'telephone': '(029)68729650', 'detail': 1, 'uid': '4fbf0a05dbcbdf44ae080f25', 'detail_info': {'tag': '运动健身;体育场馆', 'navi_location': {'lng': 108.88326222302, 'lat': 34.201496250945}, 'type': 'life', 'detail_url': 'http://api.map.baidu.com/place/detail?uid=4fbf0a05dbcbdf44ae080f25&output=html&source=placeapi_v2', 'overall_rating': '0.0', 'image_num': '3', 'children': []}}"
"{'name': '舞彩童年少儿舞蹈培训中心', 'location': {'lat': 34.246142, 'lng': 108.890016}, 'address': '西安市雁塔区科技路西段239号中华世纪城内金色摇篮幼儿园西s4-105', 'province': '陕西省', 'city': '西安市', 'area': '雁塔区', 'street_id': '01d17982c6f64a93badf8fe4', 'detail': 1, 'uid': '01d17982c6f64a93badf8fe4', 'detail_info': {'tag': '教育培训;培训机构', 'type': 'life', 'detail_url': 'http://api.map.baidu.com/place/detail?uid=01d17982c6f64a93badf8fe4&output=html&source=placeapi_v2', 'image_num': '8', 'children': []}}"
"{'name': '逐风健身俱乐部', 'location': {'lat': 34.275549, 'lng': 108.869056}, 'address': '陕西省西安市莲湖区大庆路与丰隆路十字西北角华府西城港湾11号楼3层303商铺', 'province': '陕西省', 'city': '西安市', 'area': '莲湖区', 'street_id': 'e217d34eac2e1cc3b020a819', 'telephone': '(029)88858880', 'detail': 1, 'uid': 'e217d34eac2e1cc3b020a819', 'detail_info': {'tag': '运动健身;健身中心', 'type': 'life', 'detail_url': 'http://api.map.baidu.com/place/detail?uid=e217d34eac2e1cc3b020a819&output=html&source=placeapi_v2', 'overall_rating': '4.2', 'image_num': '6', 'comment_num': '26', 'children': []}}"
"{'name': '铭城健身中心', 'location': {'lat': 34.251538, 'lng': 108.862465}, 'address': '西安市雁塔区大寨路铭城国际社区铭城售楼中心负1层', 'province': '陕西省', 'city': '西安市', 'area': '雁塔区', 'street_id': '5d26a8b519df2d290b69d9bd', 'detail': 1, 'uid': '5d26a8b519df2d290b69d9bd', 'detail_info': {'tag': '运动健身;健身中心', 'type': 'life', 'detail_url': 'http://api.map.baidu.com/place/detail?uid=5d26a8b519df2d290b69d9bd&output=html&source=placeapi_v2', 'overall_rating': '3.8', 'image_num': '4', 'comment_num': '18', 'children': []}}"
"{'name': '动岚健身(西城馨苑店)', 'location': {'lat': 34.296192, 'lng': 108.846136}, 'address': '西安市未央区西城馨苑3楼', 'province': '陕西省', 'city': '西安市', 'area': '未央区', 'street_id': '36cf3de3dd7d8001451a32fd', 'telephone': '(029)89119908', 'detail': 1, 'uid': '36cf3de3dd7d8001451a32fd', 'detail_info': {'tag': '运动健身;健身中心', 'type': 'life', 'detail_url': 'http://api.map.baidu.com/place/detail?uid=36cf3de3dd7d8001451a32fd&output=html&source=placeapi_v2', 'overall_rating': '3.9', 'image_num': '30', 'comment_num': '14', 'children': []}}"
"{'name': 'GOODMAN健君游泳健身会馆', 'location': {'lat': 34.253944, 'lng': 108.891107}, 'address': '团结南路1号融侨城', 'province': '陕西省', 'city': '西安市', 'area': '雁塔区', 'street_id': '4d7bb8e8a8cdecddadb22aa1', 'telephone': '(029)82161666,15332377273', 'detail': 1, 'uid': '4d7bb8e8a8cdecddadb22aa1', 'detail_info': {'tag': '运动健身;健身中心', 'navi_location': {'lng': 108.89135261636, 'lat': 34.254228262077}, 'type': 'life', 'detail_url': 'http://api.map.baidu.com/place/detail?uid=4d7bb8e8a8cdecddadb22aa1&output=html&source=placeapi_v2', 'overall_rating': '3.4', 'image_num': '3', 'comment_num': '7', 'children': []}}"
"{'name': '西控职工健身俱乐部', 'location': {'lat': 34.272385, 'lng': 108.878125}, 'address': '汉城南路272号', 'province': '陕西省', 'city': '西安市', 'area': '莲湖区', 'street_id': '15e1e85e38ad0edf58109316', 'telephone': '(029)84675158', 'detail': 1, 'uid': '15e1e85e38ad0edf58109316', 'detail_info': {'tag': '运动健身;健身中心', 'navi_location': {'lng': 108.87848740405, 'lat': 34.272339211262}, 'type': 'life', 'detail_url': 'http://api.map.baidu.com/place/detail?uid=15e1e85e38ad0edf58109316&output=html&source=placeapi_v2', 'price': '30', 'overall_rating': '4.6', 'image_num': '14', 'comment_num': '8', 'children': []}}"
"{'name': '蓝悦健身俱乐部', 'location': {'lat': 34.274479, 'lng': 108.784858}, 'address': '沣东新城王寺街办芊域溪源B区13号楼', 'province': '陕西省', 'city': '西安市', 'area': '长安区', 'telephone': '(029)84512440', 'detail': 1, 'uid': 'd3ed039225cd7cb958f6be32', 'detail_info': {'tag': '运动健身;健身中心', 'type': 'life', 'detail_url': 'http://api.map.baidu.com/place/detail?uid=d3ed039225cd7cb958f6be32&output=html&source=placeapi_v2', 'overall_rating': '4.5', 'image_num': '1', 'comment_num': '2', 'children': []}}"
"{'name': '伯乐健身(和平村店)', 'location': {'lat': 34.265385, 'lng': 108.830578}, 'address': '未央区三桥街道和平村十字西南角人人乐六楼', 'province': '陕西省', 'city': '西安市', 'area': '未央区', 'street_id': '332eef2d1aaf741f75e5b6a9', 'telephone': '(029)88771123', 'detail': 1, 'uid': '332eef2d1aaf741f75e5b6a9', 'detail_info': {'tag': '运动健身;健身中心', 'type': 'life', 'detail_url': 'http://api.map.baidu.com/place/detail?uid=332eef2d1aaf741f75e5b6a9&output=html&source=placeapi_v2', 'overall_rating': '4.5', 'image_num': '2', 'comment_num': '4', 'children': []}}"
"{'name': '50+Fitness Center健身中心(恒大店)', 'location': {'lat': 34.274585, 'lng': 108.866681}, 'address': '西安市莲湖区大庆路758号恒大翡翠华庭商铺3楼', 'province': '陕西省', 'city': '西安市', 'area': '莲湖区', 'telephone': '(029)81501550', 'detail': 1, 'uid': '305f369706e28807d5b74e37', 'detail_info': {'tag': '运动健身;健身中心', 'type': 'life', 'detail_url': 'http://api.map.baidu.com/place/detail?uid=305f369706e28807d5b74e37&output=html&source=placeapi_v2', 'overall_rating': '5.0', 'image_num': '2', 'comment_num': '19', 'children': []}}"
"{'name': '迈斯菲利健身', 'location': {'lat': 34.251632, 'lng': 108.862504}, 'address': '大寨路铭城国际社区售楼部', 'province': '陕西省', 'city': '西安市', 'area': '雁塔区', 'street_id': 'a847f82e38166c219868b4d3', 'detail': 1, 'uid': 'a847f82e38166c219868b4d3', 'detail_info': {'tag': '运动健身;健身中心', 'type': 'life', 'detail_url': 'http://api.map.baidu.com/place/detail?uid=a847f82e38166c219868b4d3&output=html&source=placeapi_v2', 'overall_rating': '3.0', 'image_num': '9', 'comment_num': '2', 'children': []}}"
"{'name': 'gt健身房', 'location': {'lat': 34.307015, 'lng': 108.820557}, 'address': '陕西省西安市未央区启航时代广场c座gt健身房', 'province': '陕西省', 'city': '西安市', 'area': '未央区', 'detail': 1, 'uid': '170878bb592f99eb08f5ebd2', 'detail_info': {'tag': '运动健身;健身中心', 'type': 'life', 'detail_url': 'http://api.map.baidu.com/place/detail?uid=170878bb592f99eb08f5ebd2&output=html&source=placeapi_v2', 'overall_rating': '3.2', 'image_num': '1', 'comment_num': '7', 'children': []}}"
"{'name': 'Hi Lady女王健身(高新旗舰店)', 'location': {'lat': 34.253148, 'lng': 108.888138}, 'address': '安琪儿妇产医院北侧九行道3层', 'province': '陕西省', 'city': '西安市', 'area': '雁塔区', 'street_id': '864b955377d09ccfeee4a599', 'telephone': '(029)88643494,13474527677', 'detail': 1, 'uid': '864b955377d09ccfeee4a599', 'detail_info': {'tag': '运动健身;健身中心', 'type': 'life', 'detail_url': 'http://api.map.baidu.com/place/detail?uid=864b955377d09ccfeee4a599&output=html&source=placeapi_v2', 'overall_rating': '5.0', 'image_num': '15', 'comment_num': '75', 'children': []}}"
"{'name': 'REMAIN SUPERFIT运动轻食馆', 'location': {'lat': 34.253266, 'lng': 108.894018}, 'address': '唐延路北段20号太和时代广场一楼', 'province': '陕西省', 'city': '西安市', 'area': '雁塔区', 'telephone': '15991949000', 'detail': 1, 'uid': 'bbf8229397a79179eb56fa3b', 'detail_info': {'tag': '运动健身;健身中心', 'type': 'life', 'detail_url': 'http://api.map.baidu.com/place/detail?uid=bbf8229397a79179eb56fa3b&output=html&source=placeapi_v2', 'overall_rating': '5.0', 'image_num': '1', 'comment_num': '29', 'children': []}}"
"{'name': '家生健身中心', 'location': {'lat': 34.305177, 'lng': 108.845832}, 'address': '车辆厂文化活动中心2楼', 'province': '陕西省', 'city': '西安市', 'area': '未央区', 'street_id': '97aeb26a999dabb754bfff54', 'telephone': '18706745863,15389405375', 'detail': 1, 'uid': '97aeb26a999dabb754bfff54', 'detail_info': {'tag': '运动健身;健身中心', 'type': 'life', 'detail_url': 'http://api.map.baidu.com/place/detail?uid=97aeb26a999dabb754bfff54&output=html&source=placeapi_v2', 'overall_rating': '5.0', 'image_num': '1', 'comment_num': '2', 'children': []}}"
"{'name': '静心瑜伽(旗舰店)', 'location': {'lat': 34.275449, 'lng': 108.861432}, 'address': '陕西省西安市莲湖区大庆路931号', 'province': '陕西省', 'city': '西安市', 'area': '莲湖区', 'street_id': '6c1ba075966accf303ff2d68', 'telephone': '18710722019', 'detail': 1, 'uid': '6c1ba075966accf303ff2d68', 'detail_info': {'tag': '运动健身;健身中心', 'type': 'life', 'detail_url': 'http://api.map.baidu.com/place/detail?uid=6c1ba075966accf303ff2d68&output=html&source=placeapi_v2', 'overall_rating': '5.0', 'image_num': '11', 'comment_num': '2', 'children': []}}"
"{'name': '凡上静之瑜伽会馆', 'location': {'lat': 34.25251, 'lng': 108.875106}, 'address': '大寨路恒大城23号楼', 'province': '陕西省', 'city': '西安市', 'area': '雁塔区', 'telephone': '13609187970,(029)88699468', 'detail': 1, 'uid': '39406045b9d940cd4afd3fb3', 'detail_info': {'tag': '运动健身;健身中心', 'type': 'life', 'detail_url': 'http://api.map.baidu.com/place/detail?uid=39406045b9d940cd4afd3fb3&output=html&source=placeapi_v2', 'overall_rating': '5.0', 'image_num': '1', 'comment_num': '3', 'children': []}}"
"{'name': '释放舞蹈工作室', 'location': {'lat': 34.311656, 'lng': 108.847436}, 'address': '建章路万家和购物广场西侧20米', 'province': '陕西省', 'city': '西安市', 'area': '未央区', 'telephone': '(029)89100488', 'detail': 1, 'uid': '19b08bbabf3df6e0afb22a2b', 'detail_info': {'tag': '运动健身;健身中心', 'type': 'life', 'detail_url': 'http://api.map.baidu.com/place/detail?uid=19b08bbabf3df6e0afb22a2b&output=html&source=placeapi_v2', 'overall_rating': '5.0', 'image_num': '10', 'comment_num': '1', 'children': []}}"
"{'name': '健身游泳中心', 'location': {'lat': 34.251587, 'lng': 108.862563}, 'address': '陕西省西安市雁塔区大寨路', 'province': '陕西省', 'city': '西安市', 'area': '雁塔区', 'detail': 1, 'uid': '57a365bf632f5b8ef8f0cbf8', 'detail_info': {'tag': '运动健身;健身中心', 'type': 'life', 'detail_url': 'http://api.map.baidu.com/place/detail?uid=57a365bf632f5b8ef8f0cbf8&output=html&source=placeapi_v2', 'image_num': '1', 'children': []}}"
"{'name': 'VPOWER健身定制工作室', 'location': {'lat': 34.29603, 'lng': 108.83071}, 'address': '陕西省西安市征和六路华润二十四城四期38-10203号', 'province': '陕西省', 'city': '西安市', 'area': '未央区', 'telephone': '15029285595', 'detail': 1, 'uid': '7c03208a9460ba615fbe8678', 'detail_info': {'tag': '运动健身;健身中心', 'type': 'life', 'detail_url': 'http://api.map.baidu.com/place/detail?uid=7c03208a9460ba615fbe8678&output=html&source=placeapi_v2', 'overall_rating': '0.0', 'image_num': '1', 'comment_num': '1', 'children': []}}"
"{'name': '龙华小区-中老年健身协会', 'location': {'lat': 34.289172, 'lng': 108.853464}, 'address': '陕西省西安市未央区三桥宜家东侧路福星苑旁', 'province': '陕西省', 'city': '西安市', 'area': '未央区', 'street_id': '1a99f68739ec1e0614c8f638', 'detail': 1, 'uid': '1a99f68739ec1e0614c8f638', 'detail_info': {'tag': '运动健身;健身中心', 'type': 'life', 'detail_url': 'http://api.map.baidu.com/place/detail?uid=1a99f68739ec1e0614c8f638&output=html&source=placeapi_v2', 'image_num': '1', 'children': []}}"
"{'name': '杰仕健身游泳', 'location': {'lat': 34.264643, 'lng': 108.832156}, 'address': '西安市未央区西宝疏导线与沣东大道交叉路口往南约50米(土门制药厂)', 'province': '陕西省', 'city': '西安市', 'area': '未央区', 'detail': 1, 'uid': 'a2aca2f20055fd833362128f', 'detail_info': {'tag': '运动健身;健身中心', 'type': 'life', 'detail_url': 'http://api.map.baidu.com/place/detail?uid=a2aca2f20055fd833362128f&output=html&source=placeapi_v2', 'image_num': '1', 'children': []}}"
"{'name': '千水莲瑜伽(西咸吾悦广场店)', 'location': {'lat': 34.259444, 'lng': 108.828776}, 'address': '西咸新区沣东新城昆明路与天台路交汇处西北角西咸吾悦广场7楼', 'province': '陕西省', 'city': '西安市', 'area': '未央区', 'telephone': '(029)89501549', 'detail': 1, 'uid': 'ee57b7b4509975d8f8f0cb61', 'detail_info': {'tag': '运动健身;健身中心', 'type': 'life', 'detail_url': 'http://api.map.baidu.com/place/detail?uid=ee57b7b4509975d8f8f0cb61&output=html&source=placeapi_v2', 'overall_rating': '0.0', 'image_num': '1', 'comment_num': '1', 'children': []}}"
"{'name': '梵客瑜伽FancoYoga', 'location': {'lat': 34.2538, 'lng': 108.871419}, 'address': '大寨路99号恒大城39号楼1502室', 'province': '陕西省', 'city': '西安市', 'area': '雁塔区', 'telephone': '18149390199,15991859566', 'detail': 1, 'uid': '4988fd251c20a34a6cc02cc8', 'detail_info': {'tag': '运动健身;健身中心', 'type': 'life', 'detail_url': 'http://api.map.baidu.com/place/detail?uid=4988fd251c20a34a6cc02cc8&output=html&source=placeapi_v2', 'image_num': '1', 'children': []}}"
"{'name': '舞欣级舞蹈工作室', 'location': {'lat': 34.265452, 'lng': 108.827269}, 'address': '红光路和平小学向西200米夏伟理发店二楼', 'province': '陕西省', 'city': '西安市', 'area': '未央区', 'detail': 1, 'uid': '16eb893b14cd9de726e0a0b6', 'detail_info': {'tag': '运动健身;健身中心', 'type': 'life', 'detail_url': 'http://api.map.baidu.com/place/detail?uid=16eb893b14cd9de726e0a0b6&output=html&source=placeapi_v2', 'image_num': '1', 'children': []}}"
"{'name': '家生健身中心', 'location': {'lat': 34.303142, 'lng': 108.852601}, 'address': '陕西省西安市未央区花园东街', 'province': '陕西省', 'city': '西安市', 'area': '未央区', 'detail': 1, 'uid': 'cb03555a3bee25d7bda24030', 'detail_info': {'tag': '运动健身;健身中心', 'type': 'life', 'detail_url': 'http://api.map.baidu.com/place/detail?uid=cb03555a3bee25d7bda24030&output=html&source=placeapi_v2', 'image_num': '2', 'children': []}}"
"{'name': '主场篮球(土门工厂店)', 'location': {'lat': 34.267602, 'lng': 108.8696}, 'address': '红光路91号', 'province': '陕西省', 'city': '西安市', 'area': '莲湖区', 'street_id': 'a8cbbfe63df036f13be4a6a7', 'telephone': '(029)84580309,15529606298', 'detail': 1, 'uid': 'a8cbbfe63df036f13be4a6a7', 'detail_info': {'tag': '运动健身;体育场馆', 'type': 'life', 'detail_url': 'http://api.map.baidu.com/place/detail?uid=a8cbbfe63df036f13be4a6a7&output=html&source=placeapi_v2', 'price': '21', 'overall_rating': '4.4', 'image_num': '27', 'comment_num': '57', 'children': []}}"
"{'name': '健身方程室', 'location': {'lat': 34.253668, 'lng': 108.883431}, 'address': '陕西省西安市雁塔区民洁路1号北80米', 'province': '陕西省', 'city': '西安市', 'area': '雁塔区', 'telephone': '(029)89851616', 'detail': 1, 'uid': '8c1ad32ee1b4aa5575e5b6d8', 'detail_info': {'tag': '运动健身', 'type': 'life', 'detail_url': 'http://api.map.baidu.com/place/detail?uid=8c1ad32ee1b4aa5575e5b6d8&output=html&source=placeapi_v2', 'overall_rating': '0.0', 'image_num': '6', 'comment_num': '0', 'children': []}}"
"{'name': '体育场', 'location': {'lat': 34.308522, 'lng': 108.846832}, 'address': '西安市未央区建章路83号', 'province': '陕西省', 'city': '西安市', 'area': '未央区', 'street_id': '4eb3b5339398b708430245c9', 'detail': 1, 'uid': '4eb3b5339398b708430245c9', 'detail_info': {'tag': '运动健身;体育场馆', 'navi_location': {'lng': 108.84824672519, 'lat': 34.309270315042}, 'type': 'life', 'detail_url': 'http://api.map.baidu.com/place/detail?uid=4eb3b5339398b708430245c9&output=html&source=placeapi_v2', 'overall_rating': '4.0', 'image_num': '1', 'comment_num': '4', 'children': []}}"
"{'name': '汉唐体育运动中心', 'location': {'lat': 34.313805, 'lng': 108.819956}, 'address': '孙围墙工业园西环路1号', 'province': '陕西省', 'city': '西安市', 'area': '未央区', 'telephone': '(029)84533700', 'detail': 1, 'uid': '1ee1d10698f734997ab55c49', 'detail_info': {'tag': '运动健身;体育场馆', 'type': 'life', 'detail_url': 'http://api.map.baidu.com/place/detail?uid=1ee1d10698f734997ab55c49&output=html&source=placeapi_v2', 'overall_rating': '5.0', 'image_num': '3', 'comment_num': '1', 'children': []}}"
"{'name': '西钞羽毛球馆', 'location': {'lat': 34.269302, 'lng': 108.877368}, 'address': '汉城南路92号', 'province': '陕西省', 'city': '西安市', 'area': '莲湖区', 'street_id': '33a236383e606604c16c14c5', 'detail': 1, 'uid': '33a236383e606604c16c14c5', 'detail_info': {'tag': '运动健身;体育场馆', 'type': 'life', 'detail_url': 'http://api.map.baidu.com/place/detail?uid=33a236383e606604c16c14c5&output=html&source=placeapi_v2', 'overall_rating': '5.0', 'image_num': '9', 'comment_num': '2', 'children': []}}"
"{'name': '汉唐体育中心羽毛球中心', 'location': {'lat': 34.313519, 'lng': 108.819963}, 'address': '陕西省西安市未央区孙武路', 'province': '陕西省', 'city': '西安市', 'area': '未央区', 'detail': 1, 'uid': '611a95d2ce2b5fc02afc4814', 'detail_info': {'tag': '运动健身;体育场馆', 'type': 'life', 'detail_url': 'http://api.map.baidu.com/place/detail?uid=611a95d2ce2b5fc02afc4814&output=html&source=placeapi_v2', 'overall_rating': '0.0', 'image_num': '2', 'children': []}}"
"{'name': '星牌桌球俱乐部贡建斌台球联盟', 'location': {'lat': 34.280341, 'lng': 108.831644}, 'address': '陕西省西安市未央区天台五路54号3层', 'province': '陕西省', 'city': '西安市', 'area': '未央区', 'street_id': '16ac65f581eeb0e321f017ef', 'detail': 1, 'uid': '16ac65f581eeb0e321f017ef', 'detail_info': {'tag': '运动健身;体育场馆', 'type': 'life', 'detail_url': 'http://api.map.baidu.com/place/detail?uid=16ac65f581eeb0e321f017ef&output=html&source=placeapi_v2', 'price': '45', 'overall_rating': '5.0', 'image_num': '21', 'comment_num': '5', 'children': []}}"
"{'name': '浪潮三桥天空球场', 'location': {'lat': 34.301793, 'lng': 108.831946}, 'address': '陕西省西安市未央区大明宫建材家居城三桥店7楼', 'province': '陕西省', 'city': '西安市', 'area': '未央区', 'street_id': 'd7ad9f35e1bfbe7ae5e965ea', 'detail': 1, 'uid': 'd7ad9f35e1bfbe7ae5e965ea', 'detail_info': {'tag': '运动健身;体育场馆', 'type': 'life', 'detail_url': 'http://api.map.baidu.com/place/detail?uid=d7ad9f35e1bfbe7ae5e965ea&output=html&source=placeapi_v2', 'overall_rating': '5.0', 'image_num': '1', 'comment_num': '1', 'children': []}}"
"{'name': '圣心瑜伽(和平春天店)', 'location': {'lat': 34.261058, 'lng': 108.82944}, 'address': '陕西省西安市未央区四号路8号', 'province': '陕西省', 'city': '西安市', 'area': '未央区', 'telephone': '(029)84411416', 'detail': 1, 'uid': '2ddfeed42ff60902631c6728', 'detail_info': {'tag': '运动健身;健身中心', 'type': 'life', 'detail_url': 'http://api.map.baidu.com/place/detail?uid=2ddfeed42ff60902631c6728&output=html&source=placeapi_v2', 'price': '2792', 'overall_rating': '4.7', 'image_num': '16', 'comment_num': '3', 'children': []}}"
"{'name': '汉唐足球场', 'location': {'lat': 34.31388, 'lng': 108.819953}, 'address': '陕西省西安市未央区孙武路', 'province': '陕西省', 'city': '西安市', 'area': '未央区', 'telephone': '(029)84533700', 'detail': 1, 'uid': '191b2ce6415e5f729222e09a', 'detail_info': {'tag': '运动健身;体育场馆', 'type': 'life', 'detail_url': 'http://api.map.baidu.com/place/detail?uid=191b2ce6415e5f729222e09a&output=html&source=placeapi_v2', 'image_num': '1', 'children': []}}"
"{'name': '丹珠瑜伽', 'location': {'lat': 34.281896, 'lng': 108.891275}, 'address': '丰收路南300米双府新天地3号楼3单元1904', 'province': '陕西省', 'city': '西安市', 'area': '莲湖区', 'detail': 1, 'uid': '73a3dc30c83147c3d618b7ac', 'detail_info': {'tag': '运动健身;健身中心', 'type': 'life', 'detail_url': 'http://api.map.baidu.com/place/detail?uid=73a3dc30c83147c3d618b7ac&output=html&source=placeapi_v2', 'overall_rating': '5.0', 'image_num': '1', 'comment_num': '10', 'children': []}}"
"{'name': '一品户外弓射竞技俱乐部', 'location': {'lat': 34.283496, 'lng': 108.893771}, 'address': '陕西省西安市莲湖区丰衍路', 'province': '陕西省', 'city': '西安市', 'area': '莲湖区', 'detail': 1, 'uid': 'e8e4380ce5cbf1143b13fd04', 'detail_info': {'tag': '运动健身;体育场馆', 'type': 'life', 'detail_url': 'http://api.map.baidu.com/place/detail?uid=e8e4380ce5cbf1143b13fd04&output=html&source=placeapi_v2', 'image_num': '4', 'children': []}}"
"{'name': '圣珈瑜伽私教体验中心(高新店)', 'location': {'lat': 34.253784, 'lng': 108.888128}, 'address': '团结南路枫林华府东门外美好时光母婴国际三楼(一悦一生国际月子养生中心)', 'province': '陕西省', 'city': '西安市', 'area': '雁塔区', 'detail': 1, 'uid': 'a53d58e271a12e4814948e77', 'detail_info': {'tag': '运动健身;健身中心', 'type': 'life', 'detail_url': 'http://api.map.baidu.com/place/detail?uid=a53d58e271a12e4814948e77&output=html&source=placeapi_v2', 'overall_rating': '5.0', 'image_num': '1', 'comment_num': '3', 'children': []}}"
"{'name': '乐迪游泳馆', 'location': {'lat': 34.252323, 'lng': 108.875059}, 'address': '鱼化寨街道大寨路恒大影城一楼', 'province': '陕西省', 'city': '西安市', 'area': '雁塔区', 'street_id': 'bcf2c8210fc8ba856c3e1bb8', 'detail': 1, 'uid': 'bcf2c8210fc8ba856c3e1bb8', 'detail_info': {'tag': '运动健身;体育场馆', 'type': 'life', 'detail_url': 'http://api.map.baidu.com/place/detail?uid=bcf2c8210fc8ba856c3e1bb8&output=html&source=placeapi_v2', 'overall_rating': '1.0', 'image_num': '1', 'comment_num': '1', 'children': []}}"
"{'name': '零距离健身土门店', 'location': {'lat': 34.253002, 'lng': 108.89413}, 'address': '团结西路26号', 'province': '陕西省', 'city': '西安市', 'area': '雁塔区', 'detail': 1, 'uid': '67500337ce417ba4c51b75cd', 'detail_info': {'tag': '运动健身;体育场馆', 'type': 'life', 'detail_url': 'http://api.map.baidu.com/place/detail?uid=67500337ce417ba4c51b75cd&output=html&source=placeapi_v2', 'image_num': '1', 'children': []}}"
"{'name': '卓跃儿童运动馆(二馆)', 'location': {'lat': 34.252256, 'lng': 108.875236}, 'address': '西安市雁塔区大寨路恒大影城3楼', 'province': '陕西省', 'city': '西安市', 'area': '雁塔区', 'street_id': '6e173d82c37a7eb511882472', 'telephone': '17719504726', 'detail': 1, 'uid': '6e173d82c37a7eb511882472', 'detail_info': {'tag': '运动健身;体育场馆', 'type': 'life', 'detail_url': 'http://api.map.baidu.com/place/detail?uid=6e173d82c37a7eb511882472&output=html&source=placeapi_v2', 'overall_rating': '4.7', 'image_num': '9', 'comment_num': '3', 'children': []}}"
"{'name': 'V8桌球棋牌会所', 'location': {'lat': 34.253605, 'lng': 108.888183}, 'address': '陕西省西安市雁塔区团结南路安琪儿医院北200米', 'province': '陕西省', 'city': '西安市', 'area': '雁塔区', 'street_id': '787d6fcb35c4f21d09b93ace', 'telephone': '15529488326', 'detail': 1, 'uid': '787d6fcb35c4f21d09b93ace', 'detail_info': {'tag': '休闲娱乐;游戏场所', 'type': 'life', 'detail_url': 'http://api.map.baidu.com/place/detail?uid=787d6fcb35c4f21d09b93ace&output=html&source=placeapi_v2', 'price': '73', 'overall_rating': '4.6', 'image_num': '3', 'comment_num': '8', 'children': []}}"
"{'name': '珍奥安啦银色俱乐部', 'location': {'lat': 34.269162, 'lng': 108.888561}, 'address': '陕西省西安市莲湖区团结南路35号附近', 'province': '陕西省', 'city': '西安市', 'area': '莲湖区', 'detail': 1, 'uid': '7bdd4e4999e28b5ed0ff234f', 'detail_info': {'tag': '运动健身;体育场馆', 'type': 'life', 'detail_url': 'http://api.map.baidu.com/place/detail?uid=7bdd4e4999e28b5ed0ff234f&output=html&source=placeapi_v2', 'image_num': '5', 'children': []}}"
"{'name': '振道跆拳道', 'location': {'lat': 34.253036, 'lng': 108.887734}, 'address': '团结南路28号九形道商业楼南三层', 'province': '陕西省', 'city': '西安市', 'area': '雁塔区', 'street_id': '2045b121d96a7423740269d8', 'telephone': '18591888878', 'detail': 1, 'uid': '2045b121d96a7423740269d8', 'detail_info': {'tag': '运动健身;体育场馆', 'type': 'life', 'detail_url': 'http://api.map.baidu.com/place/detail?uid=2045b121d96a7423740269d8&output=html&source=placeapi_v2', 'overall_rating': '5.0', 'image_num': '14', 'comment_num': '3', 'children': []}}"
"{'name': '盛卡丁车俱乐部', 'location': {'lat': 34.255979, 'lng': 108.797412}, 'address': '沣东新城阿房宫互助立交西南', 'province': '陕西省', 'city': '西安市', 'area': '长安区', 'detail': 1, 'uid': '2c803870cc2c11592fb908c4', 'detail_info': {'tag': '休闲娱乐;游戏场所', 'type': 'life', 'detail_url': 'http://api.map.baidu.com/place/detail?uid=2c803870cc2c11592fb908c4&output=html&source=placeapi_v2', 'overall_rating': '0.0', 'image_num': '10', 'comment_num': '1', 'children': []}}"
"{'name': '汉唐体育中心', 'location': {'lat': 34.262557, 'lng': 108.824651}, 'address': '陕西省西安市未央区沣东新城西环路1号汉唐体育中心', 'province': '陕西省', 'city': '西安市', 'area': '未央区', 'detail': 1, 'uid': 'f8d11a267f2f452109b93aa5', 'detail_info': {'tag': '运动健身;体育场馆', 'type': 'life', 'detail_url': 'http://api.map.baidu.com/place/detail?uid=f8d11a267f2f452109b93aa5&output=html&source=placeapi_v2', 'image_num': '1', 'children': []}}"
"{'name': '西安市莲湖区思蜜宝贝游泳馆', 'location': {'lat': 34.259731, 'lng': 108.892346}, 'address': '昆明路3号桥北口雅逸花园小区内3层商业楼1楼(创新路)', 'province': '陕西省', 'city': '西安市', 'area': '莲湖区', 'telephone': '18629592337', 'detail': 1, 'uid': '79794c4240c8f7924307c1a8', 'detail_info': {'tag': '运动健身;体育场馆', 'type': 'life', 'detail_url': 'http://api.map.baidu.com/place/detail?uid=79794c4240c8f7924307c1a8&output=html&source=placeapi_v2', 'overall_rating': '5.0', 'image_num': '7', 'comment_num': '3', 'children': []}}"
"{'name': '天龙武道', 'location': {'lat': 34.306788, 'lng': 108.850068}, 'address': '建章路东200米', 'province': '陕西省', 'city': '西安市', 'area': '未央区', 'telephone': '15319984459,15934800154', 'detail': 1, 'uid': 'cb9c3228a907057395ca0795', 'detail_info': {'tag': '运动健身;体育场馆', 'type': 'life', 'detail_url': 'http://api.map.baidu.com/place/detail?uid=cb9c3228a907057395ca0795&output=html&source=placeapi_v2', 'overall_rating': '3.0', 'image_num': '4', 'children': []}}"
"{'name': '摩尔蓝星乒乓球俱乐部', 'location': {'lat': 34.262414, 'lng': 108.893479}, 'address': '陕西省西安市莲湖区土门街道西二环土门十字西城方洲商业摩尔商业中心负一层', 'province': '陕西省', 'city': '西安市', 'area': '莲湖区', 'telephone': '(029)89637636', 'detail': 1, 'uid': 'ca439bb3763f88e517c8f6e4', 'detail_info': {'tag': '运动健身;体育场馆', 'type': 'life', 'detail_url': 'http://api.map.baidu.com/place/detail?uid=ca439bb3763f88e517c8f6e4&output=html&source=placeapi_v2', 'image_num': '1', 'children': []}}"
"{'name': '双府台球俱乐部', 'location': {'lat': 34.283421, 'lng': 108.888084}, 'address': '陕西省西安市莲湖区丰收路26号附近', 'province': '陕西省', 'city': '西安市', 'area': '莲湖区', 'detail': 1, 'uid': '083f18d333a802b8f11937d9', 'detail_info': {'tag': '运动健身;体育场馆', 'type': 'life', 'detail_url': 'http://api.map.baidu.com/place/detail?uid=083f18d333a802b8f11937d9&output=html&source=placeapi_v2', 'image_num': '6', 'children': []}}"
"{'name': '尊豪台球厂', 'location': {'lat': 34.307254, 'lng': 108.820599}, 'address': '陕西省西安市未央区G312(西咸大道)启航时代广场C座7楼', 'province': '陕西省', 'city': '西安市', 'area': '未央区', 'street_id': '894164726f91f556a8f0cd45', 'telephone': '13384997623', 'detail': 1, 'uid': '894164726f91f556a8f0cd45', 'detail_info': {'tag': '购物;商铺', 'type': 'shopping', 'detail_url': 'http://api.map.baidu.com/place/detail?uid=894164726f91f556a8f0cd45&output=html&source=placeapi_v2', 'children': []}}"
"{'name': '元吉拳击.跆拳道俱乐部', 'location': {'lat': 34.272251, 'lng': 108.878101}, 'address': '陕西省西安市莲湖区汉城南路272号', 'province': '陕西省', 'city': '西安市', 'area': '莲湖区', 'street_id': 'd83f8467e7937ab1c42ba1b8', 'telephone': '(029)84613089', 'detail': 1, 'uid': '1569215c4f28c3504c3a59cb', 'detail_info': {'tag': '运动健身;体育场馆', 'navi_location': {'lng': 108.87848653628, 'lat': 34.27219327177}, 'type': 'life', 'detail_url': 'http://api.map.baidu.com/place/detail?uid=1569215c4f28c3504c3a59cb&output=html&source=placeapi_v2', 'overall_rating': '1.0', 'image_num': '9', 'comment_num': '8', 'children': []}}"
"{'name': '民洁台球厅', 'location': {'lat': 34.257005, 'lng': 108.883386}, 'address': '陕西省西安市雁塔区昆明路128号附近', 'province': '陕西省', 'city': '西安市', 'area': '雁塔区', 'detail': 1, 'uid': 'f5f986d2404ad1d7b64f54c8', 'detail_info': {'tag': '运动健身;体育场馆', 'type': 'life', 'detail_url': 'http://api.map.baidu.com/place/detail?uid=f5f986d2404ad1d7b64f54c8&output=html&source=placeapi_v2', 'image_num': '7', 'children': []}}"
"{'name': '天赐户外俱乐部', 'location': {'lat': 34.252481, 'lng': 108.88793}, 'address': '陕西省西安市雁塔区团结南路与大寨路十字九形道503室', 'province': '陕西省', 'city': '西安市', 'area': '雁塔区', 'street_id': '8823cc6197b4f15d3617dcfc', 'telephone': '18191961589', 'detail': 1, 'uid': '8823cc6197b4f15d3617dcfc', 'detail_info': {'tag': '运动健身;体育场馆', 'type': 'life', 'detail_url': 'http://api.map.baidu.com/place/detail?uid=8823cc6197b4f15d3617dcfc&output=html&source=placeapi_v2', 'overall_rating': '0.0', 'image_num': '1', 'children': []}}"
"{'name': '融侨城亲子双泳池运动会所', 'location': {'lat': 34.253892, 'lng': 108.89109}, 'address': '创新路西50米', 'province': '陕西省', 'city': '西安市', 'area': '雁塔区', 'detail': 1, 'uid': 'b26dc64a3584d45a82288aaf', 'detail_info': {'tag': '运动健身;体育场馆', 'type': 'life', 'detail_url': 'http://api.map.baidu.com/place/detail?uid=b26dc64a3584d45a82288aaf&output=html&source=placeapi_v2', 'image_num': '1', 'children': []}}"
"{'name': '蓝鲸快乐宝贝婴童游泳馆', 'location': {'lat': 34.251492, 'lng': 108.853859}, 'address': '大寨路华洲城熙悦都1号楼1单元10230室', 'province': '陕西省', 'city': '西安市', 'area': '雁塔区', 'telephone': '15319930183', 'detail': 1, 'uid': 'b0d56bf23771ac62dc1e5254', 'detail_info': {'tag': '运动健身;体育场馆', 'type': 'life', 'detail_url': 'http://api.map.baidu.com/place/detail?uid=b0d56bf23771ac62dc1e5254&output=html&source=placeapi_v2', 'overall_rating': '0.0', 'image_num': '2', 'comment_num': '1', 'children': []}}"
"{'name': '陕西浪潮足球俱乐部', 'location': {'lat': 34.300981, 'lng': 108.83275}, 'address': '陕西省西安市未央区三桥路157附近', 'province': '陕西省', 'city': '西安市', 'area': '未央区', 'detail': 1, 'uid': '25e68a37b8b4bdb40bccdd89', 'detail_info': {'tag': '运动健身;体育场馆', 'type': 'life', 'detail_url': 'http://api.map.baidu.com/place/detail?uid=25e68a37b8b4bdb40bccdd89&output=html&source=placeapi_v2', 'image_num': '5', 'children': []}}"
"{'name': '中正跆拳道', 'location': {'lat': 34.291997, 'lng': 108.865662}, 'address': '西安市莲湖区枣园西路万科金色悦成生活广场5楼', 'province': '陕西省', 'city': '西安市', 'area': '莲湖区', 'telephone': '18182423712,15229047699', 'detail': 1, 'uid': 'e2d321db21beabdce856faa2', 'detail_info': {'tag': '运动健身;体育场馆', 'type': 'life', 'detail_url': 'http://api.map.baidu.com/place/detail?uid=e2d321db21beabdce856faa2&output=html&source=placeapi_v2', 'image_num': '4', 'children': []}}"
"{'name': '吉尔港游泳中心', 'location': {'lat': 34.282503, 'lng': 108.858598}, 'address': '阿房路中段省胶合板厂内', 'province': '陕西省', 'city': '西安市', 'area': '未央区', 'telephone': '17772942755', 'detail': 1, 'uid': '269797d759b1cbcb49fc8dc1', 'detail_info': {'tag': '运动健身;其他', 'type': 'life', 'detail_url': 'http://api.map.baidu.com/place/detail?uid=269797d759b1cbcb49fc8dc1&output=html&source=placeapi_v2', 'image_num': '1', 'children': []}}"
"{'name': '飞翔跆拳道', 'location': {'lat': 34.253417, 'lng': 108.864962}, 'address': '大寨路陕西师范大学铭城小学金域牟嘉对面', 'province': '陕西省', 'city': '西安市', 'area': '雁塔区', 'telephone': '13992835634,18629566722', 'detail': 1, 'uid': '44240ca4193f228ef942b298', 'detail_info': {'tag': '运动健身;体育场馆', 'navi_location': {'lng': 108.86519619609, 'lat': 34.253280118868}, 'type': 'life', 'detail_url': 'http://api.map.baidu.com/place/detail?uid=44240ca4193f228ef942b298&output=html&source=placeapi_v2', 'image_num': '7', 'children': []}}"
"{'name': '极武道搏击俱乐部', 'location': {'lat': 34.265172, 'lng': 108.854676}, 'address': '陕西省西安市未央区红光路', 'province': '陕西省', 'city': '西安市', 'area': '未央区', 'detail': 1, 'uid': 'f05f65cee25501b682a12e0f', 'detail_info': {'tag': '运动健身;体育场馆', 'type': 'life', 'detail_url': 'http://api.map.baidu.com/place/detail?uid=f05f65cee25501b682a12e0f&output=html&source=placeapi_v2', 'image_num': '2', 'children': []}}"
"{'name': '易能俱乐部', 'location': {'lat': 34.285325, 'lng': 108.870908}, 'address': '陕西省西安市莲湖区枣园北路6号东南70米', 'province': '陕西省', 'city': '西安市', 'area': '莲湖区', 'detail': 1, 'uid': '679630dd7d0b4c8497ec8424', 'detail_info': {'tag': '运动健身;体育场馆', 'navi_location': {'lng': 108.87072293541, 'lat': 34.2852582656}, 'type': 'life', 'detail_url': 'http://api.map.baidu.com/place/detail?uid=679630dd7d0b4c8497ec8424&output=html&source=placeapi_v2', 'image_num': '2', 'children': []}}"
"{'name': '柚子桌球会所', 'location': {'lat': 34.291548, 'lng': 108.891874}, 'address': '西安市莲湖区大兴西路社区大唐世家高层一楼', 'province': '陕西省', 'city': '西安市', 'area': '莲湖区', 'street_id': '86228633403e7df3fd0eb08f', 'telephone': '18681998381', 'detail': 1, 'uid': '86228633403e7df3fd0eb08f', 'detail_info': {'tag': '休闲娱乐;游戏场所', 'navi_location': {'lng': 108.89211779779, 'lat': 34.291235607874}, 'type': 'life', 'detail_url': 'http://api.map.baidu.com/place/detail?uid=86228633403e7df3fd0eb08f&output=html&source=placeapi_v2', 'price': '20', 'overall_rating': '2.7', 'image_num': '24', 'comment_num': '4', 'children': []}}"
"{'name': '中航健身服务有限公司', 'location': {'lat': 34.30693, 'lng': 108.820283}, 'address': '陕西省西安市未央区后围寨启航时代广场C座3F', 'province': '陕西省', 'city': '西安市', 'area': '未央区', 'street_id': 'c4bec9c5283211740ab93a27', 'detail': 1, 'uid': 'c4bec9c5283211740ab93a27', 'detail_info': {'tag': '公司企业;公司', 'type': 'life', 'detail_url': 'http://api.map.baidu.com/place/detail?uid=c4bec9c5283211740ab93a27&output=html&source=placeapi_v2', 'overall_rating': '3.3', 'image_num': '1', 'comment_num': '15', 'children': []}}"
"{'name': '婴童游泳馆', 'location': {'lat': 34.294136, 'lng': 108.843978}, 'address': '西安市未央区', 'province': '陕西省', 'city': '西安市', 'area': '未央区', 'detail': 1, 'uid': 'b83cbd6a9d0da53f48cc4a91', 'detail_info': {'tag': '运动健身;体育场馆', 'type': 'life', 'detail_url': 'http://api.map.baidu.com/place/detail?uid=b83cbd6a9d0da53f48cc4a91&output=html&source=placeapi_v2', 'image_num': '2', 'children': []}}"
"{'name': '奥苗跆拳道', 'location': {'lat': 34.27489, 'lng': 108.860947}, 'address': '陕西省西安市未央区大庆路皇城商务宾馆(博大尚居附近)', 'province': '陕西省', 'city': '西安市', 'area': '未央区', 'street_id': 'c38d1e9d35ce95b69900509b', 'telephone': '13519125037', 'detail': 1, 'uid': 'c38d1e9d35ce95b69900509b', 'detail_info': {'tag': '运动健身;体育场馆', 'type': 'life', 'detail_url': 'http://api.map.baidu.com/place/detail?uid=c38d1e9d35ce95b69900509b&output=html&source=placeapi_v2', 'image_num': '11', 'children': []}}"
"{'name': '元舜桌球(西郊店)', 'location': {'lat': 34.265068, 'lng': 108.878958}, 'address': '丰镐西路396号', 'province': '陕西省', 'city': '西安市', 'area': '莲湖区', 'street_id': '637df60a9a4b407140afe638', 'telephone': '(029)85066789', 'detail': 1, 'uid': '637df60a9a4b407140afe638', 'detail_info': {'tag': '休闲娱乐;游戏场所', 'navi_location': {'lng': 108.87910553885, 'lat': 34.265317057061}, 'type': 'life', 'detail_url': 'http://api.map.baidu.com/place/detail?uid=637df60a9a4b407140afe638&output=html&source=placeapi_v2', 'price': '25', 'overall_rating': '4.1', 'image_num': '16', 'comment_num': '60', 'children': []}}"
"{'name': '1Winner舞蹈工作室', 'location': {'lat': 34.295254, 'lng': 108.837665}, 'address': '双拥路金桥国际B701', 'province': '陕西省', 'city': '西安市', 'area': '未央区', 'telephone': '18629689701,18629389701', 'detail': 1, 'uid': '988ad9f11525b177d12dd67f', 'detail_info': {'tag': '教育培训;培训机构', 'type': 'education', 'detail_url': 'http://api.map.baidu.com/place/detail?uid=988ad9f11525b177d12dd67f&output=html&source=placeapi_v2', 'overall_rating': '5.0', 'comment_num': '5', 'children': []}}"
"{'name': '智·体适能轮滑', 'location': {'lat': 34.295601, 'lng': 108.836335}, 'address': '三桥街道万象城金街3楼2-10351', 'province': '陕西省', 'city': '西安市', 'area': '未央区', 'detail': 1, 'uid': 'f1e03bdb1851c94fc51e5125', 'detail_info': {'type': 'life', 'detail_url': 'http://api.map.baidu.com/place/detail?uid=f1e03bdb1851c94fc51e5125&output=html&source=placeapi_v2', 'image_num': '1', 'children': []}}"
"{'name': '香港雪宝', 'location': {'lat': 34.271683, 'lng': 108.879982}, 'address': '汉城南路165号附近', 'province': '陕西省', 'city': '西安市', 'area': '莲湖区', 'street_id': '99ca80809c2b80c6715e8004', 'telephone': '13659142664', 'detail': 1, 'uid': '99ca80809c2b80c6715e8004', 'detail_info': {'tag': '购物;其他', 'type': 'shopping', 'detail_url': 'http://api.map.baidu.com/place/detail?uid=99ca80809c2b80c6715e8004&output=html&source=placeapi_v2', 'children': []}}"
"{'name': '金樽桌球竞技', 'location': {'lat': 34.265541, 'lng': 108.879342}, 'address': '陕西省西安市莲湖区土门丰镐西路西安莲湖协和医院南门', 'province': '陕西省', 'city': '西安市', 'area': '莲湖区', 'street_id': 'aa6ed3d6ca603bb28bb98889', 'detail': 1, 'uid': 'aa6ed3d6ca603bb28bb98889', 'detail_info': {'tag': '旅游景点;游乐园', 'type': 'scope', 'detail_url': 'http://api.map.baidu.com/place/detail?uid=aa6ed3d6ca603bb28bb98889&output=html&source=placeapi_v2', 'children': []}}"
"{'name': '可骏舞蹈', 'location': {'lat': 34.260533, 'lng': 108.878985}, 'address': '陕西省西安市莲湖区汉城南路319号附近', 'province': '陕西省', 'city': '西安市', 'area': '莲湖区', 'detail': 1, 'uid': '42182cf81186fca97f29bd63', 'detail_info': {'type': 'life', 'detail_url': 'http://api.map.baidu.com/place/detail?uid=42182cf81186fca97f29bd63&output=html&source=placeapi_v2', 'image_num': '1', 'children': []}}"
"{'name': 'ZingActive 氢·智能健身', 'location': {'lat': 34.374293, 'lng': 108.859473}, 'address': '陕西省西安市未央区草滩十路999号智巢创新空间B座二层B201室', 'province': '陕西省', 'city': '西安市', 'area': '未央区', 'detail': 1, 'uid': '9ef5c614b1ba751e9d95de23', 'detail_info': {'tag': '运动健身;健身中心', 'type': 'life', 'detail_url': 'http://api.map.baidu.com/place/detail?uid=9ef5c614b1ba751e9d95de23&output=html&source=placeapi_v2', 'overall_rating': '5.0', 'image_num': '15', 'comment_num': '5', 'children': []}}"
"{'name': '阳光健身俱乐部', 'location': {'lat': 34.368677, 'lng': 108.872517}, 'address': '尚苑路与草滩八路交叉口西100米', 'province': '陕西省', 'city': '西安市', 'area': '未央区', 'street_id': '6776c65ad366b6d6ab0dd847', 'telephone': '13689245003', 'detail': 1, 'uid': '6776c65ad366b6d6ab0dd847', 'detail_info': {'tag': '运动健身;健身中心', 'navi_location': {'lng': 108.87290692271, 'lat': 34.368483823762}, 'type': 'life', 'detail_url': 'http://api.map.baidu.com/place/detail?uid=6776c65ad366b6d6ab0dd847&output=html&source=placeapi_v2', 'image_num': '12', 'children': []}}"
"{'name': '艾特健身中心', 'location': {'lat': 34.339471, 'lng': 108.843223}, 'address': '陕西省西安市未央区丰产路62西南80米', 'province': '陕西省', 'city': '西安市', 'area': '未央区', 'detail': 1, 'uid': '74a2af4c3044abd545572600', 'detail_info': {'tag': '运动健身;健身中心', 'type': 'life', 'detail_url': 'http://api.map.baidu.com/place/detail?uid=74a2af4c3044abd545572600&output=html&source=placeapi_v2', 'image_num': '2', 'children': []}}"
"{'name': '风行健身', 'location': {'lat': 34.337746, 'lng': 108.849426}, 'address': '南皂河村村委会', 'province': '陕西省', 'city': '西安市', 'area': '未央区', 'telephone': '13389269867', 'detail': 1, 'uid': '2cbba4324df478c81df74d1a', 'detail_info': {'tag': '运动健身;健身中心', 'type': 'life', 'detail_url': 'http://api.map.baidu.com/place/detail?uid=2cbba4324df478c81df74d1a&output=html&source=placeapi_v2', 'image_num': '1', 'children': []}}"
"{'name': '西安风动卡丁车俱乐部', 'location': {'lat': 34.379902, 'lng': 108.877431}, 'address': '风动赛车场', 'province': '陕西省', 'city': '西安市', 'area': '未央区', 'detail': 1, 'uid': '90b5475aa73ffe314afd3fc0', 'detail_info': {'tag': '休闲娱乐;游戏场所', 'type': 'life', 'detail_url': 'http://api.map.baidu.com/place/detail?uid=90b5475aa73ffe314afd3fc0&output=html&source=placeapi_v2', 'overall_rating': '5.0', 'image_num': '6', 'comment_num': '6', 'children': []}}"
"{'name': '动点桌球俱乐部', 'location': {'lat': 34.339433, 'lng': 108.834483}, 'address': '陕西省西安市未央区丰产路73号北50米', 'province': '陕西省', 'city': '西安市', 'area': '未央区', 'telephone': '18729581041', 'detail': 1, 'uid': '480e103897a799f7b6f42f52', 'detail_info': {'tag': '运动健身;体育场馆', 'type': 'life', 'detail_url': 'http://api.map.baidu.com/place/detail?uid=480e103897a799f7b6f42f52&output=html&source=placeapi_v2', 'image_num': '5', 'children': []}}"
"{'name': '嘉丽风动赛车运动中心', 'location': {'lat': 34.381359, 'lng': 108.876501}, 'address': '陕西省西安市未央区尚林路西安渭水园温泉度假村', 'province': '陕西省', 'city': '西安市', 'area': '未央区', 'detail': 1, 'uid': '75cfdff976574993cafa5fcd', 'detail_info': {'tag': '运动健身;极限运动场所', 'type': 'life', 'detail_url': 'http://api.map.baidu.com/place/detail?uid=75cfdff976574993cafa5fcd&output=html&source=placeapi_v2', 'overall_rating': '5.0', 'image_num': '2', 'comment_num': '1', 'children': []}}"
"{'name': '黑带金鹰武术搏击俱乐部', 'location': {'lat': 34.340156, 'lng': 108.848056}, 'address': '陕西省西安市未央区建章路北段西北70米', 'province': '陕西省', 'city': '西安市', 'area': '未央区', 'detail': 1, 'uid': '051ea094bc90ba9cadcb6644', 'detail_info': {'tag': '运动健身;体育场馆', 'type': 'life', 'detail_url': 'http://api.map.baidu.com/place/detail?uid=051ea094bc90ba9cadcb6644&output=html&source=placeapi_v2', 'image_num': '5', 'children': []}}"
"{'name': '朋友圈桌球吧棋牌间', 'location': {'lat': 34.317142, 'lng': 108.848568}, 'address': '陕西省西安市未央区建章路119号附近', 'province': '陕西省', 'city': '西安市', 'area': '未央区', 'telephone': '18192549589', 'detail': 1, 'uid': 'fe0fe70708e01d9ffadc8565', 'detail_info': {'tag': '休闲娱乐;游戏场所', 'type': 'life', 'detail_url': 'http://api.map.baidu.com/place/detail?uid=fe0fe70708e01d9ffadc8565&output=html&source=placeapi_v2', 'image_num': '2', 'children': []}}"
"{'name': '西安交通大学城市学院-塑胶田径运动场', 'location': {'lat': 34.377758, 'lng': 108.864756}, 'address': '西安市未央区西安交通大学城市学院教学二楼附近', 'province': '陕西省', 'city': '西安市', 'area': '未央区', 'detail': 1, 'uid': '7ded78a72be2056eb35c6a89', 'detail_info': {'tag': '运动健身;体育场馆', 'type': 'life', 'detail_url': 'http://api.map.baidu.com/place/detail?uid=7ded78a72be2056eb35c6a89&output=html&source=placeapi_v2', 'overall_rating': '0.0', 'image_num': '1', 'children': []}}"
"{'name': '蓝积木健身(高新店)', 'location': {'lat': 34.24199, 'lng': 108.903872}, 'address': '陕西省西安市雁塔区高新三路3号付18号', 'province': '陕西省', 'city': '西安市', 'area': '雁塔区', 'street_id': '2527be1e2bb455aa4afc8d5d', 'telephone': '(029)88888877', 'detail': 1, 'uid': '2527be1e2bb455aa4afc8d5d', 'detail_info': {'tag': '运动健身;健身中心', 'navi_location': {'lng': 108.90382677353, 'lat': 34.241626539209}, 'type': 'life', 'detail_url': 'http://api.map.baidu.com/place/detail?uid=2527be1e2bb455aa4afc8d5d&output=html&source=placeapi_v2', 'price': '2733', 'overall_rating': '4.3', 'image_num': '26', 'comment_num': '58', 'children': []}}"
"{'name': '中健银座健身(西安曲江新区店)', 'location': {'lat': 34.214126, 'lng': 108.973344}, 'address': '陕西省西安市雁塔区芙蓉南路曲江公馆2号', 'province': '陕西省', 'city': '西安市', 'area': '雁塔区', 'street_id': 'ad9a1117858a5d662a02e1e7', 'telephone': '(029)68863337,(029)68993999,(029)89669517', 'detail': 1, 'uid': 'ad9a1117858a5d662a02e1e7', 'detail_info': {'tag': '运动健身;健身中心', 'navi_location': {'lng': 108.97391749753, 'lat': 34.213841774084}, 'type': 'life', 'detail_url': 'http://api.map.baidu.com/place/detail?uid=ad9a1117858a5d662a02e1e7&output=html&source=placeapi_v2', 'price': '1720', 'overall_rating': '3.8', 'image_num': '44', 'comment_num': '89', 'children': []}}"
"{'name': '沃菲特健身俱乐部', 'location': {'lat': 34.249807, 'lng': 108.995189}, 'address': '陕西省西安市碑林区兴庆南路学府首座西门营销中心', 'province': '陕西省', 'city': '西安市', 'area': '碑林区', 'street_id': '30664da8a9cfd0f895f08ced', 'telephone': '(029)83216168', 'detail': 1, 'uid': '30664da8a9cfd0f895f08ced', 'detail_info': {'tag': '运动健身;健身中心', 'navi_location': {'lng': 108.99475047969, 'lat': 34.249534114238}, 'type': 'life', 'detail_url': 'http://api.map.baidu.com/place/detail?uid=30664da8a9cfd0f895f08ced&output=html&source=placeapi_v2', 'overall_rating': '3.4', 'image_num': '39', 'comment_num': '27', 'children': []}}"
"{'name': '瑞力健身(明德门店)', 'location': {'lat': 34.213153, 'lng': 108.945237}, 'address': '陕西省西安市雁塔区朱雀大街58号金水大厦4层', 'province': '陕西省', 'city': '西安市', 'area': '雁塔区', 'street_id': 'f7ffa609772a6c7ddd1e5271', 'telephone': '(029)88862725', 'detail': 1, 'uid': 'f7ffa609772a6c7ddd1e5271', 'detail_info': {'tag': '运动健身;健身中心', 'navi_location': {'lng': 108.94540534622, 'lat': 34.212971664608}, 'type': 'life', 'detail_url': 'http://api.map.baidu.com/place/detail?uid=f7ffa609772a6c7ddd1e5271&output=html&source=placeapi_v2', 'price': '1198', 'overall_rating': '4.1', 'image_num': '7', 'comment_num': '13', 'children': []}}"
"{'name': '森禾健身', 'location': {'lat': 34.248651, 'lng': 108.898184}, 'address': '西安市高新区唐延路与群贤路向东北100米9号楼四层4层', 'province': '陕西省', 'city': '西安市', 'area': '雁塔区', 'telephone': '(029)81321133', 'detail': 1, 'uid': '335a993214793551e8e58251', 'detail_info': {'tag': '运动健身;健身中心', 'type': 'life', 'detail_url': 'http://api.map.baidu.com/place/detail?uid=335a993214793551e8e58251&output=html&source=placeapi_v2', 'overall_rating': '5.0', 'image_num': '2', 'comment_num': '2', 'children': []}}"
"{'name': '铭悦健身', 'location': {'lat': 34.197703, 'lng': 108.930882}, 'address': '陕西省西安市雁塔区长安西路39号铭城1层商铺', 'province': '陕西省', 'city': '西安市', 'area': '雁塔区', 'street_id': 'eb8171f0157c424230169b7a', 'telephone': '(029)89191616', 'detail': 1, 'uid': 'eb8171f0157c424230169b7a', 'detail_info': {'tag': '运动健身;健身中心', 'navi_location': {'lng': 108.93106789531, 'lat': 34.197648491784}, 'type': 'life', 'detail_url': 'http://api.map.baidu.com/place/detail?uid=eb8171f0157c424230169b7a&output=html&source=placeapi_v2', 'overall_rating': '3.8', 'image_num': '15', 'comment_num': '100', 'children': []}}"
"{'name': '艾菲特健身连锁(文艺路店)', 'location': {'lat': 34.247247, 'lng': 108.959491}, 'address': '陕西省西安市碑林区友谊东路和平花园(华润万家西100米)', 'province': '陕西省', 'city': '西安市', 'area': '碑林区', 'street_id': '825f44c51100fa30cb213d28', 'detail': 1, 'uid': '825f44c51100fa30cb213d28', 'detail_info': {'tag': '运动健身;健身中心', 'navi_location': {'lng': 108.95936615017, 'lat': 34.247410861099}, 'type': 'life', 'detail_url': 'http://api.map.baidu.com/place/detail?uid=825f44c51100fa30cb213d28&output=html&source=placeapi_v2', 'overall_rating': '4.2', 'image_num': '20', 'comment_num': '51', 'children': []}}"
"{'name': '沐晖健身', 'location': {'lat': 34.235267, 'lng': 108.912946}, 'address': '科技路30号(合力紫郡B座22楼)', 'province': '陕西省', 'city': '西安市', 'area': '雁塔区', 'telephone': '15229317939,(029)88226118', 'detail': 1, 'uid': 'b967065049b01ec30e3dda7b', 'detail_info': {'tag': '运动健身;健身中心', 'type': 'life', 'detail_url': 'http://api.map.baidu.com/place/detail?uid=b967065049b01ec30e3dda7b&output=html&source=placeapi_v2', 'overall_rating': '4.7', 'image_num': '1', 'comment_num': '19', 'children': []}}"
"{'name': '引擎健身', 'location': {'lat': 34.230621, 'lng': 108.924338}, 'address': '雁塔区太白南路263号', 'province': '陕西省', 'city': '西安市', 'area': '雁塔区', 'street_id': '6e7e21489612bacf4151c078', 'telephone': '(029)88218006', 'detail': 1, 'uid': '6e7e21489612bacf4151c078', 'detail_info': {'tag': '运动健身;健身中心', 'type': 'life', 'detail_url': 'http://api.map.baidu.com/place/detail?uid=6e7e21489612bacf4151c078&output=html&source=placeapi_v2', 'overall_rating': '3.4', 'image_num': '9', 'comment_num': '27', 'children': []}}"
"{'name': '斯卡拉健身', 'location': {'lat': 34.197967, 'lng': 108.946141}, 'address': '西安市雁塔区长丰园9号楼3楼', 'province': '陕西省', 'city': '西安市', 'area': '雁塔区', 'street_id': 'a84660eead21763ad72ce2bd', 'telephone': '18291425711', 'detail': 1, 'uid': 'a84660eead21763ad72ce2bd', 'detail_info': {'tag': '运动健身;健身中心', 'navi_location': {'lng': 108.94586140307, 'lat': 34.197846225137}, 'type': 'life', 'detail_url': 'http://api.map.baidu.com/place/detail?uid=a84660eead21763ad72ce2bd&output=html&source=placeapi_v2', 'overall_rating': '4.3', 'image_num': '20', 'comment_num': '7', 'children': []}}"
"{'name': '天力健身', 'location': {'lat': 34.251223, 'lng': 108.929405}, 'address': '太白北路276号(近边家村工人文化宫)', 'province': '陕西省', 'city': '西安市', 'area': '碑林区', 'street_id': '09de014e5b6718f9ac080f9b', 'telephone': '(029)88481999', 'detail': 1, 'uid': '69130523db23c811725e805a', 'detail_info': {'tag': '运动健身;健身中心', 'type': 'life', 'detail_url': 'http://api.map.baidu.com/place/detail?uid=69130523db23c811725e805a&output=html&source=placeapi_v2', 'overall_rating': '2.9', 'image_num': '15', 'comment_num': '34', 'children': []}}"
"{'name': '新晔舞蹈健身艺术中心(曲江店)', 'location': {'lat': 34.214342, 'lng': 108.971901}, 'address': '西安市雁塔区慈恩东路398号', 'province': '陕西省', 'city': '西安市', 'area': '雁塔区', 'street_id': '110136ce0b4338503c9a5eac', 'telephone': '(029)89555990', 'detail': 1, 'uid': '110136ce0b4338503c9a5eac', 'detail_info': {'tag': '运动健身;健身中心', 'type': 'life', 'detail_url': 'http://api.map.baidu.com/place/detail?uid=110136ce0b4338503c9a5eac&output=html&source=placeapi_v2', 'overall_rating': '4.6', 'image_num': '17', 'comment_num': '37', 'children': []}}"
"{'name': '爱健身俱乐部', 'location': {'lat': 34.242741, 'lng': 108.988847}, 'address': '二环南路东段180号', 'province': '陕西省', 'city': '西安市', 'area': '碑林区', 'street_id': '7d8d2830acbea7a6f4eafc64', 'telephone': '(029)62387018', 'detail': 1, 'uid': '7d8d2830acbea7a6f4eafc64', 'detail_info': {'tag': '运动健身;健身中心', 'navi_location': {'lng': 108.98873953844, 'lat': 34.242905520659}, 'type': 'life', 'detail_url': 'http://api.map.baidu.com/place/detail?uid=7d8d2830acbea7a6f4eafc64&output=html&source=placeapi_v2', 'overall_rating': '3.2', 'image_num': '10', 'comment_num': '9', 'children': []}}"
"{'name': '新引力健身', 'location': {'lat': 34.205062, 'lng': 108.93512}, 'address': '陕西省西安市雁塔区东仪路22号', 'province': '陕西省', 'city': '西安市', 'area': '雁塔区', 'detail': 1, 'uid': '9b4bed2ae0c87b5a3686f470', 'detail_info': {'tag': '运动健身;健身中心', 'type': 'life', 'detail_url': 'http://api.map.baidu.com/place/detail?uid=9b4bed2ae0c87b5a3686f470&output=html&source=placeapi_v2', 'overall_rating': '4.0', 'image_num': '5', 'comment_num': '5', 'children': []}}"
"{'name': '律动健身(佳和中心店)', 'location': {'lat': 34.198461, 'lng': 108.962462}, 'address': '陕西省西安市雁塔区翠华路500号', 'province': '陕西省', 'city': '西安市', 'area': '雁塔区', 'street_id': 'dbaad7b27296ba34157643ad', 'detail': 1, 'uid': 'dbaad7b27296ba34157643ad', 'detail_info': {'tag': '运动健身;健身中心', 'navi_location': {'lng': 108.96220711144, 'lat': 34.198531915418},