"{'name': '昆明池遗址', 'location': {'lat': 34.206767290203246, 'lng': 108.76845868797126}, 'address': '西安市长安区昆明池七夕公园内', 'province': '陕西省', 'city': '西安市', 'area': '长安区', 'detail': 1, 'uid': 'c7332cd7fbcc0d82ebe582d9', 'detail_info': {'tag': '旅游景点;景点', 'navi_location': {'lng': 108.7812626866, 'lat': 34.217484892966}, 'type': 'scope', 'detail_url': 'http://api.map.baidu.com/place/detail?uid=c7332cd7fbcc0d82ebe582d9&output=html&source=placeapi_v2', 'overall_rating': '4.5', 'comment_num': '29', 'children': [], 'lat': 34.206767290203246, 'lng': 108.76845868797126}}"
"{'name': '汉武大帝', 'location': {'lat': 34.214173908032464, 'lng': 108.7656773455391}, 'address': '西安市长安区昆明池·七夕公园内', 'province': '陕西省', 'city': '西安市', 'area': '长安区', 'detail': 1, 'uid': '66f2005e22dcafdbc7f50d07', 'detail_info': {'tag': '旅游景点;景点', 'type': 'scope', 'detail_url': 'http://api.map.baidu.com/place/detail?uid=66f2005e22dcafdbc7f50d07&output=html&source=placeapi_v2', 'overall_rating': '4.8', 'image_num': '1', 'comment_num': '5', 'children': [], 'lat': 34.214173908032464, 'lng': 108.7656773455391}}"
"{'name': '凤求凰', 'location': {'lat': 34.21159239734706, 'lng': 108.76566973803203}, 'address': '西安市长安区沣东新城斗门新型工业园区汇新路北段昆明池·七夕公园内', 'province': '陕西省', 'city': '西安市', 'area': '长安区', 'detail': 1, 'uid': '576a6060e0ea8ae21ce999c0', 'detail_info': {'tag': '旅游景点;景点', 'type': 'scope', 'detail_url': 'http://api.map.baidu.com/place/detail?uid=576a6060e0ea8ae21ce999c0&output=html&source=placeapi_v2', 'overall_rating': '5.0', 'comment_num': '3', 'children': [], 'lat': 34.21159239734706, 'lng': 108.76566973803203}}"
"{'name': '天地长廊', 'location': {'lat': 34.209142079330775, 'lng': 108.77118570922389}, 'address': '西安市长安区', 'province': '陕西省', 'city': '西安市', 'area': '长安区', 'detail': 1, 'uid': '5b90cd2bcdb26f5e17948e33', 'detail_info': {'tag': '旅游景点;景点', 'type': 'scope', 'detail_url': 'http://api.map.baidu.com/place/detail?uid=5b90cd2bcdb26f5e17948e33&output=html&source=placeapi_v2', 'overall_rating': '5.0', 'comment_num': '1', 'children': [], 'lat': 34.209142079330775, 'lng': 108.77118570922389}}"
"{'name': '卷云台', 'location': {'lat': 34.207663957119706, 'lng': 108.76590815969593}, 'address': '昆明池·七夕公园', 'province': '陕西省', 'city': '西安市', 'area': '长安区', 'detail': 1, 'uid': '8ffe39e40f6b8a02a1a9344d', 'detail_info': {'tag': '旅游景点;景点', 'type': 'scope', 'detail_url': 'http://api.map.baidu.com/place/detail?uid=8ffe39e40f6b8a02a1a9344d&output=html&source=placeapi_v2', 'overall_rating': '5.0', 'comment_num': '1', 'children': [], 'lat': 34.207663957119706, 'lng': 108.76590815969593}}"
"{'name': '许愿树', 'location': {'lat': 34.21128784088235, 'lng': 108.77351527457618}, 'address': '西安市长安区沣东新城斗门新型工业园区汇新路北段昆明池·七夕公园内', 'province': '陕西省', 'city': '西安市', 'area': '长安区', 'detail': 1, 'uid': '42be24b76f7125a9c4f025ac', 'detail_info': {'tag': '旅游景点;景点', 'type': 'scope', 'detail_url': 'http://api.map.baidu.com/place/detail?uid=42be24b76f7125a9c4f025ac&output=html&source=placeapi_v2', 'overall_rating': '5.0', 'comment_num': '1', 'children': [], 'lat': 34.21128784088235, 'lng': 108.77351527457618}}"
"{'name': '昆明池·七夕公园', 'location': {'lat': 34.21075237170632, 'lng': 108.77003589025456}, 'address': '沣东新城斗门新型工业园区汇新路北段', 'province': '陕西省', 'city': '西安市', 'area': '长安区', 'telephone': '(029)89500981', 'detail': 1, 'uid': '7887efb3caf673898605bffb', 'detail_info': {'tag': '旅游景点;公园', 'navi_location': {'lng': 108.77739612726, 'lat': 34.220287067684}, 'type': 'scope', 'detail_url': 'http://api.map.baidu.com/place/detail?uid=7887efb3caf673898605bffb&output=html&source=placeapi_v2', 'overall_rating': '4.5', 'comment_num': '86', 'children': [], 'lat': 34.21075237170632, 'lng': 108.77003589025456}}"
"{'name': '泛鹢台', 'location': {'lat': 34.207245788046805, 'lng': 108.77153250547656}, 'address': '西安市长安区沣东新城斗门新型工业园区汇新路北段昆明池·七夕公园内', 'province': '陕西省', 'city': '西安市', 'area': '长安区', 'detail': 1, 'uid': '931af6e382f8fe426cc02c10', 'detail_info': {'tag': '旅游景点;景点', 'type': 'scope', 'detail_url': 'http://api.map.baidu.com/place/detail?uid=931af6e382f8fe426cc02c10&output=html&source=placeapi_v2', 'overall_rating': '5.0', 'comment_num': '1', 'children': [], 'lat': 34.207245788046805, 'lng': 108.77153250547656}}"
"{'name': '金刚石婚', 'location': {'lat': 34.2087484021132, 'lng': 108.76807716958758}, 'address': '西安市长安区沣东新城斗门新型工业园区汇新路北段昆明池·七夕公园内', 'province': '陕西省', 'city': '西安市', 'area': '长安区', 'detail': 1, 'uid': 'ed86596f2b70a897a2d230d0', 'detail_info': {'tag': '旅游景点;景点', 'type': 'scope', 'detail_url': 'http://api.map.baidu.com/place/detail?uid=ed86596f2b70a897a2d230d0&output=html&source=placeapi_v2', 'overall_rating': '5.0', 'comment_num': '1', 'children': [], 'lat': 34.2087484021132, 'lng': 108.76807716958758}}"
"{'name': '鹊桥仙', 'location': {'lat': 34.20759697253993, 'lng': 108.77094742327031}, 'address': '西安市长安区沣东新城斗门新型工业园区汇新路北段昆明池·七夕公园内', 'province': '陕西省', 'city': '西安市', 'area': '长安区', 'detail': 1, 'uid': '19c228dfe3ffe9b9d03ce3c4', 'detail_info': {'tag': '旅游景点;景点', 'type': 'scope', 'detail_url': 'http://api.map.baidu.com/place/detail?uid=19c228dfe3ffe9b9d03ce3c4&output=html&source=placeapi_v2', 'overall_rating': '5.0', 'comment_num': '1', 'children': [], 'lat': 34.20759697253993, 'lng': 108.77094742327031}}"
"{'name': '珍珠婚', 'location': {'lat': 34.21041843426474, 'lng': 108.77281503528299}, 'address': '西安市长安区', 'province': '陕西省', 'city': '西安市', 'area': '长安区', 'detail': 1, 'uid': 'a77091890cfd95d5f13cbaaa', 'detail_info': {'tag': '旅游景点;景点', 'type': 'scope', 'detail_url': 'http://api.map.baidu.com/place/detail?uid=a77091890cfd95d5f13cbaaa&output=html&source=placeapi_v2', 'overall_rating': '5.0', 'comment_num': '1', 'children': [], 'lat': 34.21041843426474, 'lng': 108.77281503528299}}"
"{'name': '贺牛生日', 'location': {'lat': 34.20817023042803, 'lng': 108.77154054330143}, 'address': '西安市长安区沣东新城斗门新型工业园区汇新路北段昆明池·七夕公园内', 'province': '陕西省', 'city': '西安市', 'area': '长安区', 'detail': 1, 'uid': '24d2b69492cee39649fc8d64', 'detail_info': {'tag': '旅游景点;景点', 'type': 'scope', 'detail_url': 'http://api.map.baidu.com/place/detail?uid=24d2b69492cee39649fc8d64&output=html&source=placeapi_v2', 'overall_rating': '5.0', 'comment_num': '1', 'children': [], 'lat': 34.20817023042803, 'lng': 108.77154054330143}}"
"{'name': '汗血宝马', 'location': {'lat': 34.21256967113459, 'lng': 108.76646717426162}, 'address': '西安市长安区沣东新城斗门新型工业园区汇新路北段昆明池·七夕公园内', 'province': '陕西省', 'city': '西安市', 'area': '长安区', 'detail': 1, 'uid': 'af561c97d1f1b5440c0e6bc8', 'detail_info': {'tag': '旅游景点;景点', 'type': 'scope', 'detail_url': 'http://api.map.baidu.com/place/detail?uid=af561c97d1f1b5440c0e6bc8&output=html&source=placeapi_v2', 'overall_rating': '5.0', 'comment_num': '1', 'children': [], 'lat': 34.21256967113459, 'lng': 108.76646717426162}}"
"{'name': '珊瑚婚', 'location': {'lat': 34.21027561685826, 'lng': 108.77197127838436}, 'address': '西安市长安区沣东新城斗门新型工业园区汇新路北段昆明池·七夕公园内', 'province': '陕西省', 'city': '西安市', 'area': '长安区', 'detail': 1, 'uid': 'e16ade2032b71adfc61e5164', 'detail_info': {'tag': '旅游景点;景点', 'type': 'scope', 'detail_url': 'http://api.map.baidu.com/place/detail?uid=e16ade2032b71adfc61e5164&output=html&source=placeapi_v2', 'overall_rating': '5.0', 'comment_num': '1', 'children': [], 'lat': 34.21027561685826, 'lng': 108.77197127838436}}"
"{'name': '留仙', 'location': {'lat': 34.20617406066313, 'lng': 108.76913846976909}, 'address': '西安市长安区沣东新城斗门新型工业园区汇新路北段昆明池·七夕公园内', 'province': '陕西省', 'city': '西安市', 'area': '长安区', 'detail': 1, 'uid': '16dd1fbdc8d82ffc130daa5b', 'detail_info': {'tag': '旅游景点;景点', 'type': 'scope', 'detail_url': 'http://api.map.baidu.com/place/detail?uid=16dd1fbdc8d82ffc130daa5b&output=html&source=placeapi_v2', 'overall_rating': '5.0', 'comment_num': '1', 'children': [], 'lat': 34.20617406066313, 'lng': 108.76913846976909}}"
"{'name': '蓝宝石婚', 'location': {'lat': 34.209628351804284, 'lng': 108.77066952017073}, 'address': '西安市长安区沣东新城斗门新型工业园区汇新路北段昆明池·七夕公园内', 'province': '陕西省', 'city': '西安市', 'area': '长安区', 'detail': 1, 'uid': '7b2072e2b404656349fd3fb1', 'detail_info': {'tag': '旅游景点;景点', 'type': 'scope', 'detail_url': 'http://api.map.baidu.com/place/detail?uid=7b2072e2b404656349fd3fb1&output=html&source=placeapi_v2', 'overall_rating': '5.0', 'comment_num': '1', 'children': [], 'lat': 34.209628351804284, 'lng': 108.77066952017073}}"
"{'name': '石鲸', 'location': {'lat': 34.20441238697734, 'lng': 108.77457277700948}, 'address': '西安市长安区沣东新城斗门新型工业园区汇新路北段昆明池·七夕公园内', 'province': '陕西省', 'city': '西安市', 'area': '长安区', 'detail': 1, 'uid': 'daf317224bb580c59868b436', 'detail_info': {'tag': '旅游景点;景点', 'type': 'scope', 'detail_url': 'http://api.map.baidu.com/place/detail?uid=daf317224bb580c59868b436&output=html&source=placeapi_v2', 'overall_rating': '5.0', 'comment_num': '1', 'children': [], 'lat': 34.20441238697734, 'lng': 108.77457277700948}}"
"{'name': '迎风亭', 'location': {'lat': 34.210342631384066, 'lng': 108.77225815223186}, 'address': '西安市长安区沣东新城斗门新型工业园区汇新路北段昆明池·七夕公园内', 'province': '陕西省', 'city': '西安市', 'area': '长安区', 'detail': 1, 'uid': '70ac8cf9d0425bd190114cbb', 'detail_info': {'tag': '旅游景点;景点', 'type': 'scope', 'detail_url': 'http://api.map.baidu.com/place/detail?uid=70ac8cf9d0425bd190114cbb&output=html&source=placeapi_v2', 'overall_rating': '5.0', 'comment_num': '1', 'children': [], 'lat': 34.210342631384066, 'lng': 108.77225815223186}}"
"{'name': '红宝石婚', 'location': {'lat': 34.20997477311998, 'lng': 108.77123484936538}, 'address': '西安市长安区沣东新城斗门新型工业园区汇新路北段昆明池·七夕公园内', 'province': '陕西省', 'city': '西安市', 'area': '长安区', 'detail': 1, 'uid': 'e746b8247889d4d30782c21a', 'detail_info': {'tag': '旅游景点;景点', 'type': 'scope', 'detail_url': 'http://api.map.baidu.com/place/detail?uid=e746b8247889d4d30782c21a&output=html&source=placeapi_v2', 'overall_rating': '5.0', 'comment_num': '1', 'children': [], 'lat': 34.20997477311998, 'lng': 108.77123484936538}}"
"{'name': '摩天轮', 'location': {'lat': 34.21095724742811, 'lng': 108.77320953769797}, 'address': '西安市长安区沣东新城斗门新型工业园区汇新路北段昆明池·七夕公园内', 'province': '陕西省', 'city': '西安市', 'area': '长安区', 'detail': 1, 'uid': '426c7f76b06c0d0ded74f8f5', 'detail_info': {'tag': '旅游景点;景点', 'type': 'scope', 'detail_url': 'http://api.map.baidu.com/place/detail?uid=426c7f76b06c0d0ded74f8f5&output=html&source=placeapi_v2', 'children': [], 'lat': 34.21095724742811, 'lng': 108.77320953769797}}"
"{'name': '披星亭', 'location': {'lat': 34.20455512607999, 'lng': 108.77521105067697}, 'address': '昆明池', 'province': '陕西省', 'city': '西安市', 'area': '长安区', 'detail': 1, 'uid': 'e02f56d5909d913ef7b916a1', 'detail_info': {'tag': '旅游景点;景点', 'type': 'scope', 'detail_url': 'http://api.map.baidu.com/place/detail?uid=e02f56d5909d913ef7b916a1&output=html&source=placeapi_v2', 'overall_rating': '0.0', 'comment_num': '1', 'children': [], 'lat': 34.20455512607999, 'lng': 108.77521105067697}}"
"{'name': '儿童旋转木马', 'location': {'lat': 34.2110407657495, 'lng': 108.77342449345144}, 'address': '西安市长安区沣东新城斗门新型工业园区汇新路北段昆明池·七夕公园内', 'province': '陕西省', 'city': '西安市', 'area': '长安区', 'detail': 1, 'uid': 'c39a17fde0bf98b4c9e33c05', 'detail_info': {'tag': '旅游景点;景点', 'type': 'scope', 'detail_url': 'http://api.map.baidu.com/place/detail?uid=c39a17fde0bf98b4c9e33c05&output=html&source=placeapi_v2', 'children': [], 'lat': 34.2110407657495, 'lng': 108.77342449345144}}"
"{'name': '钻石婚', 'location': {'lat': 34.209159604466635, 'lng': 108.76632676927707}, 'address': '西安市长安区沣东新城斗门新型工业园区汇新路北段昆明池·七夕公园内', 'province': '陕西省', 'city': '西安市', 'area': '长安区', 'detail': 1, 'uid': 'f69cb5e1910316b4a4c756ac', 'detail_info': {'tag': '旅游景点;景点', 'type': 'scope', 'detail_url': 'http://api.map.baidu.com/place/detail?uid=f69cb5e1910316b4a4c756ac&output=html&source=placeapi_v2', 'overall_rating': '0.0', 'comment_num': '1', 'children': [], 'lat': 34.209159604466635, 'lng': 108.76632676927707}}"
"{'name': '大蹦床', 'location': {'lat': 34.21105462880953, 'lng': 108.77301242228083}, 'address': '西安市长安区沣东新城斗门新型工业园区汇新路北段昆明池·七夕公园内', 'province': '陕西省', 'city': '西安市', 'area': '长安区', 'detail': 1, 'uid': '62d84e6b64dd5d2c88fc06df', 'detail_info': {'tag': '旅游景点;景点', 'type': 'scope', 'detail_url': 'http://api.map.baidu.com/place/detail?uid=62d84e6b64dd5d2c88fc06df&output=html&source=placeapi_v2', 'children': [], 'lat': 34.21105462880953, 'lng': 108.77301242228083}}"
"{'name': '蝶恋花', 'location': {'lat': 34.21032753770987, 'lng': 108.77251813519229}, 'address': '西安市长安区沣东新城斗门新型工业园区汇新路北段昆明池·七夕公园内', 'province': '陕西省', 'city': '西安市', 'area': '长安区', 'detail': 1, 'uid': 'a7e4af5fbbc1e1a49d95dec9', 'detail_info': {'tag': '旅游景点;景点', 'type': 'scope', 'detail_url': 'http://api.map.baidu.com/place/detail?uid=a7e4af5fbbc1e1a49d95dec9&output=html&source=placeapi_v2', 'children': [], 'lat': 34.21032753770987, 'lng': 108.77251813519229}}"
"{'name': '水陆战车', 'location': {'lat': 34.21107807236872, 'lng': 108.77317341571215}, 'address': '西安市长安区沣东新城斗门新型工业园区汇新路北段昆明池·七夕公园内', 'province': '陕西省', 'city': '西安市', 'area': '长安区', 'detail': 1, 'uid': 'b335addfe0507deb6c3e1b39', 'detail_info': {'tag': '旅游景点;景点', 'type': 'scope', 'detail_url': 'http://api.map.baidu.com/place/detail?uid=b335addfe0507deb6c3e1b39&output=html&source=placeapi_v2', 'children': [], 'lat': 34.21107807236872, 'lng': 108.77317341571215}}"
"{'name': '祈愿广场', 'location': {'lat': 34.21185383560526, 'lng': 108.77326268420477}, 'address': '西安市长安区沣东新城斗门新型工业园区汇新路北段昆明池·七夕公园内', 'province': '陕西省', 'city': '西安市', 'area': '长安区', 'detail': 1, 'uid': '9c267500d0e445fefbf0cb8c', 'detail_info': {'tag': '休闲娱乐;休闲广场', 'type': 'life', 'detail_url': 'http://api.map.baidu.com/place/detail?uid=9c267500d0e445fefbf0cb8c&output=html&source=placeapi_v2', 'overall_rating': '5.0', 'image_num': '1', 'comment_num': '1', 'children': [], 'lat': 34.21185383560526, 'lng': 108.77326268420477}}"
"{'name': '昆明池·七夕公园-观光车停靠站', 'location': {'lat': 34.207712980651614, 'lng': 108.76725254301266}, 'address': '西安市长安区沣东新城斗门新型工业园区汇新路北段昆明池·七夕公园内', 'province': '陕西省', 'city': '西安市', 'area': '长安区', 'detail': 1, 'uid': '0863d6323f894ebc1ce99910', 'detail_info': {'tag': '交通设施;其他', 'type': 'life', 'detail_url': 'http://api.map.baidu.com/place/detail?uid=0863d6323f894ebc1ce99910&output=html&source=placeapi_v2', 'image_num': '1', 'children': [], 'lat': 34.207712980651614, 'lng': 108.76725254301266}}"
"{'name': '菩提寺', 'location': {'lat': 34.183306418401735, 'lng': 108.80088812607742}, 'address': '蒲阳村', 'province': '陕西省', 'city': '西安市', 'area': '长安区', 'detail': 1, 'uid': 'a6df1eefbb2e1b46ce04ef26', 'detail_info': {'tag': '旅游景点;寺庙', 'type': 'scope', 'detail_url': 'http://api.map.baidu.com/place/detail?uid=a6df1eefbb2e1b46ce04ef26&output=html&source=placeapi_v2', 'overall_rating': '0.0', 'image_num': '1', 'comment_num': '1', 'children': [], 'lat': 34.183306418401735, 'lng': 108.80088812607742}}"
"{'name': '普天禅寺', 'location': {'lat': 34.20716642027454, 'lng': 108.80836537327525}, 'address': '陕西省西安市长安区G5京昆高速附近', 'province': '陕西省', 'city': '西安市', 'area': '长安区', 'street_id': 'c309c3e7fea9f04f04fef57f', 'detail': 1, 'uid': 'c309c3e7fea9f04f04fef57f', 'detail_info': {'tag': '旅游景点;寺庙', 'type': 'scope', 'detail_url': 'http://api.map.baidu.com/place/detail?uid=c309c3e7fea9f04f04fef57f&output=html&source=placeapi_v2', 'overall_rating': '1.5', 'comment_num': '2', 'children': [], 'lat': 34.20716642027454, 'lng': 108.80836537327525}}"
"{'name': '书香镇街文化中心(细柳店)', 'location': {'lat': 34.18220346751758, 'lng': 108.82198680408702}, 'address': '创汇社区E区东门', 'province': '陕西省', 'city': '西安市', 'area': '长安区', 'detail': 1, 'uid': '3e32ec0673f0554700ec01ed', 'detail_info': {'tag': '教育培训;其他', 'type': 'education', 'detail_url': 'http://api.map.baidu.com/place/detail?uid=3e32ec0673f0554700ec01ed&output=html&source=placeapi_v2', 'overall_rating': '0.0', 'comment_num': '1', 'children': [], 'lat': 34.18220346751758, 'lng': 108.82198680408702}}"
"{'name': '丰镐遗址', 'location': {'lat': 34.243300222256586, 'lng': 108.76947359371141}, 'address': '西安市长安区108国道东50米', 'province': '陕西省', 'city': '西安市', 'area': '长安区', 'detail': 1, 'uid': 'd7569a1ba36d20d1b54f54cc', 'detail_info': {'tag': '旅游景点;文物古迹', 'type': 'scope', 'detail_url': 'http://api.map.baidu.com/place/detail?uid=d7569a1ba36d20d1b54f54cc&output=html&source=placeapi_v2', 'overall_rating': '2.0', 'comment_num': '2', 'children': [], 'lat': 34.243300222256586, 'lng': 108.76947359371141}}"
"{'name': '大明怀远将军园', 'location': {'lat': 34.224171888018155, 'lng': 108.81559197478823}, 'address': '陕西省西安市雁塔区西宝疏导线关中驾校南200米', 'province': '陕西省', 'city': '西安市', 'area': '雁塔区', 'street_id': '8ed2e7b406ac382b4bcc4a18', 'detail': 1, 'uid': '8ed2e7b406ac382b4bcc4a18', 'detail_info': {'tag': '旅游景点;其他', 'navi_location': {'lng': 108.82820250287, 'lat': 34.228971945323}, 'type': 'scope', 'detail_url': 'http://api.map.baidu.com/place/detail?uid=8ed2e7b406ac382b4bcc4a18&output=html&source=placeapi_v2', 'overall_rating': '3.0', 'comment_num': '1', 'children': [], 'lat': 34.224171888018155, 'lng': 108.81559197478823}}"
"{'name': '牛郎织女石刻', 'location': {'lat': 34.226892594495325, 'lng': 108.77727572318005}, 'address': '北常村', 'province': '陕西省', 'city': '西安市', 'area': '长安区', 'street_id': '5254286d7624423edc1e52e0', 'detail': 1, 'uid': '5254286d7624423edc1e52e0', 'detail_info': {'tag': '旅游景点;文物古迹', 'navi_location': {'lng': 108.78846550409, 'lat': 34.230241971413}, 'type': 'scope', 'detail_url': 'http://api.map.baidu.com/place/detail?uid=5254286d7624423edc1e52e0&output=html&source=placeapi_v2', 'overall_rating': '5.0', 'comment_num': '2', 'children': [], 'lat': 34.226892594495325, 'lng': 108.77727572318005}}"
"{'name': '魁星楼遗址', 'location': {'lat': 34.2377912338139, 'lng': 108.76925585597465}, 'address': '陕西省西安市长安区', 'province': '陕西省', 'city': '西安市', 'area': '长安区', 'detail': 1, 'uid': 'e061f78dd023250207fef53d', 'detail_info': {'tag': '旅游景点;文物古迹', 'type': 'scope', 'detail_url': 'http://api.map.baidu.com/place/detail?uid=e061f78dd023250207fef53d&output=html&source=placeapi_v2', 'overall_rating': '3.7', 'comment_num': '3', 'children': [], 'lat': 34.2377912338139, 'lng': 108.76925585597465}}"
"{'name': '竹韵松涛', 'location': {'lat': 34.22368804266142, 'lng': 108.80556284603911}, 'address': '西安市长安区', 'province': '陕西省', 'city': '西安市', 'area': '长安区', 'detail': 1, 'uid': 'bfb02d7677304afee8e582df', 'detail_info': {'tag': '旅游景点', 'type': 'scope', 'detail_url': 'http://api.map.baidu.com/place/detail?uid=bfb02d7677304afee8e582df&output=html&source=placeapi_v2', 'children': [], 'lat': 34.22368804266142, 'lng': 108.80556284603911}}"
"{'name': '紫静庵', 'location': {'lat': 34.23906767558031, 'lng': 108.7693860431389}, 'address': '西安市长安区359乡道北150米', 'province': '陕西省', 'city': '西安市', 'area': '长安区', 'detail': 1, 'uid': 'ee33689029a33be16318093e', 'detail_info': {'tag': '旅游景点;文物古迹', 'type': 'scope', 'detail_url': 'http://api.map.baidu.com/place/detail?uid=ee33689029a33be16318093e&output=html&source=placeapi_v2', 'children': [], 'lat': 34.23906767558031, 'lng': 108.7693860431389}}"
"{'name': '将军纪念堂', 'location': {'lat': 34.224257910973094, 'lng': 108.81566539724217}, 'address': '雁环北路西150米', 'province': '陕西省', 'city': '西安市', 'area': '雁塔区', 'detail': 1, 'uid': '0163442f7f93f3470f0a70fb', 'detail_info': {'tag': '旅游景点;文物古迹', 'type': 'scope', 'detail_url': 'http://api.map.baidu.com/place/detail?uid=0163442f7f93f3470f0a70fb&output=html&source=placeapi_v2', 'children': [], 'lat': 34.224257910973094, 'lng': 108.81566539724217}}"
"{'name': '石婆庙', 'location': {'lat': 34.226940535674075, 'lng': 108.77732377599227}, 'address': '陕西省西安市长安区斗门街道', 'province': '陕西省', 'city': '西安市', 'area': '长安区', 'street_id': 'c7fb04bd957bb768fa0cadc4', 'detail': 1, 'uid': 'c7fb04bd957bb768fa0cadc4', 'detail_info': {'tag': '旅游景点;寺庙', 'navi_location': {'lng': 108.7885555709, 'lat': 34.230662158783}, 'type': 'scope', 'detail_url': 'http://api.map.baidu.com/place/detail?uid=c7fb04bd957bb768fa0cadc4&output=html&source=placeapi_v2', 'overall_rating': '4.5', 'comment_num': '10', 'children': [], 'lat': 34.226940535674075, 'lng': 108.77732377599227}}"
"{'name': '周宋村村史展览馆', 'location': {'lat': 34.22422456836855, 'lng': 108.81569358858161}, 'address': '雁环北路西150米', 'province': '陕西省', 'city': '西安市', 'area': '雁塔区', 'street_id': '1765fadc21c78f015bf6bedc', 'detail': 1, 'uid': '1765fadc21c78f015bf6bedc', 'detail_info': {'tag': '文化传媒;展览馆', 'type': 'enterprise', 'detail_url': 'http://api.map.baidu.com/place/detail?uid=1765fadc21c78f015bf6bedc&output=html&source=placeapi_v2', 'children': [], 'lat': 34.22422456836855, 'lng': 108.81569358858161}}"
"{'name': '阿房宫前殿遗址', 'location': {'lat': 34.26158819222981, 'lng': 108.81059703503055}, 'address': '陕西省西安市未央区沣东大道(阿房宫考古遗址公园西北)', 'province': '陕西省', 'city': '西安市', 'area': '未央区', 'street_id': 'd4a0f7639285936543ab9a84', 'telephone': '15102938931', 'detail': 1, 'uid': 'd4a0f7639285936543ab9a84', 'detail_info': {'tag': '旅游景点;文物古迹', 'navi_location': {'lng': 108.82269713155, 'lat': 34.266037661429}, 'type': 'scope', 'detail_url': 'http://api.map.baidu.com/place/detail?uid=d4a0f7639285936543ab9a84&output=html&source=placeapi_v2', 'overall_rating': '4.4', 'comment_num': '5', 'children': [], 'lat': 34.26158819222981, 'lng': 108.81059703503055}}"
"{'name': '阿房宫遗址', 'location': {'lat': 34.26378618703694, 'lng': 108.80795186206741}, 'address': '三桥天台路A15号西部车城向南1000米', 'province': '陕西省', 'city': '西安市', 'area': '未央区', 'street_id': 'cb5d7902ce4f5291f503b8c2', 'telephone': '(029)84518526', 'detail': 1, 'uid': 'cb5d7902ce4f5291f503b8c2', 'detail_info': {'tag': '旅游景点;文物古迹', 'navi_location': {'lng': 108.82268912316, 'lat': 34.266086516506}, 'type': 'scope', 'detail_url': 'http://api.map.baidu.com/place/detail?uid=cb5d7902ce4f5291f503b8c2&output=html&source=placeapi_v2', 'overall_rating': '3.7', 'comment_num': '22', 'children': [], 'lat': 34.26378618703694, 'lng': 108.80795186206741}}"
"{'name': '聚驾观景台', 'location': {'lat': 34.260452600858144, 'lng': 108.81304240521764}, 'address': '西安市未央区红光路西段66号', 'province': '陕西省', 'city': '西安市', 'area': '未央区', 'street_id': '0d69534e522b3f9086420ecb', 'detail': 1, 'uid': '0d69534e522b3f9086420ecb', 'detail_info': {'tag': '旅游景点;景点', 'navi_location': {'lng': 108.82440352845, 'lat': 34.265560010171}, 'type': 'scope', 'detail_url': 'http://api.map.baidu.com/place/detail?uid=0d69534e522b3f9086420ecb&output=html&source=placeapi_v2', 'children': [], 'lat': 34.260452600858144, 'lng': 108.81304240521764}}"
"{'name': '大秦四合院', 'location': {'lat': 34.270374338442906, 'lng': 108.81716737893588}, 'address': '西安市未央区天台四路南100米', 'province': '陕西省', 'city': '西安市', 'area': '未央区', 'detail': 1, 'uid': 'a23ecad2fc098544b020a87d', 'detail_info': {'tag': '旅游景点;风景区', 'navi_location': {'lng': 108.82829978037, 'lat': 34.274860455992}, 'type': 'scope', 'detail_url': 'http://api.map.baidu.com/place/detail?uid=a23ecad2fc098544b020a87d&output=html&source=placeapi_v2', 'overall_rating': '5.0', 'comment_num': '3', 'children': [], 'lat': 34.270374338442906, 'lng': 108.81716737893588}}"
"{'name': '戏唐', 'location': {'lat': 34.25592488950854, 'lng': 108.82017706061278}, 'address': '陕西省西安市未央区一号路16号西南50米', 'province': '陕西省', 'city': '西安市', 'area': '未央区', 'detail': 1, 'uid': '2e265a6fb18465fc593ac817', 'detail_info': {'tag': '旅游景点', 'type': 'scope', 'detail_url': 'http://api.map.baidu.com/place/detail?uid=2e265a6fb18465fc593ac817&output=html&source=placeapi_v2', 'image_num': '1', 'children': [], 'lat': 34.25592488950854, 'lng': 108.82017706061278}}"
"{'name': '秦阿房宫遗址博物馆', 'location': {'lat': 34.2607946984538, 'lng': 108.80740031504365}, 'address': '王寺东街172号', 'province': '陕西省', 'city': '西安市', 'area': '未央区', 'street_id': '78693e22efa3372bfbf0cbc0', 'detail': 1, 'uid': '78693e22efa3372bfbf0cbc0', 'detail_info': {'tag': '旅游景点;博物馆', 'navi_location': {'lng': 108.81854352587, 'lat': 34.265476246151}, 'type': 'scope', 'detail_url': 'http://api.map.baidu.com/place/detail?uid=78693e22efa3372bfbf0cbc0&output=html&source=placeapi_v2', 'overall_rating': '4.0', 'comment_num': '2', 'children': [], 'lat': 34.2607946984538, 'lng': 108.80740031504365}}"
"{'name': '秦阿房宫遗址展览馆', 'location': {'lat': 34.26042972782973, 'lng': 108.80739997977919}, 'address': '西安市长安区王寺东街172号', 'province': '陕西省', 'city': '西安市', 'area': '长安区', 'street_id': 'f46d33327540ca6deee4a5cd', 'telephone': '(029)84368038', 'detail': 1, 'uid': 'f46d33327540ca6deee4a5cd', 'detail_info': {'tag': '文化传媒;展览馆', 'navi_location': {'lng': 108.8186903054, 'lat': 34.265477966824}, 'type': 'scope', 'detail_url': 'http://api.map.baidu.com/place/detail?uid=f46d33327540ca6deee4a5cd&output=html&source=placeapi_v2', 'overall_rating': '0.0', 'children': [], 'lat': 34.26042972782973, 'lng': 108.80739997977919}}"
"{'name': '北寺庙', 'location': {'lat': 34.27725063581162, 'lng': 108.7927975087545}, 'address': '天人路西150米', 'province': '陕西省', 'city': '西安市', 'area': '长安区', 'detail': 1, 'uid': '1fc0cb3119091e7e0482c2f1', 'detail_info': {'tag': '旅游景点;寺庙', 'type': 'scope', 'detail_url': 'http://api.map.baidu.com/place/detail?uid=1fc0cb3119091e7e0482c2f1&output=html&source=placeapi_v2', 'children': [], 'lat': 34.27725063581162, 'lng': 108.7927975087545}}"
"{'name': '西围墙村工业区', 'location': {'lat': 34.25356301690768, 'lng': 108.81290440774615}, 'address': '和平工业园区五号路与西环路交叉口东100米', 'province': '陕西省', 'city': '西安市', 'area': '未央区', 'street_id': 'f5c8edeeaa0cd075b03c817a', 'detail': 1, 'uid': 'f5c8edeeaa0cd075b03c817a', 'detail_info': {'tag': '公司企业;园区', 'type': 'life', 'detail_url': 'http://api.map.baidu.com/place/detail?uid=f5c8edeeaa0cd075b03c817a&output=html&source=placeapi_v2', 'image_num': '1', 'children': [], 'lat': 34.25356301690768, 'lng': 108.81290440774615}}"
"{'name': '陕西科美诺液压胶管加工中心', 'location': {'lat': 34.27869194884106, 'lng': 108.81675855070446}, 'address': '天台六路6附近', 'province': '陕西省', 'city': '西安市', 'area': '未央区', 'detail': 1, 'uid': '8075a7f38945a3f608f5eb6f', 'detail_info': {'tag': '生活服务;其他', 'type': 'life', 'detail_url': 'http://api.map.baidu.com/place/detail?uid=8075a7f38945a3f608f5eb6f&output=html&source=placeapi_v2', 'image_num': '1', 'children': [], 'lat': 34.27869194884106, 'lng': 108.81675855070446}}"
"{'name': '线切割', 'location': {'lat': 34.253478164100024, 'lng': 108.8223595882012}, 'address': '陕西省西安市未央区昆明路西延伸段肖里村134号', 'province': '陕西省', 'city': '西安市', 'area': '未央区', 'street_id': 'd1ccbf11404adf086ca3cc19', 'telephone': '13700241283', 'detail': 1, 'uid': 'd1ccbf11404adf086ca3cc19', 'detail_info': {'tag': '生活服务;其他', 'type': 'life', 'detail_url': 'http://api.map.baidu.com/place/detail?uid=d1ccbf11404adf086ca3cc19&output=html&source=placeapi_v2', 'image_num': '15', 'children': [], 'lat': 34.253478164100024, 'lng': 108.8223595882012}}"
"{'name': '陕西汉唐石刻博物馆', 'location': {'lat': 34.26062734499228, 'lng': 108.80943118602355}, 'address': '陕西省西安市未央区沣东大道', 'province': '陕西省', 'city': '西安市', 'area': '未央区', 'detail': 1, 'uid': '609517d60df3285d1a11d5af', 'detail_info': {'tag': '旅游景点;博物馆', 'type': 'scope', 'detail_url': 'http://api.map.baidu.com/place/detail?uid=609517d60df3285d1a11d5af&output=html&source=placeapi_v2', 'children': [], 'lat': 34.26062734499228, 'lng': 108.80943118602355}}"
"{'name': '中华民俗博物馆', 'location': {'lat': 34.2747682038536, 'lng': 108.80982072769208}, 'address': '陕西省西安市长安区西户公路附近', 'province': '陕西省', 'city': '西安市', 'area': '长安区', 'street_id': '06fedcf4222cf6f4ddee8b20', 'detail': 1, 'uid': '06fedcf4222cf6f4ddee8b20', 'detail_info': {'tag': '旅游景点;博物馆', 'type': 'scope', 'detail_url': 'http://api.map.baidu.com/place/detail?uid=06fedcf4222cf6f4ddee8b20&output=html&source=placeapi_v2', 'children': [], 'lat': 34.2747682038536, 'lng': 108.80982072769208}}"
"{'name': '王寺十字向西丰东城市广场', 'location': {'lat': 34.26197401730089, 'lng': 108.77002042371306}, 'address': '陕西省西安市长安区王寺街道沣东城市广场1号楼', 'province': '陕西省', 'city': '西安市', 'area': '长安区', 'detail': 1, 'uid': '142a207cd15d83258605bfce', 'detail_info': {'tag': '休闲娱乐;休闲广场', 'type': 'life', 'detail_url': 'http://api.map.baidu.com/place/detail?uid=142a207cd15d83258605bfce&output=html&source=placeapi_v2', 'image_num': '1', 'children': [], 'lat': 34.26197401730089, 'lng': 108.77002042371306}}"
"{'name': '西王寺', 'location': {'lat': 34.25765994710403, 'lng': 108.79599611566366}, 'address': '西安市长安区一零八国道', 'province': '陕西省', 'city': '西安市', 'area': '长安区', 'street_id': 'f5e3bcaec13e05c15e17c3de', 'detail': 1, 'uid': 'f5e3bcaec13e05c15e17c3de', 'detail_info': {'tag': '旅游景点;寺庙', 'navi_location': {'lng': 108.80848795059, 'lat': 34.261868112052}, 'type': 'life', 'detail_url': 'http://api.map.baidu.com/place/detail?uid=f5e3bcaec13e05c15e17c3de&output=html&source=placeapi_v2', 'image_num': '1', 'children': [], 'lat': 34.25765994710403, 'lng': 108.79599611566366}}"
"{'name': '唐代古塔', 'location': {'lat': 34.30293997235599, 'lng': 108.81698361726818}, 'address': '陕西省西安市未央区天章大道', 'province': '陕西省', 'city': '西安市', 'area': '未央区', 'detail': 1, 'uid': 'ed90278857aa28d94e2fdf5c', 'detail_info': {'tag': '旅游景点;景点', 'type': 'scope', 'detail_url': 'http://api.map.baidu.com/place/detail?uid=ed90278857aa28d94e2fdf5c&output=html&source=placeapi_v2', 'overall_rating': '2.3', 'comment_num': '3', 'children': [], 'lat': 34.30293997235599, 'lng': 108.81698361726818}}"
"{'name': '名车展览馆', 'location': {'lat': 34.29534008563663, 'lng': 108.81257202322453}, 'address': '疏导线58号西部国际车城', 'province': '陕西省', 'city': '西安市', 'area': '未央区', 'street_id': '305c3f8ec7065f290c0a70e8', 'detail': 1, 'uid': '305c3f8ec7065f290c0a70e8', 'detail_info': {'tag': '文化传媒;展览馆', 'type': 'enterprise', 'detail_url': 'http://api.map.baidu.com/place/detail?uid=305c3f8ec7065f290c0a70e8&output=html&source=placeapi_v2', 'overall_rating': '3.0', 'comment_num': '1', 'children': [], 'lat': 34.29534008563663, 'lng': 108.81257202322453}}"
"{'name': '后围寨环岛', 'location': {'lat': 34.298751902667846, 'lng': 108.81390954932662}, 'address': '陕西省西安市未央区后围寨立交', 'province': '陕西省', 'city': '西安市', 'area': '未央区', 'street_id': '6108521177d835dcc51b75de', 'detail': 1, 'uid': '6108521177d835dcc51b75de', 'detail_info': {'tag': '交通设施;其他', 'navi_location': {'lng': 108.82482842695, 'lat': 34.303353260902}, 'type': 'life', 'detail_url': 'http://api.map.baidu.com/place/detail?uid=6108521177d835dcc51b75de&output=html&source=placeapi_v2', 'image_num': '1', 'children': [], 'lat': 34.298751902667846, 'lng': 108.81390954932662}}"
"{'name': '第十四通道水房', 'location': {'lat': 34.301646402842486, 'lng': 108.80271169018012}, 'address': '陕西省西安市未央区西安高架快速干道', 'province': '陕西省', 'city': '西安市', 'area': '未央区', 'street_id': 'cffd5d5e710c277da7c75606', 'detail': 1, 'uid': 'cffd5d5e710c277da7c75606', 'detail_info': {'tag': '旅游景点;景点', 'type': 'scope', 'detail_url': 'http://api.map.baidu.com/place/detail?uid=cffd5d5e710c277da7c75606&output=html&source=placeapi_v2', 'children': [], 'lat': 34.301646402842486, 'lng': 108.80271169018012}}"
"{'name': '关圣殿', 'location': {'lat': 34.30984791492546, 'lng': 108.80646137497371}, 'address': '西安市未央区', 'province': '陕西省', 'city': '西安市', 'area': '未央区', 'detail': 1, 'uid': '976fc6f868255d6b2902e190', 'detail_info': {'tag': '旅游景点;文物古迹', 'type': 'scope', 'detail_url': 'http://api.map.baidu.com/place/detail?uid=976fc6f868255d6b2902e190&output=html&source=placeapi_v2', 'children': [], 'lat': 34.30984791492546, 'lng': 108.80646137497371}}"
"{'name': '汇都酒店会议中心', 'location': {'lat': 34.304128559694554, 'lng': 108.81893841525455}, 'address': '陕西省西安市未央区天章大道', 'province': '陕西省', 'city': '西安市', 'area': '未央区', 'detail': 1, 'uid': 'f953419d1923c1f848fd3f56', 'detail_info': {'tag': '文化传媒;展览馆', 'type': 'enterprise', 'detail_url': 'http://api.map.baidu.com/place/detail?uid=f953419d1923c1f848fd3f56&output=html&source=placeapi_v2', 'children': [], 'lat': 34.304128559694554, 'lng': 108.81893841525455}}"
"{'name': '公园新世纪', 'location': {'lat': 34.289257746835546, 'lng': 108.81927051188832}, 'address': '陕西省西安市未央区天台路西部车城南300米路东', 'province': '陕西省', 'city': '西安市', 'area': '未央区', 'street_id': '35b3f09d853003c57369d31c', 'telephone': '(029)63382008', 'detail': 1, 'uid': '35b3f09d853003c57369d31c', 'detail_info': {'tag': '房地产;住宅区', 'navi_location': {'lng': 108.82986324069, 'lat': 34.292987179086}, 'type': 'house', 'detail_url': 'http://api.map.baidu.com/place/detail?uid=35b3f09d853003c57369d31c&output=html&source=placeapi_v2', 'children': [], 'lat': 34.289257746835546, 'lng': 108.81927051188832}}"
"{'name': '西山寺', 'location': {'lat': 34.29019306872486, 'lng': 108.76981505038064}, 'address': '陕西省西安市长安区', 'province': '陕西省', 'city': '西安市', 'area': '长安区', 'detail': 1, 'uid': 'adf8b79ba0f136a9901fc99b', 'detail_info': {'tag': '旅游景点;寺庙', 'navi_location': {'lng': 108.78055281325, 'lat': 34.293708833595}, 'type': 'scope', 'detail_url': 'http://api.map.baidu.com/place/detail?uid=adf8b79ba0f136a9901fc99b&output=html&source=placeapi_v2', 'overall_rating': '5.0', 'comment_num': '4', 'children': [], 'lat': 34.29019306872486, 'lng': 108.76981505038064}}"
"{'name': '结缘寺', 'location': {'lat': 34.29657145437408, 'lng': 108.80559691594227}, 'address': '陕西省西安市未央区三桥街道连霍高速公路结缘寺', 'province': '陕西省', 'city': '西安市', 'area': '未央区', 'street_id': 'e1ef1f3a15014ae072455b38', 'detail': 1, 'uid': 'e1ef1f3a15014ae072455b38', 'detail_info': {'tag': '旅游景点;寺庙', 'type': 'scope', 'detail_url': 'http://api.map.baidu.com/place/detail?uid=e1ef1f3a15014ae072455b38&output=html&source=placeapi_v2', 'overall_rating': '0.0', 'children': [], 'lat': 34.29657145437408, 'lng': 108.80559691594227}}"
"{'name': '中国(陕西)自由贸易试验区沣东自贸产业园综合服务中心', 'location': {'lat': 34.28667469297352, 'lng': 108.79491647389062}, 'address': '西安市长安区征和四路与太平路交叉路口往东约100米(西安沣东自贸产业园)', 'province': '陕西省', 'city': '西安市', 'area': '长安区', 'detail': 1, 'uid': '1cb6af4d5e6b87e682a12ed9', 'detail_info': {'tag': '公司企业;园区', 'type': 'enterprise', 'detail_url': 'http://api.map.baidu.com/place/detail?uid=1cb6af4d5e6b87e682a12ed9&output=html&source=placeapi_v2', 'children': [], 'lat': 34.28667469297352, 'lng': 108.79491647389062}}"
"{'name': '涂涂派艺术馆(西安启航馆)', 'location': {'lat': 34.30087936252, 'lng': 108.81176732093158}, 'address': '西咸新区沣东新城后卫寨地铁站D启航佳苑东区南门B9栋商铺三层', 'province': '陕西省', 'city': '西安市', 'area': '未央区', 'telephone': '13259941158', 'detail': 1, 'uid': '1a844f860ef8db7b9b68b43f', 'detail_info': {'tag': '文化传媒;美术馆', 'type': 'life', 'detail_url': 'http://api.map.baidu.com/place/detail?uid=1a844f860ef8db7b9b68b43f&output=html&source=placeapi_v2', 'image_num': '1', 'children': [], 'lat': 34.30087936252, 'lng': 108.81176732093158}}"
"{'name': '西好汉庙', 'location': {'lat': 34.309980988298506, 'lng': 108.80645017790921}, 'address': '西安市未央区', 'province': '陕西省', 'city': '西安市', 'area': '未央区', 'detail': 1, 'uid': '7d0bf818e43efd28f4e73b29', 'detail_info': {'tag': '旅游景点;寺庙', 'type': 'life', 'detail_url': 'http://api.map.baidu.com/place/detail?uid=7d0bf818e43efd28f4e73b29&output=html&source=placeapi_v2', 'image_num': '1', 'children': [], 'lat': 34.309980988298506, 'lng': 108.80645017790921}}"
"{'name': '红蚂蚁少儿创意美术馆', 'location': {'lat': 34.30206577229376, 'lng': 108.81133774507235}, 'address': '陕西省西安市未央区后围寨启航佳苑B区3层商铺', 'province': '陕西省', 'city': '西安市', 'area': '未央区', 'telephone': '18209227178,15229372642', 'detail': 1, 'uid': 'e3fd730bb528b40015c9050c', 'detail_info': {'tag': '文化传媒;美术馆', 'type': 'scope', 'detail_url': 'http://api.map.baidu.com/place/detail?uid=e3fd730bb528b40015c9050c&output=html&source=placeapi_v2', 'overall_rating': '0.0', 'children': [], 'lat': 34.30206577229376, 'lng': 108.81133774507235}}"
"{'name': '秦岭雪泉', 'location': {'lat': 34.292849340738165, 'lng': 108.81766789508788}, 'address': '陕西省西安市未央区征和六路华润二十四城二期9栋107号', 'province': '陕西省', 'city': '西安市', 'area': '未央区', 'detail': 1, 'uid': 'e86c24255608f825a8f729bd', 'detail_info': {'tag': '生活服务;家政服务', 'type': 'life', 'detail_url': 'http://api.map.baidu.com/place/detail?uid=e86c24255608f825a8f729bd&output=html&source=placeapi_v2', 'overall_rating': '0.0', 'image_num': '3', 'comment_num': '1', 'children': [], 'lat': 34.292849340738165, 'lng': 108.81766789508788}}"
"{'name': '西乐寺', 'location': {'lat': 34.33818268204205, 'lng': 108.81689099570791}, 'address': '西安市未央区西坡观光一路西150米', 'province': '陕西省', 'city': '西安市', 'area': '未央区', 'street_id': 'a484af5323766d988c55ec6a', 'detail': 1, 'uid': 'a484af5323766d988c55ec6a', 'detail_info': {'tag': '旅游景点;寺庙', 'type': 'scope', 'detail_url': 'http://api.map.baidu.com/place/detail?uid=a484af5323766d988c55ec6a&output=html&source=placeapi_v2', 'children': [], 'lat': 34.33818268204205, 'lng': 108.81689099570791}}"
"{'name': '河堤路沣河桥玻璃栈道', 'location': {'lat': 34.34805430187634, 'lng': 108.77241198998075}, 'address': '陕西省咸阳市秦都区河堤路', 'province': '陕西省', 'city': '咸阳市', 'area': '秦都区', 'detail': 1, 'uid': 'c470c8e2a49c710fb34c4927', 'detail_info': {'tag': '旅游景点;其他', 'type': 'scope', 'detail_url': 'http://api.map.baidu.com/place/detail?uid=c470c8e2a49c710fb34c4927&output=html&source=placeapi_v2', 'overall_rating': '3.5', 'comment_num': '8', 'children': [], 'lat': 34.34805430187634, 'lng': 108.77241198998075}}"
"{'name': '沣渭生态景观区', 'location': {'lat': 34.347551243075806, 'lng': 108.77328815840073}, 'address': '陕西省咸阳市秦都区河堤路附近', 'province': '陕西省', 'city': '咸阳市', 'area': '秦都区', 'detail': 1, 'uid': '4c1003cf551bd21cefdfcadb', 'detail_info': {'tag': '旅游景点;其他', 'type': 'scope', 'detail_url': 'http://api.map.baidu.com/place/detail?uid=4c1003cf551bd21cefdfcadb&output=html&source=placeapi_v2', 'overall_rating': '0.0', 'comment_num': '1', 'children': [], 'lat': 34.347551243075806, 'lng': 108.77328815840073}}"
"{'name': '刻碑', 'location': {'lat': 34.37714303207017, 'lng': 108.78204026698536}, 'address': '咸阳市渭城区长陵路与101县道交叉口东50米', 'province': '陕西省', 'city': '咸阳市', 'area': '渭城区', 'street_id': '80b07530a413cc80e812e4a3', 'detail': 1, 'uid': '80b07530a413cc80e812e4a3', 'detail_info': {'tag': '旅游景点;文物古迹', 'type': 'scope', 'detail_url': 'http://api.map.baidu.com/place/detail?uid=80b07530a413cc80e812e4a3&output=html&source=placeapi_v2', 'children': [], 'lat': 34.37714303207017, 'lng': 108.78204026698536}}"
"{'name': '水磨方水上乐园', 'location': {'lat': 34.367410979394634, 'lng': 108.77610882364199}, 'address': '咸阳市渭城区朝阳五路十字锦煌酒店院内', 'province': '陕西省', 'city': '咸阳市', 'area': '渭城区', 'detail': 1, 'uid': '75eb1a13ab61ab90a21de9dd', 'detail_info': {'tag': '旅游景点;游乐园', 'type': 'scope', 'detail_url': 'http://api.map.baidu.com/place/detail?uid=75eb1a13ab61ab90a21de9dd&output=html&source=placeapi_v2', 'children': [], 'lat': 34.367410979394634, 'lng': 108.77610882364199}}"
"{'name': '陕西大会堂', 'location': {'lat': 34.20497416228433, 'lng': 108.86663591615172}, 'address': '丈八北路1号陕西宾馆内', 'province': '陕西省', 'city': '西安市', 'area': '雁塔区', 'street_id': '05fe90def589d6b3eddfca25', 'telephone': '(029)88769062', 'detail': 1, 'uid': '05fe90def589d6b3eddfca25', 'detail_info': {'tag': '文化传媒;展览馆', 'navi_location': {'lng': 108.87731596066, 'lat': 34.210664694161}, 'type': 'scope', 'detail_url': 'http://api.map.baidu.com/place/detail?uid=05fe90def589d6b3eddfca25&output=html&source=placeapi_v2', 'overall_rating': '2.7', 'children': [], 'lat': 34.20497416228433, 'lng': 108.86663591615172}}"
"{'name': '天主教西安教区圣保禄堂', 'location': {'lat': 34.18372011620464, 'lng': 108.87279955521336}, 'address': '陕西省西安市雁塔区锦业二路逸翠园一期小区北门西侧3-104', 'province': '陕西省', 'city': '西安市', 'area': '雁塔区', 'street_id': 'e37678c3e063111f32f71d78', 'detail': 1, 'uid': 'e37678c3e063111f32f71d78', 'detail_info': {'tag': '旅游景点;教堂', 'type': 'scope', 'detail_url': 'http://api.map.baidu.com/place/detail?uid=e37678c3e063111f32f71d78&output=html&source=placeapi_v2', 'overall_rating': '5.0', 'comment_num': '2', 'children': [], 'lat': 34.18372011620464, 'lng': 108.87279955521336}}"
"{'name': '陕西宾馆-大礼堂', 'location': {'lat': 34.20453123031154, 'lng': 108.87033655140381}, 'address': '丈八北路1号陕西宾馆内', 'province': '陕西省', 'city': '西安市', 'area': '雁塔区', 'street_id': '74f6bfaf746bb966ddee8ba2', 'telephone': '(029)68899644', 'detail': 1, 'uid': '74f6bfaf746bb966ddee8ba2', 'detail_info': {'tag': '文化传媒;展览馆', 'navi_location': {'lng': 108.88138304694, 'lat': 34.208706997533}, 'type': 'scope', 'detail_url': 'http://api.map.baidu.com/place/detail?uid=74f6bfaf746bb966ddee8ba2&output=html&source=placeapi_v2', 'overall_rating': '0.0', 'children': [], 'lat': 34.20453123031154, 'lng': 108.87033655140381}}"
"{'name': '皂河公园', 'location': {'lat': 34.209654787728894, 'lng': 108.86225458053354}, 'address': '陕西省西安市雁塔区科技七路与经五路交汇处', 'province': '陕西省', 'city': '西安市', 'area': '雁塔区', 'detail': 1, 'uid': '38942f7f479dc669bea240ee', 'detail_info': {'tag': '旅游景点;公园', 'type': 'scope', 'detail_url': 'http://api.map.baidu.com/place/detail?uid=38942f7f479dc669bea240ee&output=html&source=placeapi_v2', 'overall_rating': '3.5', 'comment_num': '4', 'children': [], 'lat': 34.209654787728894, 'lng': 108.86225458053354}}"
"{'name': '西华门', 'location': {'lat': 34.193856163043236, 'lng': 108.86773375549183}, 'address': '锦业路与锦业六街交叉口', 'province': '陕西省', 'city': '西安市', 'area': '雁塔区', 'street_id': '21720f0030eb956b90114cb8', 'detail': 1, 'uid': '21720f0030eb956b90114cb8', 'detail_info': {'tag': '旅游景点;景点', 'type': 'scope', 'detail_url': 'http://api.map.baidu.com/place/detail?uid=21720f0030eb956b90114cb8&output=html&source=placeapi_v2', 'overall_rating': '4.3', 'comment_num': '4', 'children': [], 'lat': 34.193856163043236, 'lng': 108.86773375549183}}"
"{'name': '西安咸阳国际机场绿地中心城市候机楼', 'location': {'lat': 34.1962239311367, 'lng': 108.8757448386016}, 'address': '陕西省西安市雁塔区丈八二路与锦业路交汇处绿地中心A座1层大厅', 'province': '陕西省', 'city': '西安市', 'area': '雁塔区', 'street_id': '86028352d9baded1f4e73bbc', 'detail': 1, 'uid': '86028352d9baded1f4e73bbc', 'detail_info': {'tag': '交通设施;其他', 'type': 'life', 'detail_url': 'http://api.map.baidu.com/place/detail?uid=86028352d9baded1f4e73bbc&output=html&source=placeapi_v2', 'overall_rating': '5.0', 'image_num': '2', 'comment_num': '1', 'children': [], 'lat': 34.1962239311367, 'lng': 108.8757448386016}}"
"{'name': '圆形广场', 'location': {'lat': 34.2037991576258, 'lng': 108.85554712976815}, 'address': '瞪羚二路与瞪羚路交叉口东北150米', 'province': '陕西省', 'city': '西安市', 'area': '雁塔区', 'street_id': 'ef3e371944faa461373a71f4', 'detail': 1, 'uid': 'ef3e371944faa461373a71f4', 'detail_info': {'tag': '旅游景点;景点', 'type': 'scope', 'detail_url': 'http://api.map.baidu.com/place/detail?uid=ef3e371944faa461373a71f4&output=html&source=placeapi_v2', 'children': [], 'lat': 34.2037991576258, 'lng': 108.85554712976815}}"
"{'name': '乌孜古加盟号', 'location': {'lat': 34.196686708760375, 'lng': 108.8776058059636}, 'address': '西安市雁塔区锦业路绿地正大缤纷城第5幢1单元1层10109号房', 'province': '陕西省', 'city': '西安市', 'area': '雁塔区', 'street_id': '5fd7556f9f3f23e6b8bd634b', 'detail': 1, 'uid': '5fd7556f9f3f23e6b8bd634b', 'detail_info': {'tag': '旅游景点', 'navi_location': {'lng': 108.8898719882, 'lat': 34.200869838422}, 'type': 'scope', 'detail_url': 'http://api.map.baidu.com/place/detail?uid=5fd7556f9f3f23e6b8bd634b&output=html&source=placeapi_v2', 'overall_rating': '4.0', 'comment_num': '1', 'children': [], 'lat': 34.196686708760375, 'lng': 108.8776058059636}}"
"{'name': '拾光岛游乐园', 'location': {'lat': 34.183143649470544, 'lng': 108.85083902325837}, 'address': '小龙虾和左右岸中间2层', 'province': '陕西省', 'city': '西安市', 'area': '雁塔区', 'detail': 1, 'uid': '804f3aef686cc3d528d7ab96', 'detail_info': {'tag': '旅游景点;游乐园', 'type': 'scope', 'detail_url': 'http://api.map.baidu.com/place/detail?uid=804f3aef686cc3d528d7ab96&output=html&source=placeapi_v2', 'overall_rating': '0.0', 'comment_num': '1', 'children': [], 'lat': 34.183143649470544, 'lng': 108.85083902325837}}"
"{'name': '西安高新大学城清真寺', 'location': {'lat': 34.196616048135766, 'lng': 108.87181642463368}, 'address': '陕西省西安市雁塔区锦业路绿地世纪城69号饕界荟萃巷NO201', 'province': '陕西省', 'city': '西安市', 'area': '雁塔区', 'street_id': '9a2e2d997234a00ba2d230d6', 'detail': 1, 'uid': '9a2e2d997234a00ba2d230d6', 'detail_info': {'tag': '旅游景点;文物古迹', 'type': 'scope', 'detail_url': 'http://api.map.baidu.com/place/detail?uid=9a2e2d997234a00ba2d230d6&output=html&source=placeapi_v2', 'children': [], 'lat': 34.196616048135766, 'lng': 108.87181642463368}}"
"{'name': '陕西体育博物馆', 'location': {'lat': 34.20323301164727, 'lng': 108.8828420521915}, 'address': '丈八东路303号', 'province': '陕西省', 'city': '西安市', 'area': '雁塔区', 'street_id': '291ab16831ee3a3df6c59c41', 'telephone': '(029)88445875', 'detail': 1, 'uid': '291ab16831ee3a3df6c59c41', 'detail_info': {'tag': '旅游景点;博物馆', 'navi_location': {'lng': 108.8937960346, 'lat': 34.207325382063}, 'type': 'scope', 'detail_url': 'http://api.map.baidu.com/place/detail?uid=291ab16831ee3a3df6c59c41&output=html&source=placeapi_v2', 'overall_rating': '4.8', 'comment_num': '13', 'children': [], 'lat': 34.20323301164727, 'lng': 108.8828420521915}}"
"{'name': '茶牌坊', 'location': {'lat': 34.19859447170837, 'lng': 108.85173559820642}, 'address': '陕西省西安市雁塔区丈八六路辅路', 'province': '陕西省', 'city': '西安市', 'area': '雁塔区', 'detail': 1, 'uid': '9db13dd1051fc3ed8505bf26', 'detail_info': {'tag': '旅游景点;景点', 'type': 'scope', 'detail_url': 'http://api.map.baidu.com/place/detail?uid=9db13dd1051fc3ed8505bf26&output=html&source=placeapi_v2', 'children': [], 'lat': 34.19859447170837, 'lng': 108.85173559820642}}"
"{'name': '东方盒子塔', 'location': {'lat': 34.182355781827255, 'lng': 108.87588120532389}, 'address': '陕西省西安市长安区丈八二路', 'province': '陕西省', 'city': '西安市', 'area': '长安区', 'detail': 1, 'uid': '905599452d69c8598a36eecf', 'detail_info': {'tag': '旅游景点;景点', 'type': 'scope', 'detail_url': 'http://api.map.baidu.com/place/detail?uid=905599452d69c8598a36eecf&output=html&source=placeapi_v2', 'image_num': '2', 'children': [], 'lat': 34.182355781827255, 'lng': 108.87588120532389}}"
"{'name': '佛玉禅阁', 'location': {'lat': 34.19970723876306, 'lng': 108.84492354749803}, 'address': '丈八西路55号附近', 'province': '陕西省', 'city': '西安市', 'area': '雁塔区', 'street_id': '16ceb6c8ee13ad05081cc789', 'detail': 1, 'uid': '16ceb6c8ee13ad05081cc789', 'detail_info': {'tag': '旅游景点;文物古迹', 'type': 'scope', 'detail_url': 'http://api.map.baidu.com/place/detail?uid=16ceb6c8ee13ad05081cc789&output=html&source=placeapi_v2', 'children': [], 'lat': 34.19970723876306, 'lng': 108.84492354749803}}"
"{'name': '永威.时代中心-展示厅', 'location': {'lat': 34.19284389675459, 'lng': 108.87625714544677}, 'address': '锦业路绿地正大缤纷城1楼', 'province': '陕西省', 'city': '西安市', 'area': '雁塔区', 'street_id': '409aa56fe2171db679dbd215', 'detail': 1, 'uid': '409aa56fe2171db679dbd215', 'detail_info': {'tag': '文化传媒;展览馆', 'navi_location': {'lng': 108.88722736869, 'lat': 34.197315109951}, 'type': 'enterprise', 'detail_url': 'http://api.map.baidu.com/place/detail?uid=409aa56fe2171db679dbd215&output=html&source=placeapi_v2', 'children': [], 'lat': 34.19284389675459, 'lng': 108.87625714544677}}"
"{'name': '中国画院(陕西分院)', 'location': {'lat': 34.21265505573217, 'lng': 108.88230510276541}, 'address': '沣惠南路36号橡树街区A座1层', 'province': '陕西省', 'city': '西安市', 'area': '雁塔区', 'street_id': '26dc507ad34d25fa3913fd53', 'telephone': '15709249999', 'detail': 1, 'uid': '26dc507ad34d25fa3913fd53', 'detail_info': {'tag': '文化传媒;展览馆', 'type': 'life', 'detail_url': 'http://api.map.baidu.com/place/detail?uid=26dc507ad34d25fa3913fd53&output=html&source=placeapi_v2', 'overall_rating': '2.5', 'image_num': '1', 'children': [], 'lat': 34.21265505573217, 'lng': 108.88230510276541}}"
"{'name': '西安绿地笔克国际会展中心-1号馆', 'location': {'lat': 34.194001301647006, 'lng': 108.88270428545894}, 'address': '唐延南路与锦业一路交叉口西北150米', 'province': '陕西省', 'city': '西安市', 'area': '雁塔区', 'street_id': '1fecbb76803579a448cc4acf', 'detail': 1, 'uid': '1fecbb76803579a448cc4acf', 'detail_info': {'tag': '文化传媒;展览馆', 'navi_location': {'lng': 108.89376522452, 'lat': 34.198418879725}, 'type': 'enterprise', 'detail_url': 'http://api.map.baidu.com/place/detail?uid=1fecbb76803579a448cc4acf&output=html&source=placeapi_v2', 'children': [], 'lat': 34.194001301647006, 'lng': 108.88270428545894}}"
"{'name': '北礼堂', 'location': {'lat': 34.20564978805919, 'lng': 108.87213329017605}, 'address': '西安市雁塔区丈八东路与科技八路交叉口西南100米', 'province': '陕西省', 'city': '西安市', 'area': '雁塔区', 'street_id': 'f731c6e55eb9a9ba3904b1d7', 'detail': 1, 'uid': 'f731c6e55eb9a9ba3904b1d7', 'detail_info': {'tag': '文化传媒;展览馆', 'type': 'enterprise', 'detail_url': 'http://api.map.baidu.com/place/detail?uid=f731c6e55eb9a9ba3904b1d7&output=html&source=placeapi_v2', 'children': [], 'lat': 34.20564978805919, 'lng': 108.87213329017605}}"
"{'name': '基督教堂(丈八四路)', 'location': {'lat': 34.20767675299135, 'lng': 108.86507313630574}, 'address': '陕西省西安市雁塔区(西安利之星汽车有限公司东北)', 'province': '陕西省', 'city': '西安市', 'area': '雁塔区', 'street_id': 'bdc71faffba4e8b60bf5eb26', 'detail': 1, 'uid': 'bdc71faffba4e8b60bf5eb26', 'detail_info': {'tag': '旅游景点;教堂', 'navi_location': {'lng': 108.87584044625, 'lat': 34.212125241925}, 'type': 'scope', 'detail_url': 'http://api.map.baidu.com/place/detail?uid=bdc71faffba4e8b60bf5eb26&output=html&source=placeapi_v2', 'overall_rating': '1.0', 'comment_num': '1', 'children': [], 'lat': 34.20767675299135, 'lng': 108.86507313630574}}"
"{'name': '西安市大唐青铜镜博物馆', 'location': {'lat': 34.184615573791135, 'lng': 108.8760042097236}, 'address': '西安市高新区丈八二路和锦业二路十字逸翠尚府北区70117室', 'province': '陕西省', 'city': '西安市', 'area': '雁塔区', 'detail': 1, 'uid': '12e6ed273446f7e160180982', 'detail_info': {'tag': '旅游景点;博物馆', 'type': 'scope', 'detail_url': 'http://api.map.baidu.com/place/detail?uid=12e6ed273446f7e160180982&output=html&source=placeapi_v2', 'children': [], 'lat': 34.184615573791135, 'lng': 108.8760042097236}}"
"{'name': '西安绿地笔克国际会展中心-4号馆', 'location': {'lat': 34.19401522697823, 'lng': 108.88100093421886}, 'address': '西安市雁塔区丈八一路与锦业一路交叉口东北150米西安绿地笔克国际会展中心', 'province': '陕西省', 'city': '西安市', 'area': '雁塔区', 'street_id': '7f49b3d96ee0f4d5f4231037', 'detail': 1, 'uid': '7f49b3d96ee0f4d5f4231037', 'detail_info': {'tag': '文化传媒;展览馆', 'navi_location': {'lng': 108.89191273171, 'lat': 34.198476680884}, 'type': 'life', 'detail_url': 'http://api.map.baidu.com/place/detail?uid=7f49b3d96ee0f4d5f4231037&output=html&source=placeapi_v2', 'image_num': '1', 'children': [], 'lat': 34.19401522697823, 'lng': 108.88100093421886}}"
"{'name': '王西京艺术陈列馆', 'location': {'lat': 34.19511405412253, 'lng': 108.85277930139374}, 'address': '高新锦业路76号', 'province': '陕西省', 'city': '西安市', 'area': '雁塔区', 'street_id': 'd5db08af72bfc7491b11d501', 'detail': 1, 'uid': 'd5db08af72bfc7491b11d501', 'detail_info': {'tag': '旅游景点;文物古迹', 'navi_location': {'lng': 108.86372073918, 'lat': 34.199912254919}, 'type': 'scope', 'detail_url': 'http://api.map.baidu.com/place/detail?uid=d5db08af72bfc7491b11d501&output=html&source=placeapi_v2', 'overall_rating': '0.0', 'children': [], 'lat': 34.19511405412253, 'lng': 108.85277930139374}}"
"{'name': '水晶岛酒店会议中心', 'location': {'lat': 34.209996337602696, 'lng': 108.88227476694004}, 'address': '西安市雁塔区沣惠南路38号', 'province': '陕西省', 'city': '西安市', 'area': '雁塔区', 'street_id': '970ad4d034a44c6a8b2fb532', 'detail': 1, 'uid': '970ad4d034a44c6a8b2fb532', 'detail_info': {'tag': '文化传媒;展览馆', 'navi_location': {'lng': 108.89447135822, 'lat': 34.21405820395}, 'type': 'scope', 'detail_url': 'http://api.map.baidu.com/place/detail?uid=970ad4d034a44c6a8b2fb532&output=html&source=placeapi_v2', 'overall_rating': '0.0', 'children': [], 'lat': 34.209996337602696, 'lng': 108.88227476694004}}"
"{'name': '航空工业自控所(锦业园区)-接送点', 'location': {'lat': 34.196113482421886, 'lng': 108.82952406536917}, 'address': '航空工业自控所(锦业园区)附近', 'province': '陕西省', 'city': '西安市', 'area': '雁塔区', 'detail': 1, 'uid': 'ad13f71d68af220b1811d509', 'detail_info': {'tag': '交通设施;其他', 'type': 'life', 'detail_url': 'http://api.map.baidu.com/place/detail?uid=ad13f71d68af220b1811d509&output=html&source=placeapi_v2', 'image_num': '1', 'children': [], 'lat': 34.196113482421886, 'lng': 108.82952406536917}}"
"{'name': '绿地中心环球展厅', 'location': {'lat': 34.19589772223558, 'lng': 108.87623614781857}, 'address': '西安市雁塔区锦业路与丈八二路交叉路口东北侧(绿地中心)', 'province': '陕西省', 'city': '西安市', 'area': '雁塔区', 'street_id': '4d3b0565339d5e4196ca0720', 'detail': 1, 'uid': '4d3b0565339d5e4196ca0720', 'detail_info': {'tag': '文化传媒;展览馆', 'type': 'life', 'detail_url': 'http://api.map.baidu.com/place/detail?uid=4d3b0565339d5e4196ca0720&output=html&source=placeapi_v2', 'image_num': '1', 'children': [], 'lat': 34.19589772223558, 'lng': 108.87623614781857}}"
"{'name': '陕西宾馆-会议厅', 'location': {'lat': 34.20428961735049, 'lng': 108.86950558006293}, 'address': '丈八北路1号陕西宾馆内', 'province': '陕西省', 'city': '西安市', 'area': '雁塔区', 'street_id': '44cf1b0089924731e115f986', 'detail': 1, 'uid': '44cf1b0089924731e115f986', 'detail_info': {'tag': '文化传媒;展览馆', 'type': 'scope', 'detail_url': 'http://api.map.baidu.com/place/detail?uid=44cf1b0089924731e115f986&output=html&source=placeapi_v2', 'overall_rating': '0.0', 'children': [], 'lat': 34.20428961735049, 'lng': 108.86950558006293}}"
"{'name': '励进海升酒店-多功能厅', 'location': {'lat': 34.21438841347484, 'lng': 108.88036016496542}, 'address': '西安市高新区沣惠南路34号励进海升酒店4层', 'province': '陕西省', 'city': '西安市', 'area': '雁塔区', 'street_id': '3dbc52a2f4f622a0eb56fa1f', 'telephone': '(029)83266666', 'detail': 1, 'uid': '3dbc52a2f4f622a0eb56fa1f', 'detail_info': {'tag': '文化传媒;展览馆', 'type': 'scope', 'detail_url': 'http://api.map.baidu.com/place/detail?uid=3dbc52a2f4f622a0eb56fa1f&output=html&source=placeapi_v2', 'children': [], 'lat': 34.21438841347484, 'lng': 108.88036016496542}}"
"{'name': '西安绿地笔克国际会展中心-3号馆', 'location': {'lat': 34.19404380251167, 'lng': 108.88162477549754}, 'address': '唐延南路4号西安绿地笔克国际会展中心附近', 'province': '陕西省', 'city': '西安市', 'area': '雁塔区', 'street_id': 'c2c47c02602ddeffbda2407e', 'detail': 1, 'uid': 'c2c47c02602ddeffbda2407e', 'detail_info': {'tag': '文化传媒;展览馆', 'navi_location': {'lng': 108.89236932333, 'lat': 34.198526070957}, 'type': 'enterprise', 'detail_url': 'http://api.map.baidu.com/place/detail?uid=c2c47c02602ddeffbda2407e&output=html&source=placeapi_v2', 'children': [], 'lat': 34.19404380251167, 'lng': 108.88162477549754}}"
"{'name': '百事特威酒店-会议室', 'location': {'lat': 34.212949248163, 'lng': 108.8818204242215}, 'address': '西安市高新区沣惠南路36号橡树街区C座百事特威酒店内', 'province': '陕西省', 'city': '西安市', 'area': '雁塔区', 'street_id': '22a629c14393c2e935b06c51', 'telephone': '(029)85761111', 'detail': 1, 'uid': '22a629c14393c2e935b06c51', 'detail_info': {'tag': '文化传媒;展览馆', 'navi_location': {'lng': 108.89289423917, 'lat': 34.216977830555}, 'type': 'scope', 'detail_url': 'http://api.map.baidu.com/place/detail?uid=22a629c14393c2e935b06c51&output=html&source=placeapi_v2', 'overall_rating': '0.0', 'children': [], 'lat': 34.212949248163, 'lng': 108.8818204242215}}"
"{'name': '万科高新华府展示中心', 'location': {'lat': 34.182109400986505, 'lng': 108.88065393555725}, 'address': '陕西省西安市雁塔区西沣路44号', 'province': '陕西省', 'city': '西安市', 'area': '雁塔区', 'detail': 1, 'uid': '9b638a6ae4aef6cc87420e33', 'detail_info': {'tag': '文化传媒;展览馆', 'type': 'enterprise', 'detail_url': 'http://api.map.baidu.com/place/detail?uid=9b638a6ae4aef6cc87420e33&output=html&source=placeapi_v2', 'overall_rating': '0.0', 'children': [], 'lat': 34.182109400986505, 'lng': 108.88065393555725}}"
"{'name': '西安绿地笔克国际会展中心-2号馆', 'location': {'lat': 34.19406473881089, 'lng': 108.8819586408456}, 'address': '唐延南路4号附近', 'province': '陕西省', 'city': '西安市', 'area': '雁塔区', 'street_id': 'd9d085589140592c9e9d680a', 'detail': 1, 'uid': 'd9d085589140592c9e9d680a', 'detail_info': {'tag': '文化传媒;展览馆', 'navi_location': {'lng': 108.8930161033, 'lat': 34.198496213042}, 'type': 'life', 'detail_url': 'http://api.map.baidu.com/place/detail?uid=d9d085589140592c9e9d680a&output=html&source=placeapi_v2', 'image_num': '1', 'children': [], 'lat': 34.19406473881089, 'lng': 108.8819586408456}}"
"{'name': '陕西宾馆18号楼-多功能厅', 'location': {'lat': 34.205478542814056, 'lng': 108.8679344629938}, 'address': '丈八北路1号', 'province': '陕西省', 'city': '西安市', 'area': '雁塔区', 'street_id': '3d1bd96b0ebfed3f3362125c', 'telephone': '(029)68899999', 'detail': 1, 'uid': '3d1bd96b0ebfed3f3362125c', 'detail_info': {'tag': '文化传媒;展览馆', 'navi_location': {'lng': 108.87898876722, 'lat': 34.209505887184}, 'type': 'scope', 'detail_url': 'http://api.map.baidu.com/place/detail?uid=3d1bd96b0ebfed3f3362125c&output=html&source=placeapi_v2', 'children': [], 'lat': 34.205478542814056, 'lng': 108.8679344629938}}"
"{'name': '一念微光', 'location': {'lat': 34.18481039662174, 'lng': 108.87780380987117}, 'address': '西安市雁塔区锦业二路与唐延南路交叉路口往西北约50米(逸翠·尚府北区)', 'province': '陕西省', 'city': '西安市', 'area': '雁塔区', 'detail': 1, 'uid': 'dcdd40b6dc8dbf16a2d23014', 'detail_info': {'tag': '美食;其他', 'type': 'cater', 'detail_url': 'http://api.map.baidu.com/place/detail?uid=dcdd40b6dc8dbf16a2d23014&output=html&source=placeapi_v2', 'overall_rating': '5.0', 'image_num': '1', 'comment_num': '2', 'children': [], 'lat': 34.18481039662174, 'lng': 108.87780380987117}}"
"{'name': '高新锦业美术馆', 'location': {'lat': 34.195084440065344, 'lng': 108.85260384526808}, 'address': '高新区锦业路76号', 'province': '陕西省', 'city': '西安市', 'area': '雁塔区', 'street_id': '4b9466a5d0c965a2a80dd874', 'detail': 1, 'uid': '4b9466a5d0c965a2a80dd874', 'detail_info': {'tag': '文化传媒;美术馆', 'navi_location': {'lng': 108.86353972972, 'lat': 34.199909152211}, 'type': 'scope', 'detail_url': 'http://api.map.baidu.com/place/detail?uid=4b9466a5d0c965a2a80dd874&output=html&source=placeapi_v2', 'overall_rating': '1.3', 'children': [], 'lat': 34.195084440065344, 'lng': 108.85260384526808}}"
"{'name': '淘乐比成长运动中心(科技八路店)', 'location': {'lat': 34.20800229759239, 'lng': 108.87997271574145}, 'address': '陕西省西安市雁塔区科技八路体育训练中心东门院内', 'province': '陕西省', 'city': '西安市', 'area': '雁塔区', 'street_id': '9b898529d0b15768c9fa5fa1', 'telephone': '(029)88816587', 'detail': 1, 'uid': '9b898529d0b15768c9fa5fa1', 'detail_info': {'tag': '教育培训;培训机构', 'type': 'education', 'detail_url': 'http://api.map.baidu.com/place/detail?uid=9b898529d0b15768c9fa5fa1&output=html&source=placeapi_v2', 'overall_rating': '5.0', 'comment_num': '5', 'children': [], 'lat': 34.20800229759239, 'lng': 108.87997271574145}}"
"{'name': '中兴产业园-I座', 'location': {'lat': 34.18728982847589, 'lng': 108.87643839600835}, 'address': '陕西省西安市雁塔区中兴产业园I座(丈八二路东)', 'province': '陕西省', 'city': '西安市', 'area': '雁塔区', 'street_id': 'd87cf5079f8d2a2a2e473378', 'detail': 1, 'uid': 'd87cf5079f8d2a2a2e473378', 'detail_info': {'tag': '公司企业;其他', 'type': 'enterprise', 'detail_url': 'http://api.map.baidu.com/place/detail?uid=d87cf5079f8d2a2a2e473378&output=html&source=placeapi_v2', 'overall_rating': '0.0', 'comment_num': '1', 'children': [], 'lat': 34.18728982847589, 'lng': 108.87643839600835}}"
"{'name': '研祥城市广场-接送点', 'location': {'lat': 34.192939291380156, 'lng': 108.86716227011716}, 'address': '研祥城市广场附近', 'province': '陕西省', 'city': '西安市', 'area': '雁塔区', 'detail': 1, 'uid': 'eb00a1ad68b1dbde07026f08', 'detail_info': {'tag': '交通设施;接送点', 'type': 'life', 'detail_url': 'http://api.map.baidu.com/place/detail?uid=eb00a1ad68b1dbde07026f08&output=html&source=placeapi_v2', 'image_num': '1', 'children': [], 'lat': 34.192939291380156, 'lng': 108.86716227011716}}"
"{'name': '王安中艺术馆', 'location': {'lat': 34.18577470834329, 'lng': 108.88106503116208}, 'address': '西安市雁塔区傅村东路与唐延南路交叉口东150米', 'province': '陕西省', 'city': '西安市', 'area': '雁塔区', 'street_id': '88bb64ff98d6d9fdc91b958f', 'detail': 1, 'uid': '88bb64ff98d6d9fdc91b958f', 'detail_info': {'tag': '文化传媒;美术馆', 'type': 'scope', 'detail_url': 'http://api.map.baidu.com/place/detail?uid=88bb64ff98d6d9fdc91b958f&output=html&source=placeapi_v2', 'children': [], 'lat': 34.18577470834329, 'lng': 108.88106503116208}}"
"{'name': '锦业时代B3座-接送点', 'location': {'lat': 34.19535894424415, 'lng': 108.87390156101193}, 'address': '锦业时代B3座附近', 'province': '陕西省', 'city': '西安市', 'area': '雁塔区', 'detail': 1, 'uid': '6466532cbed0c9c634b06c5b', 'detail_info': {'tag': '交通设施;接送点', 'type': 'life', 'detail_url': 'http://api.map.baidu.com/place/detail?uid=6466532cbed0c9c634b06c5b&output=html&source=placeapi_v2', 'image_num': '1', 'children': [], 'lat': 34.19535894424415, 'lng': 108.87390156101193}}"
"{'name': '中兴产业园-F座', 'location': {'lat': 34.187809686552164, 'lng': 108.87793398704265}, 'address': '西安市雁塔区傅村北路与傅东巷交叉路口西南侧(中兴产业园)', 'province': '陕西省', 'city': '西安市', 'area': '雁塔区', 'street_id': 'f4b042b068ff57996fa3ccd3', 'detail': 1, 'uid': 'f4b042b068ff57996fa3ccd3', 'detail_info': {'tag': '公司企业;其他', 'navi_location': {'lng': 108.88895057827, 'lat': 34.192245631835}, 'type': 'enterprise', 'detail_url': 'http://api.map.baidu.com/place/detail?uid=f4b042b068ff57996fa3ccd3&output=html&source=placeapi_v2', 'overall_rating': '0.0', 'comment_num': '1', 'children': [], 'lat': 34.187809686552164, 'lng': 108.87793398704265}}"
"{'name': '中关村e谷(西安)核芯空间-接送点', 'location': {'lat': 34.208066956809645, 'lng': 108.83204189556842}, 'address': '中关村e谷(西安)核芯空间附近', 'province': '陕西省', 'city': '西安市', 'area': '雁塔区', 'detail': 1, 'uid': '6b8422676107c199631c678c', 'detail_info': {'tag': '交通设施;接送点', 'type': 'life', 'detail_url': 'http://api.map.baidu.com/place/detail?uid=6b8422676107c199631c678c&output=html&source=placeapi_v2', 'image_num': '1', 'children': [], 'lat': 34.208066956809645, 'lng': 108.83204189556842}}"
"{'name': '卡乐咪国际儿童寓乐中心', 'location': {'lat': 34.183649425145795, 'lng': 108.87701673906464}, 'address': '西安市雁塔区唐延南路与锦业二路交叉口西150米', 'province': '陕西省', 'city': '西安市', 'area': '雁塔区', 'telephone': '15771909901', 'detail': 1, 'uid': 'dc5e08d943d82c57f03cba7a', 'detail_info': {'tag': '教育培训;培训机构', 'type': 'education', 'detail_url': 'http://api.map.baidu.com/place/detail?uid=dc5e08d943d82c57f03cba7a&output=html&source=placeapi_v2', 'children': [], 'lat': 34.183649425145795, 'lng': 108.87701673906464}}"
"{'name': '陕西宾馆18号楼-会见厅', 'location': {'lat': 34.205478542814056, 'lng': 108.8679344629938}, 'address': '丈八北路1号', 'province': '陕西省', 'city': '西安市', 'area': '雁塔区', 'street_id': '2ed62f0aca0f3185b11e360d', 'telephone': '(029)68899999', 'detail': 1, 'uid': '2ed62f0aca0f3185b11e360d', 'detail_info': {'tag': '酒店;其他', 'navi_location': {'lng': 108.87898876722, 'lat': 34.209505887184}, 'type': 'scope', 'detail_url': 'http://api.map.baidu.com/place/detail?uid=2ed62f0aca0f3185b11e360d&output=html&source=placeapi_v2', 'overall_rating': '5.0', 'children': [], 'lat': 34.205478542814056, 'lng': 108.8679344629938}}"
"{'name': '西安环普科技产业园e3座-接送点', 'location': {'lat': 34.20939912776093, 'lng': 108.83704105708212}, 'address': '西安环普科技产业园e3座附近', 'province': '陕西省', 'city': '西安市', 'area': '雁塔区', 'detail': 1, 'uid': '79b6c8f228abb63fc72ba138', 'detail_info': {'tag': '交通设施;接送点', 'type': 'life', 'detail_url': 'http://api.map.baidu.com/place/detail?uid=79b6c8f228abb63fc72ba138&output=html&source=placeapi_v2', 'image_num': '1', 'children': [], 'lat': 34.20939912776093, 'lng': 108.83704105708212}}"
"{'name': '锦业时代A1座-接送点', 'location': {'lat': 34.19432130981452, 'lng': 108.87100144521837}, 'address': '锦业时代A1座附近', 'province': '陕西省', 'city': '西安市', 'area': '雁塔区', 'detail': 1, 'uid': '67606360afe7558db8bd635e', 'detail_info': {'tag': '交通设施;接送点', 'type': 'life', 'detail_url': 'http://api.map.baidu.com/place/detail?uid=67606360afe7558db8bd635e&output=html&source=placeapi_v2', 'image_num': '1', 'children': [], 'lat': 34.19432130981452, 'lng': 108.87100144521837}}"
"{'name': '瞪羚谷-A座-接送点', 'location': {'lat': 34.19567154094895, 'lng': 108.8553794186961}, 'address': '瞪羚谷-A座附近', 'province': '陕西省', 'city': '西安市', 'area': '雁塔区', 'detail': 1, 'uid': 'db825db9c58182d978f796f7', 'detail_info': {'tag': '交通设施;接送点', 'type': 'life', 'detail_url': 'http://api.map.baidu.com/place/detail?uid=db825db9c58182d978f796f7&output=html&source=placeapi_v2', 'image_num': '1', 'children': [], 'lat': 34.19567154094895, 'lng': 108.8553794186961}}"
"{'name': '徐义生艺术馆', 'location': {'lat': 34.19510915783434, 'lng': 108.85271948217714}, 'address': '西安市雁塔区锦业路与丈八六路交叉路口往东南约50米(锦业76)', 'province': '陕西省', 'city': '西安市', 'area': '雁塔区', 'street_id': '5f5b3eaf4174176e0c0e6b96', 'detail': 1, 'uid': '5f5b3eaf4174176e0c0e6b96', 'detail_info': {'tag': '文化传媒;美术馆', 'type': 'scope', 'detail_url': 'http://api.map.baidu.com/place/detail?uid=5f5b3eaf4174176e0c0e6b96&output=html&source=placeapi_v2', 'overall_rating': '0.0', 'children': [], 'lat': 34.19510915783434, 'lng': 108.85271948217714}}"
"{'name': '中软国际西安科技园-接送点', 'location': {'lat': 34.209378256973025, 'lng': 108.83487084698274}, 'address': '中软国际西安科技园附近', 'province': '陕西省', 'city': '西安市', 'area': '雁塔区', 'detail': 1, 'uid': 'e535ec8599515fada11de911', 'detail_info': {'tag': '交通设施;接送点', 'type': 'life', 'detail_url': 'http://api.map.baidu.com/place/detail?uid=e535ec8599515fada11de911&output=html&source=placeapi_v2', 'image_num': '1', 'children': [], 'lat': 34.209378256973025, 'lng': 108.83487084698274}}"
"{'name': '汇鑫IBC-接送点', 'location': {'lat': 34.19877693421289, 'lng': 108.88003140285461}, 'address': '汇鑫IBC附近', 'province': '陕西省', 'city': '西安市', 'area': '雁塔区', 'detail': 1, 'uid': '5d1b941bd11bd726c036440b', 'detail_info': {'tag': '交通设施;接送点', 'type': 'life', 'detail_url': 'http://api.map.baidu.com/place/detail?uid=5d1b941bd11bd726c036440b&output=html&source=placeapi_v2', 'image_num': '1', 'children': [], 'lat': 34.19877693421289, 'lng': 108.88003140285461}}"
"{'name': '3D魔幻艺术体验画展(绿地笔克)', 'location': {'lat': 34.19340300006995, 'lng': 108.88291521365794}, 'address': '锦业一路3附近', 'province': '陕西省', 'city': '西安市', 'area': '雁塔区', 'detail': 1, 'uid': '235d936763319489e856fae6', 'detail_info': {'tag': '文化传媒;美术馆', 'type': 'life', 'detail_url': 'http://api.map.baidu.com/place/detail?uid=235d936763319489e856fae6&output=html&source=placeapi_v2', 'image_num': '1', 'children': [], 'lat': 34.19340300006995, 'lng': 108.88291521365794}}"
"{'name': '陕西丈八文化艺术馆', 'location': {'lat': 34.20048255149257, 'lng': 108.85040599905889}, 'address': '丈八南村9排3号', 'province': '陕西省', 'city': '西安市', 'area': '雁塔区', 'street_id': '08124879d48b71f26140a963', 'detail': 1, 'uid': '08124879d48b71f26140a963', 'detail_info': {'tag': '文化传媒;美术馆', 'navi_location': {'lng': 108.86144066462, 'lat': 34.205012449901}, 'type': 'scope', 'detail_url': 'http://api.map.baidu.com/place/detail?uid=08124879d48b71f26140a963&output=html&source=placeapi_v2', 'children': [], 'lat': 34.20048255149257, 'lng': 108.85040599905889}}"
"{'name': '崔振宽山水艺术馆', 'location': {'lat': 34.19510587414339, 'lng': 108.85263373620624}, 'address': '高新区锦业路76号', 'province': '陕西省', 'city': '西安市', 'area': '雁塔区', 'street_id': 'a3ebe8da07587f79afee7a15', 'detail': 1, 'uid': 'a3ebe8da07587f79afee7a15', 'detail_info': {'tag': '文化传媒;美术馆', 'navi_location': {'lng': 108.86361928096, 'lat': 34.199914256187}, 'type': 'scope', 'detail_url': 'http://api.map.baidu.com/place/detail?uid=a3ebe8da07587f79afee7a15&output=html&source=placeapi_v2', 'overall_rating': '0.0', 'children': [], 'lat': 34.19510587414339, 'lng': 108.85263373620624}}"
"{'name': '鱼化湖公园', 'location': {'lat': 34.23348128297292, 'lng': 108.86270750106065}, 'address': '外事学院南区北门内西50米', 'province': '陕西省', 'city': '西安市', 'area': '雁塔区', 'street_id': 'ae1cdccdcd8fdb6fb23c8188', 'telephone': '(029)88751007', 'detail': 1, 'uid': 'ae1cdccdcd8fdb6fb23c8188', 'detail_info': {'tag': '旅游景点;公园', 'navi_location': {'lng': 108.87505601444, 'lat': 34.23911681312}, 'type': 'scope', 'detail_url': 'http://api.map.baidu.com/place/detail?uid=ae1cdccdcd8fdb6fb23c8188&output=html&source=placeapi_v2', 'overall_rating': '3.4', 'comment_num': '7', 'children': [], 'lat': 34.23348128297292, 'lng': 108.86270750106065}}"
"{'name': '云水公园', 'location': {'lat': 34.215761199698754, 'lng': 108.83540701251091}, 'address': '西安市高新区云萃路', 'province': '陕西省', 'city': '西安市', 'area': '雁塔区', 'street_id': '6ccb87a451f19a27626858b9', 'detail': 1, 'uid': '6ccb87a451f19a27626858b9', 'detail_info': {'tag': '旅游景点;公园', 'navi_location': {'lng': 108.84644545646, 'lat': 34.219445358149}, 'type': 'scope', 'detail_url': 'http://api.map.baidu.com/place/detail?uid=6ccb87a451f19a27626858b9&output=html&source=placeapi_v2', 'overall_rating': '4.7', 'comment_num': '34', 'children': [], 'lat': 34.215761199698754, 'lng': 108.83540701251091}}"
"{'name': '鱼化工业园亲水公园', 'location': {'lat': 34.24285178179723, 'lng': 108.8336360348598}, 'address': '陕西省西安市雁塔区鱼跃路', 'province': '陕西省', 'city': '西安市', 'area': '雁塔区', 'detail': 1, 'uid': '6e22d8267dd611b4095cb38e', 'detail_info': {'tag': '旅游景点;公园', 'type': 'scope', 'detail_url': 'http://api.map.baidu.com/place/detail?uid=6e22d8267dd611b4095cb38e&output=html&source=placeapi_v2', 'overall_rating': '5.0', 'comment_num': '1', 'children': [], 'lat': 34.24285178179723, 'lng': 108.8336360348598}}"
"{'name': '西安高新国际会议中心', 'location': {'lat': 34.21690328283093, 'lng': 108.82952245303099}, 'address': '西安市软件新城天谷六路与云水一路十字西南角', 'province': '陕西省', 'city': '西安市', 'area': '雁塔区', 'telephone': '(029)89630000', 'detail': 1, 'uid': '46fc1abab4d16895bea2405d', 'detail_info': {'tag': '文化传媒;展览馆', 'navi_location': {'lng': 108.84082619258, 'lat': 34.222769204477}, 'type': 'enterprise', 'detail_url': 'http://api.map.baidu.com/place/detail?uid=46fc1abab4d16895bea2405d&output=html&source=placeapi_v2', 'overall_rating': '4.6', 'comment_num': '16', 'children': [], 'lat': 34.21690328283093, 'lng': 108.82952245303099}}"
"{'name': '雁塔区基督教景新礼拜堂', 'location': {'lat': 34.236316008311185, 'lng': 108.87304700279736}, 'address': '高新六路3号', 'province': '陕西省', 'city': '西安市', 'area': '雁塔区', 'street_id': 'b533ea4a3eba41414f6d466d', 'telephone': '(029)88385640', 'detail': 1, 'uid': 'b533ea4a3eba41414f6d466d', 'detail_info': {'tag': '旅游景点;教堂', 'navi_location': {'lng': 108.88382366935, 'lat': 34.240491553399}, 'type': 'scope', 'detail_url': 'http://api.map.baidu.com/place/detail?uid=b533ea4a3eba41414f6d466d&output=html&source=placeapi_v2', 'overall_rating': '4.4', 'comment_num': '5', 'children': [], 'lat': 34.236316008311185, 'lng': 108.87304700279736}}"
"{'name': '小懒熊儿童乐园', 'location': {'lat': 34.24697500832563, 'lng': 108.8725396201393}, 'address': '大寨路19号晶鑫商业广场A座二楼', 'province': '陕西省', 'city': '西安市', 'area': '雁塔区', 'telephone': '19909293983', 'detail': 1, 'uid': 'c8aa327c43e82e4cd9d89182', 'detail_info': {'tag': '旅游景点;游乐园', 'type': 'scope', 'detail_url': 'http://api.map.baidu.com/place/detail?uid=c8aa327c43e82e4cd9d89182&output=html&source=placeapi_v2', 'overall_rating': '4.5', 'comment_num': '11', 'children': [], 'lat': 34.24697500832563, 'lng': 108.8725396201393}}"
"{'name': '卡乐奇宝贝乐园', 'location': {'lat': 34.24460896847956, 'lng': 108.8749397423601}, 'address': '响塘村路与德兴巷交叉口东100米', 'province': '陕西省', 'city': '西安市', 'area': '雁塔区', 'detail': 1, 'uid': 'c3a8e6254852a2eb31870a54', 'detail_info': {'tag': '旅游景点;游乐园', 'type': 'scope', 'detail_url': 'http://api.map.baidu.com/place/detail?uid=c3a8e6254852a2eb31870a54&output=html&source=placeapi_v2', 'children': [], 'lat': 34.24460896847956, 'lng': 108.8749397423601}}"
"{'name': '鱼化寨遗址', 'location': {'lat': 34.24143925350316, 'lng': 108.85306702161422}, 'address': '创新路与海纳西路交叉口西北100米', 'province': '陕西省', 'city': '西安市', 'area': '雁塔区', 'detail': 1, 'uid': '7ff7d581e33209313fe2312e', 'detail_info': {'tag': '旅游景点;文物古迹', 'type': 'scope', 'detail_url': 'http://api.map.baidu.com/place/detail?uid=7ff7d581e33209313fe2312e&output=html&source=placeapi_v2', 'children': [], 'lat': 34.24143925350316, 'lng': 108.85306702161422}}"
"{'name': '乐翻天旅行', 'location': {'lat': 34.243325337881785, 'lng': 108.84008111927974}, 'address': '陕西省西安市雁塔区纬一路', 'province': '陕西省', 'city': '西安市', 'area': '雁塔区', 'detail': 1, 'uid': 'd1b0d43c59ed981e4207c19d', 'detail_info': {'tag': '旅游景点;游乐园', 'type': 'scope', 'detail_url': 'http://api.map.baidu.com/place/detail?uid=d1b0d43c59ed981e4207c19d&output=html&source=placeapi_v2', 'overall_rating': '3.0', 'comment_num': '1', 'children': [], 'lat': 34.243325337881785, 'lng': 108.84008111927974}}"
"{'name': '七星城展示中心', 'location': {'lat': 34.23961066623378, 'lng': 108.84931819224558}, 'address': '皂河与科技西路交叉口东50米', 'province': '陕西省', 'city': '西安市', 'area': '雁塔区', 'street_id': '25969ff1cc92373b28d7abc2', 'detail': 1, 'uid': '25969ff1cc92373b28d7abc2', 'detail_info': {'tag': '文化传媒;展览馆', 'type': 'enterprise', 'detail_url': 'http://api.map.baidu.com/place/detail?uid=25969ff1cc92373b28d7abc2&output=html&source=placeapi_v2', 'children': [], 'lat': 34.23961066623378, 'lng': 108.84931819224558}}"
"{'name': '西安市雁塔区鱼化基督教堂', 'location': {'lat': 34.23367260739916, 'lng': 108.8534071373762}, 'address': '陕西省西安市雁塔区鱼化寨街道小海豚幼儿园', 'province': '陕西省', 'city': '西安市', 'area': '雁塔区', 'street_id': '18db1fbd50efb26a6cc02c29', 'detail': 1, 'uid': '18db1fbd50efb26a6cc02c29', 'detail_info': {'tag': '旅游景点;教堂', 'type': 'scope', 'detail_url': 'http://api.map.baidu.com/place/detail?uid=18db1fbd50efb26a6cc02c29&output=html&source=placeapi_v2', 'children': [], 'lat': 34.23367260739916, 'lng': 108.8534071373762}}"
"{'name': '高新六路基督教礼拜堂', 'location': {'lat': 34.236277868682684, 'lng': 108.87280008811601}, 'address': '陕西省西安市雁塔区高新六路3号附近', 'province': '陕西省', 'city': '西安市', 'area': '雁塔区', 'detail': 1, 'uid': '59180b2c11b48f76c6effb60', 'detail_info': {'tag': '旅游景点;教堂', 'type': 'scope', 'detail_url': 'http://api.map.baidu.com/place/detail?uid=59180b2c11b48f76c6effb60&output=html&source=placeapi_v2', 'children': [], 'lat': 34.236277868682684, 'lng': 108.87280008811601}}"
"{'name': '天朗森柏大酒店-丽晶多功能厅', 'location': {'lat': 34.23772682115857, 'lng': 108.86722070849349}, 'address': '丈八北路380号天朗森柏大酒店3层', 'province': '陕西省', 'city': '西安市', 'area': '雁塔区', 'street_id': 'e09ab9a693f4233cf8221395', 'telephone': '(029)84118888', 'detail': 1, 'uid': 'e09ab9a693f4233cf8221395', 'detail_info': {'tag': '文化传媒;展览馆', 'type': 'life', 'detail_url': 'http://api.map.baidu.com/place/detail?uid=e09ab9a693f4233cf8221395&output=html&source=placeapi_v2', 'image_num': '1', 'children': [], 'lat': 34.23772682115857, 'lng': 108.86722070849349}}"
"{'name': '蝴蝶广场', 'location': {'lat': 34.21890237821377, 'lng': 108.86203256371003}, 'address': '鸿基新城祥园内', 'province': '陕西省', 'city': '西安市', 'area': '雁塔区', 'detail': 1, 'uid': '7a73fcb3fafa43ccf7b916fe', 'detail_info': {'tag': '休闲娱乐;休闲广场', 'type': 'life', 'detail_url': 'http://api.map.baidu.com/place/detail?uid=7a73fcb3fafa43ccf7b916fe&output=html&source=placeapi_v2', 'image_num': '1', 'children': [], 'lat': 34.21890237821377, 'lng': 108.86203256371003}}"
"{'name': '优诺儿童乐园', 'location': {'lat': 34.22001005084604, 'lng': 108.86270390332041}, 'address': '西安市雁塔区丈八北路鸿基新城29幢10104', 'province': '陕西省', 'city': '西安市', 'area': '雁塔区', 'street_id': '8c94871961c99e233a04b115', 'detail': 1, 'uid': '8c94871961c99e233a04b115', 'detail_info': {'tag': '旅游景点;游乐园', 'type': 'scope', 'detail_url': 'http://api.map.baidu.com/place/detail?uid=8c94871961c99e233a04b115&output=html&source=placeapi_v2', 'children': [], 'lat': 34.22001005084604, 'lng': 108.86270390332041}}"
"{'name': '西安盛世古韵文化博物馆有限公司', 'location': {'lat': 34.233720209633645, 'lng': 108.87637555752968}, 'address': '陕西省西安市雁塔区团结南路10号', 'province': '陕西省', 'city': '西安市', 'area': '雁塔区', 'detail': 1, 'uid': 'ca8a3fb17ad4d8d930621292', 'detail_info': {'tag': '旅游景点;博物馆', 'type': 'scope', 'detail_url': 'http://api.map.baidu.com/place/detail?uid=ca8a3fb17ad4d8d930621292&output=html&source=placeapi_v2', 'children': [], 'lat': 34.233720209633645, 'lng': 108.87637555752968}}"
"{'name': '鱼化会议中心', 'location': {'lat': 34.234202615259505, 'lng': 108.85663920341868}, 'address': '鱼化街54', 'province': '陕西省', 'city': '西安市', 'area': '雁塔区', 'street_id': 'e0a3d6186d0f760c734b8765', 'detail': 1, 'uid': 'e0a3d6186d0f760c734b8765', 'detail_info': {'tag': '文化传媒;展览馆', 'type': 'scope', 'detail_url': 'http://api.map.baidu.com/place/detail?uid=e0a3d6186d0f760c734b8765&output=html&source=placeapi_v2', 'overall_rating': '0.0', 'children': [], 'lat': 34.234202615259505, 'lng': 108.85663920341868}}"
"{'name': '金佛寺', 'location': {'lat': 34.217003550785996, 'lng': 108.8264208081007}, 'address': '鱼化寨街道鱼斗路周宋小学南200米', 'province': '陕西省', 'city': '西安市', 'area': '雁塔区', 'street_id': 'bc95d9e98bd044b64054d757', 'detail': 1, 'uid': 'bc95d9e98bd044b64054d757', 'detail_info': {'tag': '旅游景点;寺庙', 'type': 'scope', 'detail_url': 'http://api.map.baidu.com/place/detail?uid=bc95d9e98bd044b64054d757&output=html&source=placeapi_v2', 'overall_rating': '2.0', 'comment_num': '2', 'children': [], 'lat': 34.217003550785996, 'lng': 108.8264208081007}}"
"{'name': '响塘广场', 'location': {'lat': 34.2446076702414, 'lng': 108.87679301106175}, 'address': '西安市雁塔区团结南路与德兴巷交叉口', 'province': '陕西省', 'city': '西安市', 'area': '雁塔区', 'street_id': 'c7a3fc4f3be2fa3a40d63e35', 'telephone': '(029)88777598', 'detail': 1, 'uid': 'c7a3fc4f3be2fa3a40d63e35', 'detail_info': {'tag': '房地产;其他', 'navi_location': {'lng': 108.88836288076, 'lat': 34.249067673892}, 'type': 'house', 'detail_url': 'http://api.map.baidu.com/place/detail?uid=c7a3fc4f3be2fa3a40d63e35&output=html&source=placeapi_v2', 'children': [], 'lat': 34.2446076702414, 'lng': 108.87679301106175}}"
"{'name': '西安光电园-B座', 'location': {'lat': 34.228526383913746, 'lng': 108.87029867918113}, 'address': '西安市科技二路', 'province': '陕西省', 'city': '西安市', 'area': '雁塔区', 'street_id': '7716534044bbbe5782a12e95', 'detail': 1, 'uid': '7716534044bbbe5782a12e95', 'detail_info': {'tag': '公司企业;其他', 'navi_location': {'lng': 108.88139942305, 'lat': 34.231643743813}, 'type': 'enterprise', 'detail_url': 'http://api.map.baidu.com/place/detail?uid=7716534044bbbe5782a12e95&output=html&source=placeapi_v2', 'overall_rating': '3.0', 'comment_num': '1', 'children': [], 'lat': 34.228526383913746, 'lng': 108.87029867918113}}"
"{'name': '数字大厦(科技五路)-接送点', 'location': {'lat': 34.21809173424789, 'lng': 108.88194470071977}, 'address': '数字大厦(科技五路)附近', 'province': '陕西省', 'city': '西安市', 'area': '雁塔区', 'street_id': '038d2cfcd28967152e47339c', 'detail': 1, 'uid': '038d2cfcd28967152e47339c', 'detail_info': {'tag': '交通设施;接送点', 'type': 'house', 'detail_url': 'http://api.map.baidu.com/place/detail?uid=038d2cfcd28967152e47339c&output=html&source=placeapi_v2', 'children': [], 'lat': 34.21809173424789, 'lng': 108.88194470071977}}"
"{'name': '蓝溪美术馆', 'location': {'lat': 34.22837300188392, 'lng': 108.88033793575917}, 'address': '清华科技园(科技二路)4号楼', 'province': '陕西省', 'city': '西安市', 'area': '雁塔区', 'detail': 1, 'uid': '8b2dcaf8c81fc34dc92915eb', 'detail_info': {'tag': '文化传媒;美术馆', 'type': 'enterprise', 'detail_url': 'http://api.map.baidu.com/place/detail?uid=8b2dcaf8c81fc34dc92915eb&output=html&source=placeapi_v2', 'overall_rating': '0.0', 'comment_num': '1', 'children': [], 'lat': 34.22837300188392, 'lng': 108.88033793575917}}"
"{'name': '美墅·Beautiful House', 'location': {'lat': 34.22978775046709, 'lng': 108.8778668977527}, 'address': '科技一路美墅BeautifulHouse', 'province': '陕西省', 'city': '西安市', 'area': '雁塔区', 'telephone': '(029)88879966', 'detail': 1, 'uid': '97d927d50f3314e451e5c57f', 'detail_info': {'tag': '房地产;其他', 'type': 'house', 'detail_url': 'http://api.map.baidu.com/place/detail?uid=97d927d50f3314e451e5c57f&output=html&source=placeapi_v2', 'children': [], 'lat': 34.22978775046709, 'lng': 108.8778668977527}}"
"{'name': '高科园林', 'location': {'lat': 34.226235791477336, 'lng': 108.8801722124434}, 'address': '陕西省西安市雁塔区科技二路62号西安高科产业园B座三层', 'province': '陕西省', 'city': '西安市', 'area': '雁塔区', 'street_id': '948a0852268ffe19d8131818', 'detail': 1, 'uid': '948a0852268ffe19d8131818', 'detail_info': {'tag': '公司企业;农林园艺', 'type': 'enterprise', 'detail_url': 'http://api.map.baidu.com/place/detail?uid=948a0852268ffe19d8131818&output=html&source=placeapi_v2', 'children': [], 'lat': 34.226235791477336, 'lng': 108.8801722124434}}"
"{'name': '巨安大厦-B座-接送点', 'location': {'lat': 34.2243057946608, 'lng': 108.88113264113889}, 'address': '巨安大厦-B座附近', 'province': '陕西省', 'city': '西安市', 'area': '雁塔区', 'detail': 1, 'uid': 'b4383cd674c18098ee74f876', 'detail_info': {'tag': '交通设施;接送点', 'type': 'house', 'detail_url': 'http://api.map.baidu.com/place/detail?uid=b4383cd674c18098ee74f876&output=html&source=placeapi_v2', 'children': [], 'lat': 34.2243057946608, 'lng': 108.88113264113889}}"
"{'name': '关帝庙', 'location': {'lat': 34.23461228311016, 'lng': 108.85486647805293}, 'address': '鱼斗路169号', 'province': '陕西省', 'city': '西安市', 'area': '雁塔区', 'street_id': '9d15eab68b41708711882478', 'detail': 1, 'uid': '9d15eab68b41708711882478', 'detail_info': {'tag': '旅游景点;寺庙', 'type': 'scope', 'detail_url': 'http://api.map.baidu.com/place/detail?uid=9d15eab68b41708711882478&output=html&source=placeapi_v2', 'overall_rating': '1.0', 'comment_num': '1', 'children': [], 'lat': 34.23461228311016, 'lng': 108.85486647805293}}"
"{'name': '易道郡·玫瑰公馆-二期-接送点', 'location': {'lat': 34.22159294369059, 'lng': 108.86530037247546}, 'address': '易道郡·玫瑰公馆-二期附近', 'province': '陕西省', 'city': '西安市', 'area': '雁塔区', 'detail': 1, 'uid': '4c8b5a00827c3c32fbf0cba7', 'detail_info': {'tag': '交通设施;接送点', 'type': 'life', 'detail_url': 'http://api.map.baidu.com/place/detail?uid=4c8b5a00827c3c32fbf0cba7&output=html&source=placeapi_v2', 'image_num': '1', 'children': [], 'lat': 34.22159294369059, 'lng': 108.86530037247546}}"
"{'name': '西格玛大厦-接送点', 'location': {'lat': 34.224308193172725, 'lng': 108.88234856996911}, 'address': '西格玛大厦附近', 'province': '陕西省', 'city': '西安市', 'area': '雁塔区', 'detail': 1, 'uid': 'f1462bfea333584dc16c147b', 'detail_info': {'tag': '交通设施;接送点', 'type': 'life', 'detail_url': 'http://api.map.baidu.com/place/detail?uid=f1462bfea333584dc16c147b&output=html&source=placeapi_v2', 'image_num': '1', 'children': [], 'lat': 34.224308193172725, 'lng': 108.88234856996911}}"
"{'name': '摩尔中心-A座-接送点', 'location': {'lat': 34.21684345787082, 'lng': 108.88127690898165}, 'address': '摩尔中心-A座附近', 'province': '陕西省', 'city': '西安市', 'area': '雁塔区', 'detail': 1, 'uid': '7d45d3217c8c6fea5b10939e', 'detail_info': {'tag': '交通设施;接送点', 'type': 'life', 'detail_url': 'http://api.map.baidu.com/place/detail?uid=7d45d3217c8c6fea5b10939e&output=html&source=placeapi_v2', 'image_num': '1', 'children': [], 'lat': 34.21684345787082, 'lng': 108.88127690898165}}"
"{'name': '西安美术城', 'location': {'lat': 34.24611868660499, 'lng': 108.88292650843056}, 'address': '丈八沟街道中华世纪城东门商住楼三层', 'province': '陕西省', 'city': '西安市', 'area': '雁塔区', 'detail': 1, 'uid': '8f8ae6f5506cbca26fa3cc4b', 'detail_info': {'tag': '文化传媒;美术馆', 'type': 'life', 'detail_url': 'http://api.map.baidu.com/place/detail?uid=8f8ae6f5506cbca26fa3cc4b&output=html&source=placeapi_v2', 'image_num': '1', 'children': [], 'lat': 34.24611868660499, 'lng': 108.88292650843056}}"
"{'name': '西安软件园-秦风阁-接送点', 'location': {'lat': 34.22716502812028, 'lng': 108.87823015480723}, 'address': '西安软件园-秦风阁附近', 'province': '陕西省', 'city': '西安市', 'area': '雁塔区', 'detail': 1, 'uid': 'a89a778cb3a86ca981a12ea9', 'detail_info': {'tag': '交通设施;接送点', 'type': 'life', 'detail_url': 'http://api.map.baidu.com/place/detail?uid=a89a778cb3a86ca981a12ea9&output=html&source=placeapi_v2', 'image_num': '1', 'children': [], 'lat': 34.22716502812028, 'lng': 108.87823015480723}}"
"{'name': '龙定寺', 'location': {'lat': 34.2362144186403, 'lng': 108.85806903648727}, 'address': '鱼斗路西安市雁塔区童乐幼儿园附近', 'province': '陕西省', 'city': '西安市', 'area': '雁塔区', 'street_id': '23262d492543a33fc6effb35', 'detail': 1, 'uid': '23262d492543a33fc6effb35', 'detail_info': {'tag': '旅游景点;寺庙', 'type': 'scope', 'detail_url': 'http://api.map.baidu.com/place/detail?uid=23262d492543a33fc6effb35&output=html&source=placeapi_v2', 'overall_rating': '0.0', 'children': [], 'lat': 34.2362144186403, 'lng': 108.85806903648727}}"
"{'name': '东辛庄社区-接送点', 'location': {'lat': 34.23502000191218, 'lng': 108.87266652584336}, 'address': '东辛庄社区附近', 'province': '陕西省', 'city': '西安市', 'area': '雁塔区', 'detail': 1, 'uid': '18646bb99d811419ed74f897', 'detail_info': {'tag': '交通设施;接送点', 'type': 'life', 'detail_url': 'http://api.map.baidu.com/place/detail?uid=18646bb99d811419ed74f897&output=html&source=placeapi_v2', 'image_num': '1', 'children': [], 'lat': 34.23502000191218, 'lng': 108.87266652584336}}"
"{'name': '立人科技园-C座-接送点', 'location': {'lat': 34.22010983574746, 'lng': 108.87257829890643}, 'address': '立人科技园-C座附近', 'province': '陕西省', 'city': '西安市', 'area': '雁塔区', 'detail': 1, 'uid': 'f4d5f24d8ccb1b16e115f99a', 'detail_info': {'tag': '交通设施;接送点', 'type': 'house', 'detail_url': 'http://api.map.baidu.com/place/detail?uid=f4d5f24d8ccb1b16e115f99a&output=html&source=placeapi_v2', 'children': [], 'lat': 34.22010983574746, 'lng': 108.87257829890643}}"
"{'name': '摩尔中心-接送点', 'location': {'lat': 34.21683423139941, 'lng': 108.88077266165179}, 'address': '摩尔中心附近', 'province': '陕西省', 'city': '西安市', 'area': '雁塔区', 'detail': 1, 'uid': '8ec644efe05789aaf2193739', 'detail_info': {'tag': '交通设施;接送点', 'type': 'life', 'detail_url': 'http://api.map.baidu.com/place/detail?uid=8ec644efe05789aaf2193739&output=html&source=placeapi_v2', 'image_num': '1', 'children': [], 'lat': 34.21683423139941, 'lng': 108.88077266165179}}"
"{'name': '西安中晶科技广场-接送点', 'location': {'lat': 34.23167717931994, 'lng': 108.87739550011514}, 'address': '西安中晶科技广场附近', 'province': '陕西省', 'city': '西安市', 'area': '雁塔区', 'detail': 1, 'uid': '6f5905c806329330e81e9793', 'detail_info': {'tag': '交通设施;接送点', 'type': 'life', 'detail_url': 'http://api.map.baidu.com/place/detail?uid=6f5905c806329330e81e9793&output=html&source=placeapi_v2', 'image_num': '1', 'children': [], 'lat': 34.23167717931994, 'lng': 108.87739550011514}}"
"{'name': '和发智能大厦-B座-接送点', 'location': {'lat': 34.21814447455066, 'lng': 108.87374953372131}, 'address': '和发智能大厦-B座附近', 'province': '陕西省', 'city': '西安市', 'area': '雁塔区', 'detail': 1, 'uid': 'b7c0757db695de638d772719', 'detail_info': {'tag': '交通设施;接送点', 'type': 'house', 'detail_url': 'http://api.map.baidu.com/place/detail?uid=b7c0757db695de638d772719&output=html&source=placeapi_v2', 'children': [], 'lat': 34.21814447455066, 'lng': 108.87374953372131}}"
"{'name': '古琴茶艺插花禅韵琴社(高新店)', 'location': {'lat': 34.24394958789095, 'lng': 108.88013079571284}, 'address': '沣惠南路中华世纪城D区1号楼1单元301室', 'province': '陕西省', 'city': '西安市', 'area': '雁塔区', 'street_id': '085957fa9a78eac3cb213dc4', 'telephone': '13991961775,13571933030', 'detail': 1, 'uid': '085957fa9a78eac3cb213dc4', 'detail_info': {'tag': '文化传媒;美术馆', 'type': 'life', 'detail_url': 'http://api.map.baidu.com/place/detail?uid=085957fa9a78eac3cb213dc4&output=html&source=placeapi_v2', 'image_num': '1', 'children': [], 'lat': 34.24394958789095, 'lng': 108.88013079571284}}"
"{'name': '卫斯塔国际儿童艺术馆', 'location': {'lat': 34.227785844711065, 'lng': 108.86610403100838}, 'address': '丈八北路与科技二路龙城铭园二期22号楼1单元2层', 'province': '陕西省', 'city': '西安市', 'area': '雁塔区', 'detail': 1, 'uid': 'cf206a51dba4e0c12a02e104', 'detail_info': {'tag': '文化传媒;美术馆', 'type': 'enterprise', 'detail_url': 'http://api.map.baidu.com/place/detail?uid=cf206a51dba4e0c12a02e104&output=html&source=placeapi_v2', 'overall_rating': '4.5', 'comment_num': '2', 'children': [], 'lat': 34.227785844711065, 'lng': 108.86610403100838}}"
"{'name': '西安光电园-接送点', 'location': {'lat': 34.22737343364077, 'lng': 108.87027411030924}, 'address': '西安光电园附近', 'province': '陕西省', 'city': '西安市', 'area': '雁塔区', 'detail': 1, 'uid': '658849f084946cee9d95deb5', 'detail_info': {'tag': '交通设施;接送点', 'type': 'life', 'detail_url': 'http://api.map.baidu.com/place/detail?uid=658849f084946cee9d95deb5&output=html&source=placeapi_v2', 'image_num': '1', 'children': [], 'lat': 34.22737343364077, 'lng': 108.87027411030924}}"
"{'name': '杨记·福兴农场', 'location': {'lat': 34.22000961781832, 'lng': 108.86114162262831}, 'address': '陕西省西安市雁塔区丈八北路206号', 'province': '陕西省', 'city': '西安市', 'area': '雁塔区', 'detail': 1, 'uid': '143acf93be3452a8dad89118', 'detail_info': {'tag': '公司企业;农林园艺', 'type': 'enterprise', 'detail_url': 'http://api.map.baidu.com/place/detail?uid=143acf93be3452a8dad89118&output=html&source=placeapi_v2', 'children': [], 'lat': 34.22000961781832, 'lng': 108.86114162262831}}"
"{'name': '革命根据地', 'location': {'lat': 34.22102365086479, 'lng': 108.87591935537468}, 'address': '陕西省西安市雁塔区科技四路', 'province': '陕西省', 'city': '西安市', 'area': '雁塔区', 'detail': 1, 'uid': 'c01264ed9bb9f0afa01de9c9', 'detail_info': {'tag': '美食;中餐厅', 'type': 'cater', 'detail_url': 'http://api.map.baidu.com/place/detail?uid=c01264ed9bb9f0afa01de9c9&output=html&source=placeapi_v2', 'children': [], 'lat': 34.22102365086479, 'lng': 108.87591935537468}}"
"{'name': '上天台遗址', 'location': {'lat': 34.266929238314724, 'lng': 108.82456635066929}, 'address': '三桥天台路A15号西部车城向南1000米', 'province': '陕西省', 'city': '西安市', 'area': '未央区', 'street_id': 'b533ea4a8dcfec584e6d46f1', 'detail': 1, 'uid': 'b533ea4a8dcfec584e6d46f1', 'detail_info': {'tag': '旅游景点;文物古迹', 'navi_location': {'lng': 108.83678154597, 'lat': 34.2717992362}, 'type': 'scope', 'detail_url': 'http://api.map.baidu.com/place/detail?uid=b533ea4a8dcfec584e6d46f1&output=html&source=placeapi_v2', 'overall_rating': '4.3', 'comment_num': '17', 'children': [], 'lat': 34.266929238314724, 'lng': 108.82456635066929}}"
"{'name': '红光公园', 'location': {'lat': 34.2646857258962, 'lng': 108.83692095825229}, 'address': '陕西省西安市未央区西三环', 'province': '陕西省', 'city': '西安市', 'area': '未央区', 'street_id': '195c23ba31b5d404c42ba1e9', 'detail': 1, 'uid': '195c23ba31b5d404c42ba1e9', 'detail_info': {'tag': '旅游景点;公园', 'navi_location': {'lng': 108.84670498141, 'lat': 34.269586487322}, 'type': 'scope', 'detail_url': 'http://api.map.baidu.com/place/detail?uid=195c23ba31b5d404c42ba1e9&output=html&source=placeapi_v2', 'overall_rating': '3.9', 'comment_num': '22', 'children': [], 'lat': 34.2646857258962, 'lng': 108.83692095825229}}"
"{'name': '土门小树林公园', 'location': {'lat': 34.266159544947364, 'lng': 108.87756945808077}, 'address': '西安市莲湖区团结北路43号翡丽城西侧3号楼1212室', 'province': '陕西省', 'city': '西安市', 'area': '莲湖区', 'street_id': '65fe94544b2880204c6d46f6', 'detail': 1, 'uid': '65fe94544b2880204c6d46f6', 'detail_info': {'tag': '旅游景点;公园', 'navi_location': {'lng': 108.88910428014, 'lat': 34.270339142381}, 'type': 'scope', 'detail_url': 'http://api.map.baidu.com/place/detail?uid=65fe94544b2880204c6d46f6&output=html&source=placeapi_v2', 'overall_rating': '1.0', 'comment_num': '2', 'children': [], 'lat': 34.266159544947364, 'lng': 108.87756945808077}}"
"{'name': '丝路群雕', 'location': {'lat': 34.27091478090447, 'lng': 108.87694703904324}, 'address': '西安市莲湖区大庆路579号', 'province': '陕西省', 'city': '西安市', 'area': '莲湖区', 'street_id': '3be122e1185192521ef74d4e', 'detail': 1, 'uid': '3be122e1185192521ef74d4e', 'detail_info': {'tag': '旅游景点;文物古迹', 'navi_location': {'lng': 108.88885486472, 'lat': 34.275038084792}, 'type': 'scope', 'detail_url': 'http://api.map.baidu.com/place/detail?uid=3be122e1185192521ef74d4e&output=html&source=placeapi_v2', 'overall_rating': '4.0', 'comment_num': '52', 'children': [], 'lat': 34.27091478090447, 'lng': 108.87694703904324}}"
"{'name': '茂林圣地', 'location': {'lat': 34.270227500162115, 'lng': 108.82819019711147}, 'address': '陕西省西安市未央区阿房一路49号西80米', 'province': '陕西省', 'city': '西安市', 'area': '未央区', 'detail': 1, 'uid': 'c94f9ae045bdcfdbf822137f', 'detail_info': {'tag': '旅游景点', 'type': 'scope', 'detail_url': 'http://api.map.baidu.com/place/detail?uid=c94f9ae045bdcfdbf822137f&output=html&source=placeapi_v2', 'children': [], 'lat': 34.270227500162115, 'lng': 108.82819019711147}}"
"{'name': '风水宫', 'location': {'lat': 34.24871338304179, 'lng': 108.86590306053678}, 'address': '西安市雁塔区秦美花卉市场南排15号', 'province': '陕西省', 'city': '西安市', 'area': '雁塔区', 'telephone': '13201476345,13474687753', 'detail': 1, 'uid': '0ec13914345c8320f8dc8535', 'detail_info': {'tag': '旅游景点;风景区', 'type': 'scope', 'detail_url': 'http://api.map.baidu.com/place/detail?uid=0ec13914345c8320f8dc8535&output=html&source=placeapi_v2', 'children': [], 'lat': 34.24871338304179, 'lng': 108.86590306053678}}"
"{'name': '弘德园', 'location': {'lat': 34.27423638791343, 'lng': 108.82588101432974}, 'address': '南区西路6号附近', 'province': '陕西省', 'city': '西安市', 'area': '未央区', 'street_id': 'bf29b702dd67ebe409b93a3c', 'detail': 1, 'uid': 'bf29b702dd67ebe409b93a3c', 'detail_info': {'tag': '旅游景点;景点', 'navi_location': {'lng': 108.83683721845, 'lat': 34.279505026166}, 'type': 'scope', 'detail_url': 'http://api.map.baidu.com/place/detail?uid=bf29b702dd67ebe409b93a3c&output=html&source=placeapi_v2', 'children': [], 'lat': 34.27423638791343, 'lng': 108.82588101432974}}"
"{'name': '百般雕难', 'location': {'lat': 34.24959268854346, 'lng': 108.82710511052593}, 'address': '西安市未央区', 'province': '陕西省', 'city': '西安市', 'area': '未央区', 'detail': 1, 'uid': '6759a82d755b2328430245a6', 'detail_info': {'tag': '旅游景点;景点', 'type': 'scope', 'detail_url': 'http://api.map.baidu.com/place/detail?uid=6759a82d755b2328430245a6&output=html&source=placeapi_v2', 'children': [], 'lat': 34.24959268854346, 'lng': 108.82710511052593}}"
"{'name': '龙潭水景', 'location': {'lat': 34.248832825354434, 'lng': 108.86560152009602}, 'address': '昆明池路东100米', 'province': '陕西省', 'city': '西安市', 'area': '雁塔区', 'street_id': '196793d086bf187879dbd24f', 'telephone': '15129007969,18220581528', 'detail': 1, 'uid': '196793d086bf187879dbd24f', 'detail_info': {'tag': '旅游景点;公园', 'type': 'scope', 'detail_url': 'http://api.map.baidu.com/place/detail?uid=196793d086bf187879dbd24f&output=html&source=placeapi_v2', 'children': [], 'lat': 34.248832825354434, 'lng': 108.86560152009602}}"
"{'name': '鲲鹏展翅', 'location': {'lat': 34.24689593695063, 'lng': 108.83958904001496}, 'address': '陕西省西安市雁塔区大寨路', 'province': '陕西省', 'city': '西安市', 'area': '雁塔区', 'detail': 1, 'uid': '35e88603e10813d7f33cba85', 'detail_info': {'tag': '旅游景点;景点', 'type': 'scope', 'detail_url': 'http://api.map.baidu.com/place/detail?uid=35e88603e10813d7f33cba85&output=html&source=placeapi_v2', 'image_num': '1', 'children': [], 'lat': 34.24689593695063, 'lng': 108.83958904001496}}"
"{'name': '百力格蒙古风情园', 'location': {'lat': 34.260651210755455, 'lng': 108.85458250426035}, 'address': '莲湖区红光路58号西安钢铁厂院内', 'province': '陕西省', 'city': '西安市', 'area': '莲湖区', 'detail': 1, 'uid': '6e29ee71a851dcc430f71d9b', 'detail_info': {'tag': '旅游景点;其他', 'type': 'cater', 'detail_url': 'http://api.map.baidu.com/place/detail?uid=6e29ee71a851dcc430f71d9b&output=html&source=placeapi_v2', 'image_num': '1', 'children': [], 'lat': 34.260651210755455, 'lng': 108.85458250426035}}"
"{'name': '油饼', 'location': {'lat': 34.274358863898875, 'lng': 108.85115545748178}, 'address': '丰盛路23号附近', 'province': '陕西省', 'city': '西安市', 'area': '莲湖区', 'street_id': '3a0a129925d71301df1e52c0', 'detail': 1, 'uid': '3a0a129925d71301df1e52c0', 'detail_info': {'tag': '旅游景点;景点', 'type': 'scope', 'detail_url': 'http://api.map.baidu.com/place/detail?uid=3a0a129925d71301df1e52c0&output=html&source=placeapi_v2', 'children': [], 'lat': 34.274358863898875, 'lng': 108.85115545748178}}"
"{'name': '趣味沙滩(华东·万锦城购物中心店)', 'location': {'lat': 34.26200520396331, 'lng': 108.86663004484318}, 'address': '西安市莲湖区汉城南路100号华东·万锦城购物中心F3', 'province': '陕西省', 'city': '西安市', 'area': '莲湖区', 'street_id': 'd3be49736112d1ecae04573a', 'detail': 1, 'uid': 'd3be49736112d1ecae04573a', 'detail_info': {'tag': '旅游景点;海滨浴场', 'indoor_floor': 'F3', 'type': 'scope', 'detail_url': 'http://api.map.baidu.com/place/detail?uid=d3be49736112d1ecae04573a&output=html&source=placeapi_v2', 'children': [], 'lat': 34.26200520396331, 'lng': 108.86663004484318}}"
"{'name': '考拉大冒险儿童成长主题乐园', 'location': {'lat': 34.26661447982476, 'lng': 108.87890864022191}, 'address': '西安市莲湖区团结中路45号附近', 'province': '陕西省', 'city': '西安市', 'area': '莲湖区', 'street_id': '6d45dab0ab252be99ef77966', 'detail': 1, 'uid': '6d45dab0ab252be99ef77966', 'detail_info': {'tag': '旅游景点;游乐园', 'type': 'scope', 'detail_url': 'http://api.map.baidu.com/place/detail?uid=6d45dab0ab252be99ef77966&output=html&source=placeapi_v2', 'children': [], 'lat': 34.26661447982476, 'lng': 108.87890864022191}}"
"{'name': '慈云福地', 'location': {'lat': 34.24770390825238, 'lng': 108.83488236948492}, 'address': '陕西省西安市雁塔区北岳路', 'province': '陕西省', 'city': '西安市', 'area': '雁塔区', 'detail': 1, 'uid': '7c4181481674ed44eaf853f0', 'detail_info': {'tag': '旅游景点;文物古迹', 'type': 'scope', 'detail_url': 'http://api.map.baidu.com/place/detail?uid=7c4181481674ed44eaf853f0&output=html&source=placeapi_v2', 'children': [], 'lat': 34.24770390825238, 'lng': 108.83488236948492}}"
"{'name': '乐翻天旅行(土门店)', 'location': {'lat': 34.26120142365995, 'lng': 108.8798292610426}, 'address': '陕西省西安市莲湖区沣镐西路102-1西北方向50米', 'province': '陕西省', 'city': '西安市', 'area': '莲湖区', 'street_id': '4c41de44d3e07b25ae04571a', 'telephone': '(029)84354612', 'detail': 1, 'uid': '4c41de44d3e07b25ae04571a', 'detail_info': {'tag': '旅游景点;游乐园', 'type': 'scope', 'detail_url': 'http://api.map.baidu.com/place/detail?uid=4c41de44d3e07b25ae04571a&output=html&source=placeapi_v2', 'children': [], 'lat': 34.26120142365995, 'lng': 108.8798292610426}}"
"{'name': '乐翔儿童主题乐园', 'location': {'lat': 34.249197636552594, 'lng': 108.87218570470807}, 'address': '民洁路风林华府西门建设银行2楼上(卡布奇诺对面)', 'province': '陕西省', 'city': '西安市', 'area': '雁塔区', 'street_id': 'e1e0e1e194e62fbe51e5c5c4', 'detail': 1, 'uid': 'e1e0e1e194e62fbe51e5c5c4', 'detail_info': {'tag': '旅游景点;游乐园', 'type': 'scope', 'detail_url': 'http://api.map.baidu.com/place/detail?uid=e1e0e1e194e62fbe51e5c5c4&output=html&source=placeapi_v2', 'children': [], 'lat': 34.249197636552594, 'lng': 108.87218570470807}}"
"{'name': '斯马兰儿童乐园', 'location': {'lat': 34.24975346738528, 'lng': 108.83835030484082}, 'address': '西三环三桥立交东南角', 'province': '陕西省', 'city': '西安市', 'area': '未央区', 'street_id': 'ebc7a35ec6b41f43d9d891b0', 'detail': 1, 'uid': 'ebc7a35ec6b41f43d9d891b0', 'detail_info': {'tag': '旅游景点;游乐园', 'type': 'scope', 'detail_url': 'http://api.map.baidu.com/place/detail?uid=ebc7a35ec6b41f43d9d891b0&output=html&source=placeapi_v2', 'children': [], 'lat': 34.24975346738528, 'lng': 108.83835030484082}}"
"{'name': '儿童游乐园', 'location': {'lat': 34.2708494172238, 'lng': 108.85637828691705}, 'address': '陕西省西安市莲湖区大庆路905号附近', 'province': '陕西省', 'city': '西安市', 'area': '莲湖区', 'detail': 1, 'uid': '6b9e8b114f7580761fe9994b', 'detail_info': {'tag': '旅游景点;游乐园', 'type': 'scope', 'detail_url': 'http://api.map.baidu.com/place/detail?uid=6b9e8b114f7580761fe9994b&output=html&source=placeapi_v2', 'children': [], 'lat': 34.2708494172238, 'lng': 108.85637828691705}}"
"{'name': '金樽桌球竞技', 'location': {'lat': 34.2611965599617, 'lng': 108.86823690597936}, 'address': '陕西省西安市莲湖区土门丰镐西路西安莲湖协和医院南门', 'province': '陕西省', 'city': '西安市', 'area': '莲湖区', 'street_id': 'aa6ed3d6ca603bb28bb98889', 'detail': 1, 'uid': 'aa6ed3d6ca603bb28bb98889', 'detail_info': {'tag': '旅游景点;游乐园', 'type': 'scope', 'detail_url': 'http://api.map.baidu.com/place/detail?uid=aa6ed3d6ca603bb28bb98889&output=html&source=placeapi_v2', 'children': [], 'lat': 34.2611965599617, 'lng': 108.86823690597936}}"
"{'name': '呆咖儿童乐园', 'location': {'lat': 34.25841335442275, 'lng': 108.86340734847057}, 'address': '陕西省西安市莲湖区宏府鹍翔九天(红光路南)', 'province': '陕西省', 'city': '西安市', 'area': '莲湖区', 'street_id': '238f78e4795cb7f2cb213de9', 'detail': 1, 'uid': '238f78e4795cb7f2cb213de9', 'detail_info': {'tag': '旅游景点;游乐园', 'navi_location': {'lng': 108.87457459904, 'lat': 34.262893076494}, 'type': 'scope', 'detail_url': 'http://api.map.baidu.com/place/detail?uid=238f78e4795cb7f2cb213de9&output=html&source=placeapi_v2', 'overall_rating': '0.0', 'children': [], 'lat': 34.25841335442275, 'lng': 108.86340734847057}}"
"{'name': '西钞广场', 'location': {'lat': 34.26453625137888, 'lng': 108.86686529067805}, 'address': '西安市莲湖区汉城南路153号', 'province': '陕西省', 'city': '西安市', 'area': '莲湖区', 'street_id': '0ed20a157dbc5e9757bfff50', 'detail': 1, 'uid': '0ed20a157dbc5e9757bfff50', 'detail_info': {'tag': '休闲娱乐;休闲广场', 'navi_location': {'lng': 108.87767176869, 'lat': 34.269521943814}, 'type': 'life', 'detail_url': 'http://api.map.baidu.com/place/detail?uid=0ed20a157dbc5e9757bfff50&output=html&source=placeapi_v2', 'overall_rating': '3.6', 'image_num': '9', 'comment_num': '21', 'children': [], 'lat': 34.26453625137888, 'lng': 108.86686529067805}}"
"{'name': '西安市莲湖区大庆西路基督教礼拜堂', 'location': {'lat': 34.26993137394404, 'lng': 108.84983135618752}, 'address': '陕西省西安市未央区大庆西路798号附近', 'province': '陕西省', 'city': '西安市', 'area': '未央区', 'detail': 1, 'uid': 'de07333afb411463f603b84c', 'detail_info': {'tag': '旅游景点;教堂', 'type': 'scope', 'detail_url': 'http://api.map.baidu.com/place/detail?uid=de07333afb411463f603b84c&output=html&source=placeapi_v2', 'overall_rating': '0.0', 'comment_num': '1', 'children': [], 'lat': 34.26993137394404, 'lng': 108.84983135618752}}"
"{'name': '西安市莲湖区土门基督教礼拜堂', 'location': {'lat': 34.2574215075366, 'lng': 108.87764518502156}, 'address': '土门街道土门创新路周家围墙165号', 'province': '陕西省', 'city': '西安市', 'area': '莲湖区', 'street_id': '2e014cc632dce531d92f289f', 'telephone': '(029)84237841', 'detail': 1, 'uid': '2e014cc632dce531d92f289f', 'detail_info': {'tag': '旅游景点;教堂', 'navi_location': {'lng': 108.88918898676, 'lat': 34.261656724179},