"{'name': '书香镇街文化中心(细柳店)', 'location': {'lat': 34.18220346751758, 'lng': 108.82198680408702}, 'address': '创汇社区E区东门', 'province': '陕西省', 'city': '西安市', 'area': '长安区', 'detail': 1, 'uid': '3e32ec0673f0554700ec01ed', 'detail_info': {'tag': '教育培训;其他', 'type': 'education', 'detail_url': 'http://api.map.baidu.com/place/detail?uid=3e32ec0673f0554700ec01ed&output=html&source=placeapi_v2', 'overall_rating': '0.0', 'comment_num': '1', 'children': [], 'lat': 34.18220346751758, 'lng': 108.82198680408702}}"
"{'name': '镐京骨科', 'location': {'lat': 34.2436857774664, 'lng': 108.78120928654668}, 'address': '陕西省西安市长安区西户公路西100米', 'province': '陕西省', 'city': '西安市', 'area': '长安区', 'detail': 1, 'uid': 'acac521d5ae5becd3be4a6db', 'detail_info': {'tag': '医疗;诊所', 'navi_location': {'lng': 108.79247775062, 'lat': 34.247612969335}, 'type': 'hospital', 'detail_url': 'http://api.map.baidu.com/place/detail?uid=acac521d5ae5becd3be4a6db&output=html&source=placeapi_v2', 'overall_rating': '0.0', 'image_num': '1', 'comment_num': '0', 'children': [], 'lat': 34.2436857774664, 'lng': 108.78120928654668}}"
"{'name': '周吴村卫生室', 'location': {'lat': 34.24645177447467, 'lng': 108.79958026197087}, 'address': '陕西省西安市长安区周吴村卫生室(西安绕城高速公路东)', 'province': '陕西省', 'city': '西安市', 'area': '长安区', 'detail': 1, 'uid': 'b618dfd3ea022d82100daa59', 'detail_info': {'tag': '医疗;诊所', 'type': 'hospital', 'detail_url': 'http://api.map.baidu.com/place/detail?uid=b618dfd3ea022d82100daa59&output=html&source=placeapi_v2', 'image_num': '1', 'children': [], 'lat': 34.24645177447467, 'lng': 108.79958026197087}}"
"{'name': '西安集智医疗器械科技有限公司', 'location': {'lat': 34.24359932313134, 'lng': 108.81764550023239}, 'address': '纬一路36号鱼化光电园3号楼B座3层', 'province': '陕西省', 'city': '西安市', 'area': '雁塔区', 'street_id': 'b4fed11fdf176401dbeced28', 'telephone': '(029)88583661', 'detail': 1, 'uid': 'b4fed11fdf176401dbeced28', 'detail_info': {'tag': '医疗;医疗器械', 'type': 'enterprise', 'detail_url': 'http://api.map.baidu.com/place/detail?uid=b4fed11fdf176401dbeced28&output=html&source=placeapi_v2', 'price': '0.0', 'overall_rating': '0.0', 'children': [], 'lat': 34.24359932313134, 'lng': 108.81764550023239}}"
"{'name': '康鼎大药房(汉池一路店)', 'location': {'lat': 34.23641189535122, 'lng': 108.79256133491648}, 'address': '陕西省西安市长安区汉池一路', 'province': '陕西省', 'city': '西安市', 'area': '长安区', 'detail': 1, 'uid': '4208449875d7b6e5fd0eb0ea', 'detail_info': {'tag': '医疗;药店', 'type': 'hospital', 'detail_url': 'http://api.map.baidu.com/place/detail?uid=4208449875d7b6e5fd0eb0ea&output=html&source=placeapi_v2', 'image_num': '4', 'children': [], 'lat': 34.23641189535122, 'lng': 108.79256133491648}}"
"{'name': '康易大药房(鱼斗路店)', 'location': {'lat': 34.21927907409553, 'lng': 108.78846724938077}, 'address': '陕西省西安市长安区新镐京路22南60米', 'province': '陕西省', 'city': '西安市', 'area': '长安区', 'street_id': '1374660e884fde16afee7a0b', 'telephone': '(029)85902331', 'detail': 1, 'uid': '1374660e884fde16afee7a0b', 'detail_info': {'tag': '医疗;药店', 'type': 'hospital', 'detail_url': 'http://api.map.baidu.com/place/detail?uid=1374660e884fde16afee7a0b&output=html&source=placeapi_v2', 'image_num': '6', 'children': [], 'lat': 34.21927907409553, 'lng': 108.78846724938077}}"
"{'name': '同一医药(西安南丰店)', 'location': {'lat': 34.23957819443041, 'lng': 108.7862526031647}, 'address': '沣东新城斗门街办南丰村五组付61号', 'province': '陕西省', 'city': '西安市', 'area': '长安区', 'detail': 1, 'uid': '9d9d2c83d9588e224c6d46b4', 'detail_info': {'tag': '医疗;药店', 'type': 'hospital', 'detail_url': 'http://api.map.baidu.com/place/detail?uid=9d9d2c83d9588e224c6d46b4&output=html&source=placeapi_v2', 'overall_rating': '0.0', 'image_num': '4', 'comment_num': '0', 'children': [], 'lat': 34.23957819443041, 'lng': 108.7862526031647}}"
"{'name': '西安市雁塔区仁寿大药房', 'location': {'lat': 34.237507878523786, 'lng': 108.81687652980165}, 'address': '西安市雁塔区科技西路与西宝疏导线交叉路口东南侧(云龙商务酒店)', 'province': '陕西省', 'city': '西安市', 'area': '雁塔区', 'street_id': 'ea08e724cacb11b826d2bb07', 'detail': 1, 'uid': 'ea08e724cacb11b826d2bb07', 'detail_info': {'tag': '医疗;药店', 'type': 'hospital', 'detail_url': 'http://api.map.baidu.com/place/detail?uid=ea08e724cacb11b826d2bb07&output=html&source=placeapi_v2', 'overall_rating': '0.0', 'image_num': '13', 'comment_num': '1', 'children': [], 'lat': 34.237507878523786, 'lng': 108.81687652980165}}"
"{'name': '成人用品', 'location': {'lat': 34.2313518779113, 'lng': 108.81687301143252}, 'address': '陕西省西安市雁塔区西宝疏导线', 'province': '陕西省', 'city': '西安市', 'area': '雁塔区', 'detail': 1, 'uid': 'befdf87b00939bfc52e5c598', 'detail_info': {'tag': '医疗;医疗保健', 'type': 'hospital', 'detail_url': 'http://api.map.baidu.com/place/detail?uid=befdf87b00939bfc52e5c598&output=html&source=placeapi_v2', 'image_num': '2', 'children': [], 'lat': 34.2313518779113, 'lng': 108.81687301143252}}"
"{'name': '德芝康大药房', 'location': {'lat': 34.22048846924922, 'lng': 108.8042636506118}, 'address': '陕西省西安市长安区鱼斗路', 'province': '陕西省', 'city': '西安市', 'area': '长安区', 'street_id': '1d6fdd1bcb9ceb4a4107c114', 'detail': 1, 'uid': '1d6fdd1bcb9ceb4a4107c114', 'detail_info': {'tag': '医疗;药店', 'type': 'hospital', 'detail_url': 'http://api.map.baidu.com/place/detail?uid=1d6fdd1bcb9ceb4a4107c114&output=html&source=placeapi_v2', 'image_num': '9', 'children': [], 'lat': 34.22048846924922, 'lng': 108.8042636506118}}"
"{'name': '润泽大药房', 'location': {'lat': 34.22046838519327, 'lng': 108.80657058296906}, 'address': '陕西省西安市长安区鱼斗路阳光宾馆(童之梦幼儿园附近)', 'province': '陕西省', 'city': '西安市', 'area': '长安区', 'street_id': '83f4c0e1198b60602fe67b93', 'telephone': '15619278830', 'detail': 1, 'uid': '83f4c0e1198b60602fe67b93', 'detail_info': {'tag': '医疗;药店', 'type': 'hospital', 'detail_url': 'http://api.map.baidu.com/place/detail?uid=83f4c0e1198b60602fe67b93&output=html&source=placeapi_v2', 'image_num': '13', 'children': [], 'lat': 34.22046838519327, 'lng': 108.80657058296906}}"
"{'name': '西安长安泰和医院', 'location': {'lat': 34.259140239814336, 'lng': 108.78225374740066}, 'address': '西安市长安区王寺街道西街141号', 'province': '陕西省', 'city': '西安市', 'area': '长安区', 'telephone': '(029)85808366', 'detail': 1, 'uid': 'c879fa0158679e4ac909f050', 'detail_info': {'tag': '医疗;综合医院', 'navi_location': {'lng': 108.7939034504, 'lat': 34.264590612967}, 'type': 'hospital', 'detail_url': 'http://api.map.baidu.com/place/detail?uid=c879fa0158679e4ac909f050&output=html&source=placeapi_v2', 'overall_rating': '3.2', 'image_num': '10', 'comment_num': '3', 'children': [], 'lat': 34.259140239814336, 'lng': 108.78225374740066}}"
"{'name': '闵旗寨村卫生室', 'location': {'lat': 34.24886085370962, 'lng': 108.82034630669963}, 'address': '陕西省西安市未央区二号路与富源三路交叉口西北50米', 'province': '陕西省', 'city': '西安市', 'area': '未央区', 'street_id': '39d43f823f0b82fba8059dc4', 'detail': 1, 'uid': '39d43f823f0b82fba8059dc4', 'detail_info': {'tag': '医疗;诊所', 'navi_location': {'lng': 108.83185946418, 'lat': 34.25347639268}, 'type': 'hospital', 'detail_url': 'http://api.map.baidu.com/place/detail?uid=39d43f823f0b82fba8059dc4&output=html&source=placeapi_v2', 'overall_rating': '0.0', 'image_num': '9', 'comment_num': '1', 'children': [], 'lat': 34.24886085370962, 'lng': 108.82034630669963}}"
"{'name': '沣东新城侯坚诊所', 'location': {'lat': 34.25475551434456, 'lng': 108.81193294571615}, 'address': '陕西省西安市未央区西环路2号', 'province': '陕西省', 'city': '西安市', 'area': '未央区', 'detail': 1, 'uid': '9023b995b056ad5588f15dd3', 'detail_info': {'tag': '医疗;诊所', 'type': 'hospital', 'detail_url': 'http://api.map.baidu.com/place/detail?uid=9023b995b056ad5588f15dd3&output=html&source=placeapi_v2', 'image_num': '1', 'children': [], 'lat': 34.25475551434456, 'lng': 108.81193294571615}}"
"{'name': '西安交通大学口腔医院沣东口腔专科门诊部', 'location': {'lat': 34.25672239692486, 'lng': 108.82021899725851}, 'address': '西宝疏导线', 'province': '陕西省', 'city': '西安市', 'area': '未央区', 'detail': 1, 'uid': '601cae510335d8122bb97c9f', 'detail_info': {'tag': '医疗;其他', 'navi_location': {'lng': 108.83184759936, 'lat': 34.261343391791}, 'type': 'hospital', 'detail_url': 'http://api.map.baidu.com/place/detail?uid=601cae510335d8122bb97c9f&output=html&source=placeapi_v2', 'overall_rating': '0.0', 'image_num': '1', 'children': [], 'lat': 34.25672239692486, 'lng': 108.82021899725851}}"
"{'name': '小苏村卫生室', 'location': {'lat': 34.2778271655506, 'lng': 108.80243163094195}, 'address': '陕西省西安市未央区', 'province': '陕西省', 'city': '西安市', 'area': '未央区', 'street_id': 'd7fd2ad3b04337540bccdd60', 'detail': 1, 'uid': 'd7fd2ad3b04337540bccdd60', 'detail_info': {'tag': '医疗;诊所', 'navi_location': {'lng': 108.81328250623, 'lat': 34.285367384617}, 'type': 'hospital', 'detail_url': 'http://api.map.baidu.com/place/detail?uid=d7fd2ad3b04337540bccdd60&output=html&source=placeapi_v2', 'overall_rating': '0.0', 'image_num': '6', 'comment_num': '1', 'children': [], 'lat': 34.2778271655506, 'lng': 108.80243163094195}}"
"{'name': '大秦医院', 'location': {'lat': 34.268570955264266, 'lng': 108.8204649985328}, 'address': '沣东新城天台路南段b26', 'province': '陕西省', 'city': '西安市', 'area': '未央区', 'street_id': '31f6ca0e7315d77fb05c6a36', 'detail': 1, 'uid': '31f6ca0e7315d77fb05c6a36', 'detail_info': {'tag': '医疗;其他', 'navi_location': {'lng': 108.83179699152, 'lat': 34.273293236487}, 'type': 'hospital', 'detail_url': 'http://api.map.baidu.com/place/detail?uid=31f6ca0e7315d77fb05c6a36&output=html&source=placeapi_v2', 'overall_rating': '5.0', 'image_num': '5', 'comment_num': '1', 'children': [], 'lat': 34.268570955264266, 'lng': 108.8204649985328}}"
"{'name': '长安区王寺村卫生室', 'location': {'lat': 34.26244242017414, 'lng': 108.79608499404056}, 'address': '王寺街道王寺西街56号', 'province': '陕西省', 'city': '西安市', 'area': '长安区', 'street_id': '0bfd72b158356ec27dc876b9', 'detail': 1, 'uid': '0bfd72b158356ec27dc876b9', 'detail_info': {'tag': '医疗;诊所', 'type': 'hospital', 'detail_url': 'http://api.map.baidu.com/place/detail?uid=0bfd72b158356ec27dc876b9&output=html&source=placeapi_v2', 'image_num': '16', 'children': [], 'lat': 34.26244242017414, 'lng': 108.79608499404056}}"
"{'name': '阿房宫老年公寓', 'location': {'lat': 34.26865027665028, 'lng': 108.81743960337107}, 'address': '陕西省西安市未央区天台三路6号', 'province': '陕西省', 'city': '西安市', 'area': '未央区', 'detail': 1, 'uid': 'ac7aafb0137db6a88bb98895', 'detail_info': {'tag': '医疗;疗养院', 'navi_location': {'lng': 108.82889273051, 'lat': 34.273211097659}, 'type': 'hospital', 'detail_url': 'http://api.map.baidu.com/place/detail?uid=ac7aafb0137db6a88bb98895&output=html&source=placeapi_v2', 'image_num': '1', 'children': [], 'lat': 34.26865027665028, 'lng': 108.81743960337107}}"
"{'name': '大苏村卫生室', 'location': {'lat': 34.27604654052894, 'lng': 108.79428124604688}, 'address': '陕西省西安市长安区重庆鲜面条(天人路南)', 'province': '陕西省', 'city': '西安市', 'area': '长安区', 'street_id': '72aa2513e16f2044077ce838', 'detail': 1, 'uid': '72aa2513e16f2044077ce838', 'detail_info': {'tag': '医疗;诊所', 'navi_location': {'lng': 108.80531579578, 'lat': 34.280453837385}, 'type': 'hospital', 'detail_url': 'http://api.map.baidu.com/place/detail?uid=72aa2513e16f2044077ce838&output=html&source=placeapi_v2', 'overall_rating': '5.0', 'image_num': '18', 'comment_num': '2', 'children': [], 'lat': 34.27604654052894, 'lng': 108.79428124604688}}"
"{'name': '古城诊所', 'location': {'lat': 34.26295745771141, 'lng': 108.79922243727881}, 'address': '王寺北街32', 'province': '陕西省', 'city': '西安市', 'area': '长安区', 'street_id': 'edd64ce17c66a3913fe23160', 'telephone': '(029)85809150', 'detail': 1, 'uid': 'edd64ce17c66a3913fe23160', 'detail_info': {'tag': '医疗;诊所', 'type': 'hospital', 'detail_url': 'http://api.map.baidu.com/place/detail?uid=edd64ce17c66a3913fe23160&output=html&source=placeapi_v2', 'overall_rating': '0.0', 'image_num': '9', 'comment_num': '2', 'children': [], 'lat': 34.26295745771141, 'lng': 108.79922243727881}}"
"{'name': '西咸新区沣东新城王寺街道卫生院', 'location': {'lat': 34.27044154485945, 'lng': 108.77418695565024}, 'address': '陕西省西安市长安区沣东三路', 'province': '陕西省', 'city': '西安市', 'area': '长安区', 'detail': 1, 'uid': '231966b48b0e7cd0354aaedb', 'detail_info': {'tag': '医疗;诊所', 'type': 'hospital', 'detail_url': 'http://api.map.baidu.com/place/detail?uid=231966b48b0e7cd0354aaedb&output=html&source=placeapi_v2', 'image_num': '1', 'children': [], 'lat': 34.27044154485945, 'lng': 108.77418695565024}}"
"{'name': '和平村卫生室', 'location': {'lat': 34.26111501105533, 'lng': 108.79552335311678}, 'address': '陕西省西安市长安区西宝公路48附近', 'province': '陕西省', 'city': '西安市', 'area': '长安区', 'street_id': '8796cd4073a83c597bf796ca', 'detail': 1, 'uid': '8796cd4073a83c597bf796ca', 'detail_info': {'tag': '医疗;诊所', 'type': 'hospital', 'detail_url': 'http://api.map.baidu.com/place/detail?uid=8796cd4073a83c597bf796ca&output=html&source=placeapi_v2', 'overall_rating': '1.0', 'image_num': '11', 'comment_num': '5', 'children': [], 'lat': 34.26111501105533, 'lng': 108.79552335311678}}"
"{'name': '西安长安儿童康复医院', 'location': {'lat': 34.26243029120133, 'lng': 108.79909814309097}, 'address': '西安市长安区王寺北街20号', 'province': '陕西省', 'city': '西安市', 'area': '长安区', 'street_id': '48eb0058436041ae2fe67b7a', 'detail': 1, 'uid': '48eb0058436041ae2fe67b7a', 'detail_info': {'tag': '医疗;其他', 'navi_location': {'lng': 108.81008453862, 'lat': 34.266977109783}, 'type': 'hospital', 'detail_url': 'http://api.map.baidu.com/place/detail?uid=48eb0058436041ae2fe67b7a&output=html&source=placeapi_v2', 'overall_rating': '1.0', 'image_num': '7', 'comment_num': '2', 'children': [], 'lat': 34.26243029120133, 'lng': 108.79909814309097}}"
"{'name': '泰和医院-急诊', 'location': {'lat': 34.260925108937165, 'lng': 108.78264855632268}, 'address': '王寺街泰和医院', 'province': '陕西省', 'city': '西安市', 'area': '长安区', 'detail': 1, 'uid': 'c7fb04bdcf2c8d68fa0cad0d', 'detail_info': {'tag': '医疗;其他', 'navi_location': {'lng': 108.79355354333, 'lat': 34.265185244454}, 'type': 'hospital', 'detail_url': 'http://api.map.baidu.com/place/detail?uid=c7fb04bdcf2c8d68fa0cad0d&output=html&source=placeapi_v2', 'image_num': '1', 'children': [], 'lat': 34.260925108937165, 'lng': 108.78264855632268}}"
"{'name': '陕西省西咸新区沣东新城薛朋诊所', 'location': {'lat': 34.25337041173276, 'lng': 108.82189008060081}, 'address': '陕西省西安市未央区和平工业园区二号路', 'province': '陕西省', 'city': '西安市', 'area': '未央区', 'street_id': '01e1fefc21a8176795ca072e', 'detail': 1, 'uid': '01e1fefc21a8176795ca072e', 'detail_info': {'tag': '医疗;诊所', 'type': 'hospital', 'detail_url': 'http://api.map.baidu.com/place/detail?uid=01e1fefc21a8176795ca072e&output=html&source=placeapi_v2', 'overall_rating': '5.0', 'image_num': '10', 'comment_num': '1', 'children': [], 'lat': 34.25337041173276, 'lng': 108.82189008060081}}"
"{'name': '基本医疗区', 'location': {'lat': 34.25825885246917, 'lng': 108.82106197472443}, 'address': '陕西省西安市未央区一号路23号附近', 'province': '陕西省', 'city': '西安市', 'area': '未央区', 'street_id': 'c13f06059cd77d0afb2d611f', 'detail': 1, 'uid': 'c13f06059cd77d0afb2d611f', 'detail_info': {'tag': '医疗', 'type': 'hospital', 'detail_url': 'http://api.map.baidu.com/place/detail?uid=c13f06059cd77d0afb2d611f&output=html&source=placeapi_v2', 'image_num': '3', 'children': [], 'lat': 34.25825885246917, 'lng': 108.82106197472443}}"
"{'name': '冯党村卫生室', 'location': {'lat': 34.26079818142396, 'lng': 108.80361509905306}, 'address': '西安市长安区王寺东街92号', 'province': '陕西省', 'city': '西安市', 'area': '长安区', 'street_id': '6ab7be6174a3b5788bfc0611', 'telephone': '13474013389,(029)85808116', 'detail': 1, 'uid': '6ab7be6174a3b5788bfc0611', 'detail_info': {'tag': '医疗;诊所', 'type': 'hospital', 'detail_url': 'http://api.map.baidu.com/place/detail?uid=6ab7be6174a3b5788bfc0611&output=html&source=placeapi_v2', 'overall_rating': '0.0', 'image_num': '10', 'comment_num': '1', 'children': [], 'lat': 34.26079818142396, 'lng': 108.80361509905306}}"
"{'name': '闫十卫生所', 'location': {'lat': 34.27861257236312, 'lng': 108.81253039110564}, 'address': '陕西省西安市未央区闫十第一幼儿园东(西户公路北)', 'province': '陕西省', 'city': '西安市', 'area': '未央区', 'street_id': 'f71e9390c7b06d540aa8d490', 'detail': 1, 'uid': 'f71e9390c7b06d540aa8d490', 'detail_info': {'tag': '医疗;诊所', 'type': 'hospital', 'detail_url': 'http://api.map.baidu.com/place/detail?uid=f71e9390c7b06d540aa8d490&output=html&source=placeapi_v2', 'overall_rating': '0.0', 'image_num': '9', 'comment_num': '1', 'children': [], 'lat': 34.27861257236312, 'lng': 108.81253039110564}}"
"{'name': '淑芳诊所(西宝公路)', 'location': {'lat': 34.26119150843616, 'lng': 108.79977748377709}, 'address': '西安市长安区沣东大道与西户公路交叉路口往东约100米(西安长安儿童康复医院南侧约100米)', 'province': '陕西省', 'city': '西安市', 'area': '长安区', 'street_id': '6121326cf8538273d3ff23f2', 'detail': 1, 'uid': '6121326cf8538273d3ff23f2', 'detail_info': {'tag': '医疗;诊所', 'type': 'hospital', 'detail_url': 'http://api.map.baidu.com/place/detail?uid=6121326cf8538273d3ff23f2&output=html&source=placeapi_v2', 'image_num': '8', 'children': [], 'lat': 34.26119150843616, 'lng': 108.79977748377709}}"
"{'name': '冯党村中医内外科李宗民诊所', 'location': {'lat': 34.26119076606394, 'lng': 108.80003317769203}, 'address': '王寺街办东街11号(西宝公路)附近', 'province': '陕西省', 'city': '西安市', 'area': '长安区', 'street_id': '363fd843f679d7af31870ae3', 'detail': 1, 'uid': 'f133c9ef05cadede7069d38f', 'detail_info': {'tag': '医疗;诊所', 'type': 'hospital', 'detail_url': 'http://api.map.baidu.com/place/detail?uid=f133c9ef05cadede7069d38f&output=html&source=placeapi_v2', 'overall_rating': '0.0', 'image_num': '15', 'comment_num': '1', 'children': [], 'lat': 34.26119076606394, 'lng': 108.80003317769203}}"
"{'name': '公共卫生中医康复区', 'location': {'lat': 34.25877376172085, 'lng': 108.82106747097387}, 'address': '一号路23号附近', 'province': '陕西省', 'city': '西安市', 'area': '未央区', 'street_id': 'bd0215cad2ee5664931fc999', 'detail': 1, 'uid': 'bd0215cad2ee5664931fc999', 'detail_info': {'tag': '医疗;其他', 'type': 'hospital', 'detail_url': 'http://api.map.baidu.com/place/detail?uid=bd0215cad2ee5664931fc999&output=html&source=placeapi_v2', 'image_num': '4', 'children': [], 'lat': 34.25877376172085, 'lng': 108.82106747097387}}"
"{'name': '济安堂艾灸馆', 'location': {'lat': 34.261218682767485, 'lng': 108.8047644190109}, 'address': '西安市长安区', 'province': '陕西省', 'city': '西安市', 'area': '长安区', 'detail': 1, 'uid': '068a6d1fe0446be5067ce885', 'detail_info': {'tag': '医疗', 'type': 'hospital', 'detail_url': 'http://api.map.baidu.com/place/detail?uid=068a6d1fe0446be5067ce885&output=html&source=placeapi_v2', 'image_num': '4', 'children': [], 'lat': 34.261218682767485, 'lng': 108.8047644190109}}"
"{'name': '完美尺寸健康身材管理中心(王寺店)', 'location': {'lat': 34.26249490321168, 'lng': 108.79604881940688}, 'address': '王寺西街嘉欣花园商铺', 'province': '陕西省', 'city': '西安市', 'area': '长安区', 'street_id': 'ea874acb5508c0108f1a89fe', 'telephone': '18192541719', 'detail': 1, 'uid': 'ea874acb5508c0108f1a89fe', 'detail_info': {'tag': '医疗;体检机构', 'navi_location': {'lng': 108.80750271246, 'lat': 34.266786114055}, 'type': 'hospital', 'detail_url': 'http://api.map.baidu.com/place/detail?uid=ea874acb5508c0108f1a89fe&output=html&source=placeapi_v2', 'overall_rating': '5.0', 'image_num': '6', 'comment_num': '1', 'children': [], 'lat': 34.26249490321168, 'lng': 108.79604881940688}}"
"{'name': '怡康医药超市', 'location': {'lat': 34.256900763579516, 'lng': 108.82027949057836}, 'address': '陕西省西安市未央区四号路9号北60米', 'province': '陕西省', 'city': '西安市', 'area': '未央区', 'detail': 1, 'uid': 'b40079f3c3762df4f119372e', 'detail_info': {'tag': '医疗;药店', 'type': 'hospital', 'detail_url': 'http://api.map.baidu.com/place/detail?uid=b40079f3c3762df4f119372e&output=html&source=placeapi_v2', 'image_num': '7', 'children': [], 'lat': 34.256900763579516, 'lng': 108.82027949057836}}"
"{'name': '广济大药房(昆明路一店)', 'location': {'lat': 34.25554304792357, 'lng': 108.81654943694384}, 'address': '陕西省西安市未央区海昆明路九号第9幢3单元1层30104号', 'province': '陕西省', 'city': '西安市', 'area': '未央区', 'telephone': '4000290800', 'detail': 1, 'uid': '0bdd246cf7709befacee7a71', 'detail_info': {'tag': '医疗;药店', 'type': 'hospital', 'detail_url': 'http://api.map.baidu.com/place/detail?uid=0bdd246cf7709befacee7a71&output=html&source=placeapi_v2', 'overall_rating': '0.0', 'image_num': '3', 'comment_num': '1', 'children': [], 'lat': 34.25554304792357, 'lng': 108.81654943694384}}"
"{'name': '泰生医药(天哲店)', 'location': {'lat': 34.25248572115703, 'lng': 108.82336176932641}, 'address': '陕西省西安市西咸新区沣东新城昆明路肖里村6号由西向东第3间门面房', 'province': '陕西省', 'city': '西安市', 'area': '未央区', 'street_id': '6c2b502ebd2da438d12dd611', 'telephone': '15929998417', 'detail': 1, 'uid': '6c2b502ebd2da438d12dd611', 'detail_info': {'tag': '医疗;药店', 'navi_location': {'lng': 108.83448119935, 'lat': 34.25745767845}, 'type': 'hospital', 'detail_url': 'http://api.map.baidu.com/place/detail?uid=6c2b502ebd2da438d12dd611&output=html&source=placeapi_v2', 'overall_rating': '0.0', 'image_num': '13', 'comment_num': '1', 'children': [], 'lat': 34.25248572115703, 'lng': 108.82336176932641}}"
"{'name': '康富大药房', 'location': {'lat': 34.24847376004056, 'lng': 108.81931223409666}, 'address': '二号路与和平工业园区一号路交叉口西100米', 'province': '陕西省', 'city': '西安市', 'area': '未央区', 'street_id': 'cc3adb6271d81231130daaec', 'detail': 1, 'uid': 'cc3adb6271d81231130daaec', 'detail_info': {'tag': '医疗;药店', 'type': 'hospital', 'detail_url': 'http://api.map.baidu.com/place/detail?uid=cc3adb6271d81231130daaec&output=html&source=placeapi_v2', 'image_num': '8', 'children': [], 'lat': 34.24847376004056, 'lng': 108.81931223409666}}"
"{'name': '维安医药', 'location': {'lat': 34.268739540087005, 'lng': 108.82050435685534}, 'address': '陕西省西安市未央区天台路B026号', 'province': '陕西省', 'city': '西安市', 'area': '未央区', 'street_id': 'a4fac5f1f3350a193913fd44', 'telephone': '(029)84511155', 'detail': 1, 'uid': 'a4fac5f1f3350a193913fd44', 'detail_info': {'tag': '医疗;药店', 'navi_location': {'lng': 108.83160569287, 'lat': 34.273265981615}, 'type': 'hospital', 'detail_url': 'http://api.map.baidu.com/place/detail?uid=a4fac5f1f3350a193913fd44&output=html&source=placeapi_v2', 'image_num': '8', 'children': [], 'lat': 34.268739540087005, 'lng': 108.82050435685534}}"
"{'name': '成人用品无人售货', 'location': {'lat': 34.252949524537385, 'lng': 108.82401126926909}, 'address': '陕西省西安市未央区东方小宾馆(西安肖里村店)', 'province': '陕西省', 'city': '西安市', 'area': '未央区', 'street_id': '1e4fab96f5a8ff44e6e9655c', 'detail': 1, 'uid': '1e4fab96f5a8ff44e6e9655c', 'detail_info': {'tag': '医疗;医疗保健', 'type': 'shopping', 'detail_url': 'http://api.map.baidu.com/place/detail?uid=1e4fab96f5a8ff44e6e9655c&output=html&source=placeapi_v2', 'children': [], 'lat': 34.252949524537385, 'lng': 108.82401126926909}}"
"{'name': '好了笑大药房', 'location': {'lat': 34.27565396176565, 'lng': 108.8196960756555}, 'address': '天台五路1号联森医药隔壁', 'province': '陕西省', 'city': '西安市', 'area': '未央区', 'street_id': 'd139f0b6dd57888f5fbe86da', 'detail': 1, 'uid': 'd139f0b6dd57888f5fbe86da', 'detail_info': {'tag': '医疗;药店', 'type': 'hospital', 'detail_url': 'http://api.map.baidu.com/place/detail?uid=d139f0b6dd57888f5fbe86da&output=html&source=placeapi_v2', 'image_num': '4', 'children': [], 'lat': 34.27565396176565, 'lng': 108.8196960756555}}"
"{'name': '惠济堂大药房(阿房一路店)', 'location': {'lat': 34.26998949895901, 'lng': 108.82239239008001}, 'address': '三桥街道阿房一路西口105号', 'province': '陕西省', 'city': '西安市', 'area': '未央区', 'street_id': '31795740910bee911894c6d1', 'detail': 1, 'uid': '31795740910bee911894c6d1', 'detail_info': {'tag': '医疗;药店', 'type': 'hospital', 'detail_url': 'http://api.map.baidu.com/place/detail?uid=31795740910bee911894c6d1&output=html&source=placeapi_v2', 'overall_rating': '0.0', 'image_num': '10', 'children': [], 'lat': 34.26998949895901, 'lng': 108.82239239008001}}"
"{'name': '百耀堂医药', 'location': {'lat': 34.25655068124253, 'lng': 108.81843466672383}, 'address': '西安市未央区和平春天小区南门8号楼10103室', 'province': '陕西省', 'city': '西安市', 'area': '未央区', 'detail': 1, 'uid': 'e31aa70efa6dc89ba7c7569a', 'detail_info': {'tag': '医疗;药店', 'type': 'hospital', 'detail_url': 'http://api.map.baidu.com/place/detail?uid=e31aa70efa6dc89ba7c7569a&output=html&source=placeapi_v2', 'image_num': '5', 'children': [], 'lat': 34.25655068124253, 'lng': 108.81843466672383}}"
"{'name': '怡康医药超市', 'location': {'lat': 34.260796189160246, 'lng': 108.80027844933322}, 'address': '西安市长安区王寺东街42号', 'province': '陕西省', 'city': '西安市', 'area': '长安区', 'detail': 1, 'uid': '99dc4a505d4059856fa3cc02', 'detail_info': {'tag': '医疗;药店', 'type': 'hospital', 'detail_url': 'http://api.map.baidu.com/place/detail?uid=99dc4a505d4059856fa3cc02&output=html&source=placeapi_v2', 'image_num': '9', 'children': [], 'lat': 34.260796189160246, 'lng': 108.80027844933322}}"
"{'name': '成人用品', 'location': {'lat': 34.26116210991373, 'lng': 108.80209602912616}, 'address': '陕西省西安市长安区王寺东街67号附近', 'province': '陕西省', 'city': '西安市', 'area': '长安区', 'street_id': '354ae24dbf7849d18f1a8902', 'detail': 1, 'uid': '7f55235756e11a20b5147f08', 'detail_info': {'tag': '医疗;医疗保健', 'type': 'hospital', 'detail_url': 'http://api.map.baidu.com/place/detail?uid=7f55235756e11a20b5147f08&output=html&source=placeapi_v2', 'image_num': '5', 'children': [], 'lat': 34.26116210991373, 'lng': 108.80209602912616}}"
"{'name': '兴旺大药房', 'location': {'lat': 34.27887455658968, 'lng': 108.81317680934298}, 'address': '天台七路与天台六路交叉口西50米', 'province': '陕西省', 'city': '西安市', 'area': '未央区', 'street_id': 'f97c81b597885cdea2a934f7', 'detail': 1, 'uid': 'f97c81b597885cdea2a934f7', 'detail_info': {'tag': '医疗;药店', 'type': 'hospital', 'detail_url': 'http://api.map.baidu.com/place/detail?uid=f97c81b597885cdea2a934f7&output=html&source=placeapi_v2', 'image_num': '5', 'children': [], 'lat': 34.27887455658968, 'lng': 108.81317680934298}}"
"{'name': '怡康医药超市(西围墙村店)', 'location': {'lat': 34.259507960049646, 'lng': 108.8135317622396}, 'address': '陕西省西安市未央区三桥街道西宝公路西围新嘉园西区东门', 'province': '陕西省', 'city': '西安市', 'area': '未央区', 'street_id': '0117e6a74682db16c9291570', 'detail': 1, 'uid': '0117e6a74682db16c9291570', 'detail_info': {'tag': '医疗;药店', 'type': 'hospital', 'detail_url': 'http://api.map.baidu.com/place/detail?uid=0117e6a74682db16c9291570&output=html&source=placeapi_v2', 'image_num': '8', 'children': [], 'lat': 34.259507960049646, 'lng': 108.8135317622396}}"
"{'name': '同一医药(西安红光路店)', 'location': {'lat': 34.26069383882092, 'lng': 108.82034328141656}, 'address': '西安市未央区沣东大道与西宝疏导线交叉路口西侧(中国邮政西侧)', 'province': '陕西省', 'city': '西安市', 'area': '未央区', 'street_id': '4ac42c7b28487bfce5e9658e', 'telephone': '15929739020', 'detail': 1, 'uid': '4ac42c7b28487bfce5e9658e', 'detail_info': {'tag': '医疗;药店', 'type': 'hospital', 'detail_url': 'http://api.map.baidu.com/place/detail?uid=4ac42c7b28487bfce5e9658e&output=html&source=placeapi_v2', 'overall_rating': '0.0', 'image_num': '7', 'comment_num': '1', 'children': [], 'lat': 34.26069383882092, 'lng': 108.82034328141656}}"
"{'name': '福圆堂大药房', 'location': {'lat': 34.27736254264791, 'lng': 108.7937047151768}, 'address': '陕西省西安市长安区中国移动(天人路南)', 'province': '陕西省', 'city': '西安市', 'area': '长安区', 'street_id': '027b10a2c819e63e1d1d11d7', 'detail': 1, 'uid': '027b10a2c819e63e1d1d11d7', 'detail_info': {'tag': '医疗;药店', 'type': 'hospital', 'detail_url': 'http://api.map.baidu.com/place/detail?uid=027b10a2c819e63e1d1d11d7&output=html&source=placeapi_v2', 'overall_rating': '0.0', 'image_num': '8', 'children': [], 'lat': 34.27736254264791, 'lng': 108.7937047151768}}"
"{'name': '泰生医药(昆明九号店)', 'location': {'lat': 34.254986699832216, 'lng': 108.81641915096816}, 'address': '陕西省西安市沣东新城中海昆明九号小区30107号商铺', 'province': '陕西省', 'city': '西安市', 'area': '未央区', 'telephone': '13379258614,(029)84535193', 'detail': 1, 'uid': '2bbd806c311c6fc9dbd8910c', 'detail_info': {'tag': '医疗;药店', 'type': 'hospital', 'detail_url': 'http://api.map.baidu.com/place/detail?uid=2bbd806c311c6fc9dbd8910c&output=html&source=placeapi_v2', 'image_num': '1', 'children': [], 'lat': 34.254986699832216, 'lng': 108.81641915096816}}"
"{'name': '泰生医药(和平店)', 'location': {'lat': 34.26021732322266, 'lng': 108.82110197316221}, 'address': '四号路与西宝疏导线交叉口东北50米', 'province': '陕西省', 'city': '西安市', 'area': '未央区', 'street_id': '448201c7ffb163990869d976', 'detail': 1, 'uid': '448201c7ffb163990869d976', 'detail_info': {'tag': '医疗;药店', 'type': 'hospital', 'detail_url': 'http://api.map.baidu.com/place/detail?uid=448201c7ffb163990869d976&output=html&source=placeapi_v2', 'image_num': '3', 'children': [], 'lat': 34.26021732322266, 'lng': 108.82110197316221}}"
"{'name': '瑞民大药房', 'location': {'lat': 34.25247633689036, 'lng': 108.82269345216368}, 'address': '陕西省西安市未央区第四巷', 'province': '陕西省', 'city': '西安市', 'area': '未央区', 'telephone': '17782786221', 'detail': 1, 'uid': '8e0dc8c864dc1c8309b93ae4', 'detail_info': {'tag': '医疗;药店', 'type': 'hospital', 'detail_url': 'http://api.map.baidu.com/place/detail?uid=8e0dc8c864dc1c8309b93ae4&output=html&source=placeapi_v2', 'image_num': '6', 'children': [], 'lat': 34.25247633689036, 'lng': 108.82269345216368}}"
"{'name': '永年医药超市', 'location': {'lat': 34.25863419512876, 'lng': 108.81351888504712}, 'address': '西围一巷与西环路交叉口西北200米', 'province': '陕西省', 'city': '西安市', 'area': '未央区', 'detail': 1, 'uid': '7d46ed362944f6dec036448a', 'detail_info': {'tag': '医疗;药店', 'type': 'hospital', 'detail_url': 'http://api.map.baidu.com/place/detail?uid=7d46ed362944f6dec036448a&output=html&source=placeapi_v2', 'image_num': '2', 'children': [], 'lat': 34.25863419512876, 'lng': 108.81351888504712}}"
"{'name': '泰生医药(兴隆店)', 'location': {'lat': 34.26079330343581, 'lng': 108.79965632001347}, 'address': '西安市长安区沣东大道与西户公路交叉路口往东约100米(沣泽佳苑东南侧约150米)', 'province': '陕西省', 'city': '西安市', 'area': '长安区', 'street_id': '75d0881af442134e3a04b139', 'telephone': '15319761665', 'detail': 1, 'uid': '75d0881af442134e3a04b139', 'detail_info': {'tag': '医疗;药店', 'navi_location': {'lng': 108.81079791895, 'lat': 34.265363849168}, 'type': 'hospital', 'detail_url': 'http://api.map.baidu.com/place/detail?uid=75d0881af442134e3a04b139&output=html&source=placeapi_v2', 'overall_rating': '0.0', 'image_num': '13', 'comment_num': '2', 'children': [], 'lat': 34.26079330343581, 'lng': 108.79965632001347}}"
"{'name': '陕西同欣大药房', 'location': {'lat': 34.25188595753853, 'lng': 108.82371298410962}, 'address': '陕西省西安市未央区第四巷', 'province': '陕西省', 'city': '西安市', 'area': '未央区', 'detail': 1, 'uid': '90a1cee0f6eac101a3acc463', 'detail_info': {'tag': '医疗;药店', 'type': 'hospital', 'detail_url': 'http://api.map.baidu.com/place/detail?uid=90a1cee0f6eac101a3acc463&output=html&source=placeapi_v2', 'image_num': '7', 'children': [], 'lat': 34.25188595753853, 'lng': 108.82371298410962}}"
"{'name': '德芝康大药房(凯沣店)', 'location': {'lat': 34.2546244813703, 'lng': 108.81179490800612}, 'address': '陕西省西安市未央区西环路2号西60米', 'province': '陕西省', 'city': '西安市', 'area': '未央区', 'detail': 1, 'uid': 'f17b76b4d2123d6f631809d7', 'detail_info': {'tag': '医疗;药店', 'type': 'hospital', 'detail_url': 'http://api.map.baidu.com/place/detail?uid=f17b76b4d2123d6f631809d7&output=html&source=placeapi_v2', 'image_num': '1', 'children': [], 'lat': 34.2546244813703, 'lng': 108.81179490800612}}"
"{'name': '马明仁膏药铺(沣东吾悦广场店)', 'location': {'lat': 34.2549097442383, 'lng': 108.81641606568245}, 'address': '陕西省西安市未央区昆明路辅路', 'province': '陕西省', 'city': '西安市', 'area': '未央区', 'detail': 1, 'uid': 'e124e245857e32155a3ac838', 'detail_info': {'tag': '医疗;药店', 'type': 'hospital', 'detail_url': 'http://api.map.baidu.com/place/detail?uid=e124e245857e32155a3ac838&output=html&source=placeapi_v2', 'image_num': '1', 'children': [], 'lat': 34.2549097442383, 'lng': 108.81641606568245}}"
"{'name': '裕创大药房', 'location': {'lat': 34.26197160472846, 'lng': 108.79614795255574}, 'address': '陕西省西安市长安区沣东大道', 'province': '陕西省', 'city': '西安市', 'area': '长安区', 'detail': 1, 'uid': 'df4baf8e3138aa202bd7ab12', 'detail_info': {'tag': '医疗;药店', 'type': 'hospital', 'detail_url': 'http://api.map.baidu.com/place/detail?uid=df4baf8e3138aa202bd7ab12&output=html&source=placeapi_v2', 'image_num': '3', 'children': [], 'lat': 34.26197160472846, 'lng': 108.79614795255574}}"
"{'name': '宝露堂医药', 'location': {'lat': 34.25838268708606, 'lng': 108.79623422765437}, 'address': '陕西省西安市长安区王寺南街66号附近', 'province': '陕西省', 'city': '西安市', 'area': '长安区', 'telephone': '15656967319', 'detail': 1, 'uid': '2d8613a0368b4e41873304c1', 'detail_info': {'tag': '医疗;药店', 'type': 'hospital', 'detail_url': 'http://api.map.baidu.com/place/detail?uid=2d8613a0368b4e41873304c1&output=html&source=placeapi_v2', 'image_num': '7', 'children': [], 'lat': 34.25838268708606, 'lng': 108.79623422765437}}"
"{'name': '华远大药房(王寺店)', 'location': {'lat': 34.26080369854096, 'lng': 108.80371277676707}, 'address': '陕西省西安市长安区王寺东街92号附近', 'province': '陕西省', 'city': '西安市', 'area': '长安区', 'detail': 1, 'uid': '893e94da4e5632b4c056acae', 'detail_info': {'tag': '医疗;药店', 'type': 'hospital', 'detail_url': 'http://api.map.baidu.com/place/detail?uid=893e94da4e5632b4c056acae&output=html&source=placeapi_v2', 'image_num': '6', 'children': [], 'lat': 34.26080369854096, 'lng': 108.80371277676707}}"
"{'name': '潮趣自助情趣馆', 'location': {'lat': 34.25799886851091, 'lng': 108.81421383879064}, 'address': '陕西省西安市未央区东环路1号西70米', 'province': '陕西省', 'city': '西安市', 'area': '未央区', 'detail': 1, 'uid': 'e289900dca169bddc336445b', 'detail_info': {'tag': '医疗;医疗保健', 'type': 'cater', 'detail_url': 'http://api.map.baidu.com/place/detail?uid=e289900dca169bddc336445b&output=html&source=placeapi_v2', 'image_num': '2', 'children': [], 'lat': 34.25799886851091, 'lng': 108.81421383879064}}"
"{'name': '富贵大药房(西围三巷)', 'location': {'lat': 34.25692095469665, 'lng': 108.81361900407676}, 'address': '陕西省西安市未央区好运小宾馆(西安西围墙村店)', 'province': '陕西省', 'city': '西安市', 'area': '未央区', 'street_id': 'e75b9b031042c2be077ce88e', 'detail': 1, 'uid': 'e75b9b031042c2be077ce88e', 'detail_info': {'tag': '医疗;药店', 'type': 'hospital', 'detail_url': 'http://api.map.baidu.com/place/detail?uid=e75b9b031042c2be077ce88e&output=html&source=placeapi_v2', 'overall_rating': '0.0', 'image_num': '9', 'comment_num': '1', 'children': [], 'lat': 34.25692095469665, 'lng': 108.81361900407676}}"
"{'name': '欣天台医药', 'location': {'lat': 34.265179456126326, 'lng': 108.81621809409722}, 'address': '未央区二路西150米附近', 'province': '陕西省', 'city': '西安市', 'area': '未央区', 'detail': 1, 'uid': '6b1f2dbe79bde29b2b11d1be', 'detail_info': {'tag': '医疗;药店', 'type': 'hospital', 'detail_url': 'http://api.map.baidu.com/place/detail?uid=6b1f2dbe79bde29b2b11d1be&output=html&source=placeapi_v2', 'image_num': '3', 'children': [], 'lat': 34.265179456126326, 'lng': 108.81621809409722}}"
"{'name': '同一医药(西安红光路店)', 'location': {'lat': 34.25984089218016, 'lng': 108.81353508723421}, 'address': '红光路西段阿房宫1号', 'province': '陕西省', 'city': '西安市', 'area': '未央区', 'street_id': '433803a9a12285302802e1f5', 'telephone': '15929739020', 'detail': 1, 'uid': '433803a9a12285302802e1f5', 'detail_info': {'tag': '医疗;药店', 'type': 'hospital', 'detail_url': 'http://api.map.baidu.com/place/detail?uid=433803a9a12285302802e1f5&output=html&source=placeapi_v2', 'image_num': '6', 'children': [], 'lat': 34.25984089218016, 'lng': 108.81353508723421}}"
"{'name': '华佗医药店(王寺分店)', 'location': {'lat': 34.259529141635056, 'lng': 108.79743276483353}, 'address': '西安市长安区王寺南街与中二巷交叉路口往东北约50米(万福花园-南区东侧约100米)', 'province': '陕西省', 'city': '西安市', 'area': '长安区', 'street_id': 'fc767524cbddfb844e776e09', 'detail': 1, 'uid': 'fc767524cbddfb844e776e09', 'detail_info': {'tag': '医疗;药店', 'navi_location': {'lng': 108.80864210341, 'lat': 34.264211728276}, 'type': 'hospital', 'detail_url': 'http://api.map.baidu.com/place/detail?uid=fc767524cbddfb844e776e09&output=html&source=placeapi_v2', 'overall_rating': '0.0', 'image_num': '5', 'comment_num': '1', 'children': [], 'lat': 34.259529141635056, 'lng': 108.79743276483353}}"
"{'name': '三桥社区卫生服务中心', 'location': {'lat': 34.304789864753126, 'lng': 108.81514389952443}, 'address': '西安市未央区三桥街道天章大道', 'province': '陕西省', 'city': '西安市', 'area': '未央区', 'telephone': '(029)84521609', 'detail': 1, 'uid': 'f6b771b7f828deced22dd6c2', 'detail_info': {'tag': '医疗;其他', 'navi_location': {'lng': 108.82632558873, 'lat': 34.309718079168}, 'type': 'hospital', 'detail_url': 'http://api.map.baidu.com/place/detail?uid=f6b771b7f828deced22dd6c2&output=html&source=placeapi_v2', 'overall_rating': '5.0', 'image_num': '1', 'comment_num': '1', 'children': [], 'lat': 34.304789864753126, 'lng': 108.81514389952443}}"
"{'name': '强森医疗(华润门诊部)', 'location': {'lat': 34.292485774786655, 'lng': 108.8188700277459}, 'address': '陕西省西安市未央区征和六路', 'province': '陕西省', 'city': '西安市', 'area': '未央区', 'telephone': '(029)89307011', 'detail': 1, 'uid': 'dda8191b0e71965b2b3a9f25', 'detail_info': {'tag': '医疗;其他', 'navi_location': {'lng': 108.83008942043, 'lat': 34.297179328453}, 'type': 'hospital', 'detail_url': 'http://api.map.baidu.com/place/detail?uid=dda8191b0e71965b2b3a9f25&output=html&source=placeapi_v2', 'image_num': '5', 'children': [], 'lat': 34.292485774786655, 'lng': 108.8188700277459}}"
"{'name': '三桥卫生所(三桥公路管理段东)', 'location': {'lat': 34.28975341946752, 'lng': 108.82399128194709}, 'address': '陕西省西安市未央区三桥西户路凤凰城临街商铺1层', 'province': '陕西省', 'city': '西安市', 'area': '未央区', 'street_id': '8bfd8e85a4f64aac9222e01b', 'detail': 1, 'uid': '8bfd8e85a4f64aac9222e01b', 'detail_info': {'tag': '医疗;诊所', 'type': 'hospital', 'detail_url': 'http://api.map.baidu.com/place/detail?uid=8bfd8e85a4f64aac9222e01b&output=html&source=placeapi_v2', 'overall_rating': '0.0', 'image_num': '16', 'comment_num': '1', 'children': [], 'lat': 34.28975341946752, 'lng': 108.82399128194709}}"
"{'name': '新军寨村卫生室', 'location': {'lat': 34.30754111140446, 'lng': 108.81521219924632}, 'address': '西安市未央区孙武路与天章大道交叉路口往西约100米', 'province': '陕西省', 'city': '西安市', 'area': '未央区', 'street_id': '1fbd4aa8f636a2217bf796bc', 'detail': 1, 'uid': '1fbd4aa8f636a2217bf796bc', 'detail_info': {'tag': '医疗;诊所', 'navi_location': {'lng': 108.82634735557, 'lat': 34.312375963125}, 'type': 'hospital', 'detail_url': 'http://api.map.baidu.com/place/detail?uid=1fbd4aa8f636a2217bf796bc&output=html&source=placeapi_v2', 'overall_rating': '0.0', 'image_num': '6', 'children': [], 'lat': 34.30754111140446, 'lng': 108.81521219924632}}"
"{'name': '京华口腔', 'location': {'lat': 34.2924455133263, 'lng': 108.82090039970511}, 'address': '陕西省西安市未央区征和六路', 'province': '陕西省', 'city': '西安市', 'area': '未央区', 'street_id': '1b702b678b028d22250bd056', 'telephone': '(029)89100512', 'detail': 1, 'uid': '1b702b678b028d22250bd056', 'detail_info': {'tag': '医疗;诊所', 'navi_location': {'lng': 108.83196646674, 'lat': 34.297303111924}, 'type': 'hospital', 'detail_url': 'http://api.map.baidu.com/place/detail?uid=1b702b678b028d22250bd056&output=html&source=placeapi_v2', 'image_num': '4', 'children': [], 'lat': 34.2924455133263, 'lng': 108.82090039970511}}"
"{'name': '三桥驾驶员体检站', 'location': {'lat': 34.286831882459246, 'lng': 108.81032141055289}, 'address': '西安市未央区天台八路付一路与征和四路交叉路口东北侧(朱宏物流西南侧约100米)', 'province': '陕西省', 'city': '西安市', 'area': '未央区', 'detail': 1, 'uid': '1f924e57b1f539d317b54b9c', 'detail_info': {'tag': '医疗;体检机构', 'type': 'hospital', 'detail_url': 'http://api.map.baidu.com/place/detail?uid=1f924e57b1f539d317b54b9c&output=html&source=placeapi_v2', 'image_num': '1', 'children': [], 'lat': 34.286831882459246, 'lng': 108.81032141055289}}"
"{'name': '李永涛医疗美容诊所', 'location': {'lat': 34.2918330966646, 'lng': 108.81998243214242}, 'address': '陕西省西安市西咸新区沣东新城三桥华润24城7号底商', 'province': '陕西省', 'city': '西安市', 'area': '未央区', 'detail': 1, 'uid': '69e07562d96d54550bf5ebe9', 'detail_info': {'tag': '医疗;诊所', 'type': 'hospital', 'detail_url': 'http://api.map.baidu.com/place/detail?uid=69e07562d96d54550bf5ebe9&output=html&source=placeapi_v2', 'overall_rating': '0.0', 'image_num': '8', 'children': [], 'lat': 34.2918330966646, 'lng': 108.81998243214242}}"
"{'name': '爱尚美口腔', 'location': {'lat': 34.29182788365654, 'lng': 108.81925130161287}, 'address': '陕西省西安市未央区征和六路', 'province': '陕西省', 'city': '西安市', 'area': '未央区', 'telephone': '(029)89305855', 'detail': 1, 'uid': 'fbb6b0d8b93517142b11d1bc', 'detail_info': {'tag': '医疗;诊所', 'type': 'hospital', 'detail_url': 'http://api.map.baidu.com/place/detail?uid=fbb6b0d8b93517142b11d1bc&output=html&source=placeapi_v2', 'image_num': '6', 'children': [], 'lat': 34.29182788365654, 'lng': 108.81925130161287}}"
"{'name': '健之优口腔诊所', 'location': {'lat': 34.302952896799404, 'lng': 108.80829743013204}, 'address': '陕西省西安市未央区世纪大道起航时代广场A座步行街一层后门', 'province': '陕西省', 'city': '西安市', 'area': '未央区', 'telephone': '18142391312', 'detail': 1, 'uid': '57cafc7e52b3547e52e5c52f', 'detail_info': {'tag': '医疗;诊所', 'type': 'hospital', 'detail_url': 'http://api.map.baidu.com/place/detail?uid=57cafc7e52b3547e52e5c52f&output=html&source=placeapi_v2', 'image_num': '1', 'children': [], 'lat': 34.302952896799404, 'lng': 108.80829743013204}}"
"{'name': '车张村卫生室', 'location': {'lat': 34.28849885847982, 'lng': 108.8182113229883}, 'address': '陕西省西安市未央区疏导路99号东北80米', 'province': '陕西省', 'city': '西安市', 'area': '未央区', 'detail': 1, 'uid': 'ef3a9f515752b7d617948e49', 'detail_info': {'tag': '医疗;诊所', 'type': 'hospital', 'detail_url': 'http://api.map.baidu.com/place/detail?uid=ef3a9f515752b7d617948e49&output=html&source=placeapi_v2', 'overall_rating': '5.0', 'image_num': '10', 'comment_num': '3', 'children': [], 'lat': 34.28849885847982, 'lng': 108.8182113229883}}"
"{'name': '涵美牙科', 'location': {'lat': 34.3023058612987, 'lng': 108.79983394356725}, 'address': '沣东三桥镇新店小区2区9栋', 'province': '陕西省', 'city': '西安市', 'area': '未央区', 'detail': 1, 'uid': '4dd482ef135e90d79de3217e', 'detail_info': {'tag': '医疗;诊所', 'type': 'hospital', 'detail_url': 'http://api.map.baidu.com/place/detail?uid=4dd482ef135e90d79de3217e&output=html&source=placeapi_v2', 'image_num': '2', 'children': [], 'lat': 34.3023058612987, 'lng': 108.79983394356725}}"
"{'name': '永年医药超市', 'location': {'lat': 34.29191853001221, 'lng': 108.82032432012177}, 'address': '西安市未央区', 'province': '陕西省', 'city': '西安市', 'area': '未央区', 'detail': 1, 'uid': 'a69a30c7d267ae79c6effbd9', 'detail_info': {'tag': '医疗;药店', 'type': 'hospital', 'detail_url': 'http://api.map.baidu.com/place/detail?uid=a69a30c7d267ae79c6effbd9&output=html&source=placeapi_v2', 'image_num': '6', 'children': [], 'lat': 34.29191853001221, 'lng': 108.82032432012177}}"
"{'name': '怡康医药超市', 'location': {'lat': 34.29181498226369, 'lng': 108.81952083742401}, 'address': '陕西省西安市未央区征和六路', 'province': '陕西省', 'city': '西安市', 'area': '未央区', 'detail': 1, 'uid': '63a294cd38bdf6627bf79641', 'detail_info': {'tag': '医疗;药店', 'type': 'hospital', 'detail_url': 'http://api.map.baidu.com/place/detail?uid=63a294cd38bdf6627bf79641&output=html&source=placeapi_v2', 'image_num': '4', 'children': [], 'lat': 34.29181498226369, 'lng': 108.81952083742401}}"
"{'name': '泰生医药(西咸大道店)', 'location': {'lat': 34.30340270986768, 'lng': 108.80802425135974}, 'address': '陕西省西安市未央区启航时代广场', 'province': '陕西省', 'city': '西安市', 'area': '未央区', 'street_id': 'bdf08924618bdf8fb5147fe8', 'detail': 1, 'uid': 'bdf08924618bdf8fb5147fe8', 'detail_info': {'tag': '医疗;药店', 'type': 'hospital', 'detail_url': 'http://api.map.baidu.com/place/detail?uid=bdf08924618bdf8fb5147fe8&output=html&source=placeapi_v2', 'price': '0.0', 'overall_rating': '0.0', 'image_num': '7', 'comment_num': '2', 'children': [], 'lat': 34.30340270986768, 'lng': 108.80802425135974}}"
"{'name': '妙应堂大药房(西咸路二店)', 'location': {'lat': 34.30209039646682, 'lng': 108.81136289957593}, 'address': '陕西省西安市未央区启航佳苑东区(后卫寨地铁站东)', 'province': '陕西省', 'city': '西安市', 'area': '未央区', 'telephone': '(029)89112806', 'detail': 1, 'uid': '280251b2c2a97a6d1c3894e7', 'detail_info': {'tag': '医疗;药店', 'type': 'hospital', 'detail_url': 'http://api.map.baidu.com/place/detail?uid=280251b2c2a97a6d1c3894e7&output=html&source=placeapi_v2', 'overall_rating': '3.0', 'image_num': '6', 'comment_num': '2', 'children': [], 'lat': 34.30209039646682, 'lng': 108.81136289957593}}"
"{'name': '华康医药(一分店)', 'location': {'lat': 34.29128071106793, 'lng': 108.81803929264636}, 'address': '陕西省西安市未央区征和六路', 'province': '陕西省', 'city': '西安市', 'area': '未央区', 'detail': 1, 'uid': 'e47013cd77cd98dd82a12e86', 'detail_info': {'tag': '医疗;药店', 'type': 'hospital', 'detail_url': 'http://api.map.baidu.com/place/detail?uid=e47013cd77cd98dd82a12e86&output=html&source=placeapi_v2', 'image_num': '2', 'children': [], 'lat': 34.29128071106793, 'lng': 108.81803929264636}}"
"{'name': '诚康大药房', 'location': {'lat': 34.28284432147161, 'lng': 108.81106645371882}, 'address': '西安市未央区天台八路付二路(峰泰二手车西侧约50米)', 'province': '陕西省', 'city': '西安市', 'area': '未央区', 'detail': 1, 'uid': 'cb8890739b839af617948ee9', 'detail_info': {'tag': '医疗;药店', 'type': 'hospital', 'detail_url': 'http://api.map.baidu.com/place/detail?uid=cb8890739b839af617948ee9&output=html&source=placeapi_v2', 'image_num': '1', 'children': [], 'lat': 34.28284432147161, 'lng': 108.81106645371882}}"
"{'name': '妙应堂大药房(西咸路店)', 'location': {'lat': 34.30390147791777, 'lng': 108.79903366044825}, 'address': '世纪大道新店小区东门向里40米附近', 'province': '陕西省', 'city': '西安市', 'area': '未央区', 'telephone': '(029)89102689', 'detail': 1, 'uid': '45288f259d191ef84e2fdf28', 'detail_info': {'tag': '医疗;药店', 'type': 'hospital', 'detail_url': 'http://api.map.baidu.com/place/detail?uid=45288f259d191ef84e2fdf28&output=html&source=placeapi_v2', 'image_num': '5', 'children': [], 'lat': 34.30390147791777, 'lng': 108.79903366044825}}"
"{'name': '怡康医药超市', 'location': {'lat': 34.300045483143194, 'lng': 108.81784650503407}, 'address': '陕西省西安市未央区后卫寨立交', 'province': '陕西省', 'city': '西安市', 'area': '未央区', 'detail': 1, 'uid': 'd313382008d77d3a343a7158', 'detail_info': {'tag': '医疗;药店', 'type': 'hospital', 'detail_url': 'http://api.map.baidu.com/place/detail?uid=d313382008d77d3a343a7158&output=html&source=placeapi_v2', 'image_num': '2', 'children': [], 'lat': 34.300045483143194, 'lng': 108.81784650503407}}"
"{'name': '众友健康药房', 'location': {'lat': 34.3020926702178, 'lng': 108.80962609913735}, 'address': '陕西省西安市未央区世纪大道', 'province': '陕西省', 'city': '西安市', 'area': '未央区', 'detail': 1, 'uid': 'a8dcc8a8f090eaf425e0a008', 'detail_info': {'tag': '医疗;药店', 'type': 'hospital', 'detail_url': 'http://api.map.baidu.com/place/detail?uid=a8dcc8a8f090eaf425e0a008&output=html&source=placeapi_v2', 'image_num': '5', 'children': [], 'lat': 34.3020926702178, 'lng': 108.80962609913735}}"
"{'name': '华仁堂大药房', 'location': {'lat': 34.291822819726036, 'lng': 108.81818309397264}, 'address': '陕西省西安市未央区华润二十四城20号楼10101', 'province': '陕西省', 'city': '西安市', 'area': '未央区', 'telephone': '15691851981', 'detail': 1, 'uid': 'c46761aae7a8bbc5a8f0cdb2', 'detail_info': {'tag': '医疗;药店', 'type': 'hospital', 'detail_url': 'http://api.map.baidu.com/place/detail?uid=c46761aae7a8bbc5a8f0cdb2&output=html&source=placeapi_v2', 'image_num': '7', 'children': [], 'lat': 34.291822819726036, 'lng': 108.81818309397264}}"
"{'name': '广仁堂医药', 'location': {'lat': 34.30384905364204, 'lng': 108.81881992413066}, 'address': '陕西省西安市未央区天章大道', 'province': '陕西省', 'city': '西安市', 'area': '未央区', 'detail': 1, 'uid': 'bca0b6b68b413ac6f7b91684', 'detail_info': {'tag': '医疗;药店', 'type': 'hospital', 'detail_url': 'http://api.map.baidu.com/place/detail?uid=bca0b6b68b413ac6f7b91684&output=html&source=placeapi_v2', 'image_num': '3', 'children': [], 'lat': 34.30384905364204, 'lng': 108.81881992413066}}"
"{'name': '华远大药房(后卫寨店)', 'location': {'lat': 34.30295282612681, 'lng': 108.80890461132664}, 'address': '西安市未央区启航佳苑a区12号楼', 'province': '陕西省', 'city': '西安市', 'area': '未央区', 'street_id': 'bc226207038144c2f02d830a', 'telephone': '15389017978', 'detail': 1, 'uid': 'bc226207038144c2f02d830a', 'detail_info': {'tag': '医疗;药店', 'type': 'hospital', 'detail_url': 'http://api.map.baidu.com/place/detail?uid=bc226207038144c2f02d830a&output=html&source=placeapi_v2', 'overall_rating': '0.0', 'image_num': '6', 'comment_num': '2', 'children': [], 'lat': 34.30295282612681, 'lng': 108.80890461132664}}"
"{'name': '聚荣堂大药房', 'location': {'lat': 34.30781612963417, 'lng': 108.81597879087855}, 'address': '西安市未央区孙武路与天章大道交叉路口往西北约50米', 'province': '陕西省', 'city': '西安市', 'area': '未央区', 'street_id': '3bbfac3a60af95dd250bd0ed', 'telephone': '15619018616', 'detail': 1, 'uid': '3bbfac3a60af95dd250bd0ed', 'detail_info': {'tag': '医疗;药店', 'type': 'hospital', 'detail_url': 'http://api.map.baidu.com/place/detail?uid=3bbfac3a60af95dd250bd0ed&output=html&source=placeapi_v2', 'image_num': '4', 'children': [], 'lat': 34.30781612963417, 'lng': 108.81597879087855}}"
"{'name': '千顺医药超市', 'location': {'lat': 34.29301569746542, 'lng': 108.8201622703259}, 'address': '沣东新城三桥新街华润二十四城底商04-104', 'province': '陕西省', 'city': '西安市', 'area': '未央区', 'detail': 1, 'uid': 'cfcc55c7e5bd68d7902ca33d', 'detail_info': {'tag': '医疗;药店', 'type': 'hospital', 'detail_url': 'http://api.map.baidu.com/place/detail?uid=cfcc55c7e5bd68d7902ca33d&output=html&source=placeapi_v2', 'image_num': '1', 'children': [], 'lat': 34.29301569746542, 'lng': 108.8201622703259}}"
"{'name': '秦健医药', 'location': {'lat': 34.30368037452475, 'lng': 108.81862188956778}, 'address': '陕西省西安市未央区三桥街道孙武路紫境城', 'province': '陕西省', 'city': '西安市', 'area': '未央区', 'street_id': 'ab2a6778e4606515c91b9599', 'detail': 1, 'uid': 'ab2a6778e4606515c91b9599', 'detail_info': {'tag': '医疗;药店', 'type': 'hospital', 'detail_url': 'http://api.map.baidu.com/place/detail?uid=ab2a6778e4606515c91b9599&output=html&source=placeapi_v2', 'image_num': '4', 'children': [], 'lat': 34.30368037452475, 'lng': 108.81862188956778}}"
"{'name': '新德医药超市', 'location': {'lat': 34.28933569029333, 'lng': 108.82410782775835}, 'address': '陕西省西安市未央区西户公路', 'province': '陕西省', 'city': '西安市', 'area': '未央区', 'detail': 1, 'uid': '278d73ea1751a845c17da23b', 'detail_info': {'tag': '医疗;药店', 'type': 'hospital', 'detail_url': 'http://api.map.baidu.com/place/detail?uid=278d73ea1751a845c17da23b&output=html&source=placeapi_v2', 'image_num': '7', 'children': [], 'lat': 34.28933569029333, 'lng': 108.82410782775835}}"
"{'name': '华远大药房(孙武路店)', 'location': {'lat': 34.30754124525394, 'lng': 108.81779610741357}, 'address': '西安市未央区孙武路与天章大道交叉路口往东约50米', 'province': '陕西省', 'city': '西安市', 'area': '未央区', 'detail': 1, 'uid': '952132c2152b6996aaf0cd63', 'detail_info': {'tag': '医疗;药店', 'type': 'hospital', 'detail_url': 'http://api.map.baidu.com/place/detail?uid=952132c2152b6996aaf0cd63&output=html&source=placeapi_v2', 'image_num': '3', 'children': [], 'lat': 34.30754124525394, 'lng': 108.81779610741357}}"
"{'name': '泰生医药(新店子村卫生室北)', 'location': {'lat': 34.303847592199475, 'lng': 108.798680400577}, 'address': '郭杜街道三桥镇新店小区三区一幢1单元', 'province': '陕西省', 'city': '西安市', 'area': '未央区', 'detail': 1, 'uid': 'cff8171af8f8b46b095cb3b9', 'detail_info': {'tag': '医疗;药店', 'type': 'hospital', 'detail_url': 'http://api.map.baidu.com/place/detail?uid=cff8171af8f8b46b095cb3b9&output=html&source=placeapi_v2', 'image_num': '1', 'children': [], 'lat': 34.303847592199475, 'lng': 108.798680400577}}"
"{'name': '西坡村卫生室', 'location': {'lat': 34.33670316409377, 'lng': 108.81856307189477}, 'address': '陕西省西安市未央区芊域阳光(天章大道东)', 'province': '陕西省', 'city': '西安市', 'area': '未央区', 'street_id': '9cc2eb12609bb991471a3206', 'detail': 1, 'uid': '9cc2eb12609bb991471a3206', 'detail_info': {'tag': '医疗;诊所', 'type': 'hospital', 'detail_url': 'http://api.map.baidu.com/place/detail?uid=9cc2eb12609bb991471a3206&output=html&source=placeapi_v2', 'image_num': '4', 'children': [], 'lat': 34.33670316409377, 'lng': 108.81856307189477}}"
"{'name': '老年公寓', 'location': {'lat': 34.319126541409965, 'lng': 108.79320801391823}, 'address': '陕西省西安市未央区G3001(西安绕城高速)', 'province': '陕西省', 'city': '西安市', 'area': '未央区', 'detail': 1, 'uid': 'f5eb1e336ce1e0f933169b28', 'detail_info': {'tag': '医疗;疗养院', 'type': 'hospital', 'detail_url': 'http://api.map.baidu.com/place/detail?uid=f5eb1e336ce1e0f933169b28&output=html&source=placeapi_v2', 'image_num': '1', 'children': [], 'lat': 34.319126541409965, 'lng': 108.79320801391823}}"
"{'name': '陕西嘉事堂医药有限责任公司提货处', 'location': {'lat': 34.33384850816976, 'lng': 108.8212152255779}, 'address': '丰产路附近', 'province': '陕西省', 'city': '西安市', 'area': '未央区', 'detail': 1, 'uid': '474b16ca488c7c5b6b49f388', 'detail_info': {'tag': '医疗;药店', 'type': 'hospital', 'detail_url': 'http://api.map.baidu.com/place/detail?uid=474b16ca488c7c5b6b49f388&output=html&source=placeapi_v2', 'image_num': '1', 'children': [], 'lat': 34.33384850816976, 'lng': 108.8212152255779}}"
"{'name': '裕创大药房', 'location': {'lat': 34.33670316409377, 'lng': 108.81856307189477}, 'address': '陕西省西安市未央区天章大道', 'province': '陕西省', 'city': '西安市', 'area': '未央区', 'telephone': '15829926987,(029)84528115', 'detail': 1, 'uid': '513a512b8fc636c222026238', 'detail_info': {'tag': '医疗;药店', 'type': 'hospital', 'detail_url': 'http://api.map.baidu.com/place/detail?uid=513a512b8fc636c222026238&output=html&source=placeapi_v2', 'image_num': '3', 'children': [], 'lat': 34.33670316409377, 'lng': 108.81856307189477}}"
"{'name': '新德医药超市', 'location': {'lat': 34.3346674380217, 'lng': 108.82340469416607}, 'address': '陕西省西安市未央区丰产路73号北50米', 'province': '陕西省', 'city': '西安市', 'area': '未央区', 'detail': 1, 'uid': 'bfbb95c7db90d9d7db131849', 'detail_info': {'tag': '医疗;药店', 'type': 'hospital', 'detail_url': 'http://api.map.baidu.com/place/detail?uid=bfbb95c7db90d9d7db131849&output=html&source=placeapi_v2', 'image_num': '4', 'children': [], 'lat': 34.3346674380217, 'lng': 108.82340469416607}}"
"{'name': '石桥村卫生室', 'location': {'lat': 34.3768186848282, 'lng': 108.77979222360858}, 'address': '陕西省咸阳市渭城区长陵路与101县道交叉口西200米', 'province': '陕西省', 'city': '咸阳市', 'area': '渭城区', 'street_id': '4c3ad5bb0c6cc435902ca30e', 'detail': 1, 'uid': '4c3ad5bb0c6cc435902ca30e', 'detail_info': {'tag': '医疗;诊所', 'type': 'hospital', 'detail_url': 'http://api.map.baidu.com/place/detail?uid=4c3ad5bb0c6cc435902ca30e&output=html&source=placeapi_v2', 'image_num': '2', 'children': [], 'lat': 34.3768186848282, 'lng': 108.77979222360858}}"
"{'name': '万康大药房', 'location': {'lat': 34.37396648043373, 'lng': 108.77271095832002}, 'address': '朝阳五路北口', 'province': '陕西省', 'city': '咸阳市', 'area': '渭城区', 'detail': 1, 'uid': '7f0801f5c2a2efea86420ec1', 'detail_info': {'tag': '医疗;药店', 'type': 'hospital', 'detail_url': 'http://api.map.baidu.com/place/detail?uid=7f0801f5c2a2efea86420ec1&output=html&source=placeapi_v2', 'image_num': '1', 'children': [], 'lat': 34.37396648043373, 'lng': 108.77271095832002}}"
"{'name': '百姓乐大药房(长陵路店)', 'location': {'lat': 34.37265388093634, 'lng': 108.76926385133814}, 'address': '渭城镇烤烟复考厂对面', 'province': '陕西省', 'city': '咸阳市', 'area': '渭城区', 'detail': 1, 'uid': 'bb1172094853b1a31811d5eb', 'detail_info': {'tag': '医疗;药店', 'type': 'hospital', 'detail_url': 'http://api.map.baidu.com/place/detail?uid=bb1172094853b1a31811d5eb&output=html&source=placeapi_v2', 'image_num': '4', 'children': [], 'lat': 34.37265388093634, 'lng': 108.76926385133814}}"
"{'name': '康惠大药房(长陵路店)', 'location': {'lat': 34.37397309016206, 'lng': 108.77258996912856}, 'address': '咸阳市渭城区朝阳五路与长陵路交叉口西50米', 'province': '陕西省', 'city': '咸阳市', 'area': '渭城区', 'street_id': '0ed20a157def5e9756bfff9d', 'detail': 1, 'uid': '0ed20a157def5e9756bfff9d', 'detail_info': {'tag': '医疗;药店', 'type': 'enterprise', 'detail_url': 'http://api.map.baidu.com/place/detail?uid=0ed20a157def5e9756bfff9d&output=html&source=placeapi_v2', 'children': [], 'lat': 34.37397309016206, 'lng': 108.77258996912856}}"
"{'name': '乐途成人用品超市', 'location': {'lat': 34.37183530183479, 'lng': 108.76712827741387}, 'address': '陕西省咸阳市渭城区X101', 'province': '陕西省', 'city': '咸阳市', 'area': '渭城区', 'street_id': '8b446eb4f763b8c1f7eafcb4', 'detail': 1, 'uid': '8b446eb4f763b8c1f7eafcb4', 'detail_info': {'tag': '医疗;医疗保健', 'type': 'shopping', 'detail_url': 'http://api.map.baidu.com/place/detail?uid=8b446eb4f763b8c1f7eafcb4&output=html&source=placeapi_v2', 'children': [], 'lat': 34.37183530183479, 'lng': 108.76712827741387}}"
"{'name': '利安医药超市(金旭店)', 'location': {'lat': 34.36933778074666, 'lng': 108.78090284415654}, 'address': '朝阳六路2号', 'province': '陕西省', 'city': '咸阳市', 'area': '渭城区', 'detail': 1, 'uid': '6102e3e03dc4fbfcb7f42f5c', 'detail_info': {'tag': '医疗;药店', 'type': 'hospital', 'detail_url': 'http://api.map.baidu.com/place/detail?uid=6102e3e03dc4fbfcb7f42f5c&output=html&source=placeapi_v2', 'overall_rating': '5.0', 'image_num': '4', 'comment_num': '1', 'children': [], 'lat': 34.36933778074666, 'lng': 108.78090284415654}}"
"{'name': '海蓓诊所', 'location': {'lat': 34.19697930484901, 'lng': 108.87952018210804}, 'address': '陕西省西安市雁塔区丈八一路9号', 'province': '陕西省', 'city': '西安市', 'area': '雁塔区', 'telephone': '(029)65691999', 'detail': 1, 'uid': '5908a6366e73dccc4e776e05', 'detail_info': {'tag': '医疗;诊所', 'type': 'hospital', 'detail_url': 'http://api.map.baidu.com/place/detail?uid=5908a6366e73dccc4e776e05&output=html&source=placeapi_v2', 'overall_rating': '0.0', 'image_num': '6', 'comment_num': '1', 'children': [], 'lat': 34.19697930484901, 'lng': 108.87952018210804}}"
"{'name': '西安雁塔健桥医院', 'location': {'lat': 34.205425649547855, 'lng': 108.84794197794768}, 'address': '西安市科技八路104号', 'province': '陕西省', 'city': '西安市', 'area': '雁塔区', 'street_id': '5f8f8f880dea90bcf03cba2f', 'telephone': '(029)83797617', 'detail': 1, 'uid': '5f8f8f880dea90bcf03cba2f', 'detail_info': {'tag': '医疗;其他', 'navi_location': {'lng': 108.85894853697, 'lat': 34.210150054867}, 'type': 'hospital', 'detail_url': 'http://api.map.baidu.com/place/detail?uid=5f8f8f880dea90bcf03cba2f&output=html&source=placeapi_v2', 'overall_rating': '1.8', 'image_num': '8', 'comment_num': '4', 'children': [], 'lat': 34.205425649547855, 'lng': 108.84794197794768}}"
"{'name': '陕西体育医院', 'location': {'lat': 34.20727631799979, 'lng': 108.88103869704473}, 'address': '西安市雁塔区丈八东路303号', 'province': '陕西省', 'city': '西安市', 'area': '雁塔区', 'street_id': '950442f7046312b24151c0fd', 'detail': 1, 'uid': '950442f7046312b24151c0fd', 'detail_info': {'tag': '医疗;综合医院', 'navi_location': {'lng': 108.89222027828, 'lat': 34.211167120322}, 'type': 'hospital', 'detail_url': 'http://api.map.baidu.com/place/detail?uid=950442f7046312b24151c0fd&output=html&source=placeapi_v2', 'price': '0.0', 'overall_rating': '0.0', 'image_num': '7', 'children': [], 'lat': 34.20727631799979, 'lng': 108.88103869704473}}"
"{'name': '西安市驾驶员体检中心', 'location': {'lat': 34.196008630886055, 'lng': 108.87318301596603}, 'address': '陕西省西安市雁塔区锦业路与丈八三路交口向东1500米路北', 'province': '陕西省', 'city': '西安市', 'area': '雁塔区', 'street_id': '1c86ebf6e810070e60180955', 'detail': 1, 'uid': '1c86ebf6e810070e60180955', 'detail_info': {'tag': '医疗;体检机构', 'navi_location': {'lng': 108.88416415589, 'lat': 34.200030186246}, 'type': 'hospital', 'detail_url': 'http://api.map.baidu.com/place/detail?uid=1c86ebf6e810070e60180955&output=html&source=placeapi_v2', 'overall_rating': '5.0', 'image_num': '10', 'comment_num': '4', 'children': [], 'lat': 34.196008630886055, 'lng': 108.87318301596603}}"
"{'name': '妃容医疗美容', 'location': {'lat': 34.209114706945826, 'lng': 108.8768515573582}, 'address': '西安市雁塔区科技七路与团结南路交叉路口往东约50米(高科朗山)', 'province': '陕西省', 'city': '西安市', 'area': '雁塔区', 'telephone': '(029)89526611', 'detail': 1, 'uid': 'c08a6964b3966f7c4bcc4a87', 'detail_info': {'tag': '医疗;其他', 'type': 'hospital', 'detail_url': 'http://api.map.baidu.com/place/detail?uid=c08a6964b3966f7c4bcc4a87&output=html&source=placeapi_v2', 'image_num': '1', 'children': [], 'lat': 34.209114706945826, 'lng': 108.8768515573582}}"
"{'name': '西安雁塔吴涛诊所', 'location': {'lat': 34.19896969242265, 'lng': 108.87124547540616}, 'address': '丈八三路5号北侧,绿地世纪城b区', 'province': '陕西省', 'city': '西安市', 'area': '雁塔区', 'street_id': 'cc788fde565bf88988fc060b', 'telephone': '13619203698', 'detail': 1, 'uid': 'cc788fde565bf88988fc060b', 'detail_info': {'tag': '医疗;诊所', 'navi_location': {'lng': 108.88210287495, 'lat': 34.203240192292}, 'type': 'hospital', 'detail_url': 'http://api.map.baidu.com/place/detail?uid=cc788fde565bf88988fc060b&output=html&source=placeapi_v2', 'overall_rating': '1.5', 'image_num': '11', 'comment_num': '2', 'children': [], 'lat': 34.19896969242265, 'lng': 108.87124547540616}}"
"{'name': '西安高新朱海燕口腔诊所', 'location': {'lat': 34.2091137001567, 'lng': 108.87580285394763}, 'address': '西安市雁塔区科技七路与团结南路交叉路口西南侧(高科朗山)', 'province': '陕西省', 'city': '西安市', 'area': '雁塔区', 'telephone': '(029)88217658', 'detail': 1, 'uid': '64c7739cd8e515a4c9e33cee', 'detail_info': {'tag': '医疗;诊所', 'navi_location': {'lng': 108.88694147525, 'lat': 34.21344143153}, 'type': 'hospital', 'detail_url': 'http://api.map.baidu.com/place/detail?uid=64c7739cd8e515a4c9e33cee&output=html&source=placeapi_v2', 'image_num': '3', 'children': [], 'lat': 34.2091137001567, 'lng': 108.87580285394763}}"
"{'name': '皓康口腔', 'location': {'lat': 34.20216903847237, 'lng': 108.8491690122686}, 'address': '西安市雁塔区', 'province': '陕西省', 'city': '西安市', 'area': '雁塔区', 'telephone': '(029)81020202', 'detail': 1, 'uid': '7839d7da86c806b8afee7ab7', 'detail_info': {'tag': '医疗;诊所', 'type': 'hospital', 'detail_url': 'http://api.map.baidu.com/place/detail?uid=7839d7da86c806b8afee7ab7&output=html&source=placeapi_v2', 'image_num': '2', 'children': [], 'lat': 34.20216903847237, 'lng': 108.8491690122686}}"
"{'name': '怡贝口腔诊所', 'location': {'lat': 34.19712474517688, 'lng': 108.87032758153636}, 'address': '陕西省西安市雁塔区丈八三路绿地世纪城艺饕街C座2层10204号', 'province': '陕西省', 'city': '西安市', 'area': '雁塔区', 'telephone': '(029)65690099', 'detail': 1, 'uid': '55eb8a3ea5fe6e922d473321', 'detail_info': {'tag': '医疗;诊所', 'type': 'hospital', 'detail_url': 'http://api.map.baidu.com/place/detail?uid=55eb8a3ea5fe6e922d473321&output=html&source=placeapi_v2', 'overall_rating': '5.0', 'image_num': '2', 'comment_num': '1', 'children': [], 'lat': 34.19712474517688, 'lng': 108.87032758153636}}"
"{'name': '陕西省血液病防治研究所附属医院', 'location': {'lat': 34.19249918915707, 'lng': 108.87485832408362}, 'address': '陕西省西安市雁塔区丈八二路12号', 'province': '陕西省', 'city': '西安市', 'area': '雁塔区', 'street_id': '1020060f1d0690bf1994c6a7', 'telephone': '(029)89363636', 'detail': 1, 'uid': '1020060f1d0690bf1994c6a7', 'detail_info': {'tag': '医疗;专科医院', 'navi_location': {'lng': 108.88648328248, 'lat': 34.196759852598}, 'type': 'hospital', 'detail_url': 'http://api.map.baidu.com/place/detail?uid=1020060f1d0690bf1994c6a7&output=html&source=placeapi_v2', 'overall_rating': '0.0', 'image_num': '10', 'children': [], 'lat': 34.19249918915707, 'lng': 108.87485832408362}}"
"{'name': '潘永鹏诊所', 'location': {'lat': 34.19613896379284, 'lng': 108.86812961196578}, 'address': '西安市雁塔区锦业路与锦业六街交叉路口北侧(新里仕嘉公寓A区)', 'province': '陕西省', 'city': '西安市', 'area': '雁塔区', 'street_id': '528e44e255e51573b6f42f7a', 'telephone': '15319769938', 'detail': 1, 'uid': '528e44e255e51573b6f42f7a', 'detail_info': {'tag': '医疗;诊所', 'navi_location': {'lng': 108.87931904002, 'lat': 34.200247125596}, 'type': 'hospital', 'detail_url': 'http://api.map.baidu.com/place/detail?uid=528e44e255e51573b6f42f7a&output=html&source=placeapi_v2', 'overall_rating': '1.0', 'image_num': '10', 'comment_num': '3', 'children': [], 'lat': 34.19613896379284, 'lng': 108.86812961196578}}"
"{'name': '陕西省老医协弘仁门诊部', 'location': {'lat': 34.200453218223245, 'lng': 108.84286536596595}, 'address': '丈八西路1号丈八派出所向西1000米', 'province': '陕西省', 'city': '西安市', 'area': '雁塔区', 'street_id': '7cba342ccdcf05f5ecdfcad8', 'telephone': '(029)86696120', 'detail': 1, 'uid': '7cba342ccdcf05f5ecdfcad8', 'detail_info': {'tag': '医疗;其他', 'navi_location': {'lng': 108.85408354249, 'lat': 34.204952738698}, 'type': 'hospital', 'detail_url': 'http://api.map.baidu.com/place/detail?uid=7cba342ccdcf05f5ecdfcad8&output=html&source=placeapi_v2', 'overall_rating': '3.7', 'image_num': '13', 'comment_num': '6', 'children': [], 'lat': 34.200453218223245, 'lng': 108.84286536596595}}"
"{'name': '西安英卓口腔门诊部', 'location': {'lat': 34.20964729646664, 'lng': 108.86773405634509}, 'address': '陕西省西安市雁塔区科技七路', 'province': '陕西省', 'city': '西安市', 'area': '雁塔区', 'detail': 1, 'uid': '16563e7e6338d8c0e60738e3', 'detail_info': {'tag': '医疗;其他', 'type': 'hospital', 'detail_url': 'http://api.map.baidu.com/place/detail?uid=16563e7e6338d8c0e60738e3&output=html&source=placeapi_v2', 'image_num': '1', 'children': [], 'lat': 34.20964729646664, 'lng': 108.86773405634509}}"
"{'name': '丈八东村卫生室', 'location': {'lat': 34.202246251101634, 'lng': 108.85024647740491}, 'address': '陕西省西安市雁塔区丈八六路辅路丈八南村内', 'province': '陕西省', 'city': '西安市', 'area': '雁塔区', 'street_id': '6f9d7b3980107e52c909f0b5', 'detail': 1, 'uid': '6f9d7b3980107e52c909f0b5', 'detail_info': {'tag': '医疗;诊所', 'type': 'hospital', 'detail_url': 'http://api.map.baidu.com/place/detail?uid=6f9d7b3980107e52c909f0b5&output=html&source=placeapi_v2', 'overall_rating': '0.0', 'image_num': '2', 'comment_num': '1', 'children': [], 'lat': 34.202246251101634, 'lng': 108.85024647740491}}"
"{'name': '丈八绿地世纪城社区卫生服务站', 'location': {'lat': 34.19633296016873, 'lng': 108.86891084858615}, 'address': '西安市雁塔区锦业路与锦业五街交叉路口往西北约50米(新里仕嘉公寓A区东南侧)', 'province': '陕西省', 'city': '西安市', 'area': '雁塔区', 'street_id': '557b72d36dc83e196d20b9c2', 'telephone': '(029)68250659', 'detail': 1, 'uid': '557b72d36dc83e196d20b9c2', 'detail_info': {'tag': '医疗;诊所', 'navi_location': {'lng': 108.8799858531, 'lat': 34.200147181305}, 'type': 'hospital', 'detail_url': 'http://api.map.baidu.com/place/detail?uid=557b72d36dc83e196d20b9c2&output=html&source=placeapi_v2', 'image_num': '8', 'children': [], 'lat': 34.19633296016873, 'lng': 108.86891084858615}}"
"{'name': '西安雁塔荆孙艳诊所', 'location': {'lat': 34.212924923236194, 'lng': 108.87488600736629}, 'address': '陕西省西安市雁塔区科技六路枫林意树北门东侧', 'province': '陕西省', 'city': '西安市', 'area': '雁塔区', 'street_id': '7beba7f561054225eb56fa8e', 'detail': 1, 'uid': '7beba7f561054225eb56fa8e', 'detail_info': {'tag': '医疗;诊所', 'type': 'hospital', 'detail_url': 'http://api.map.baidu.com/place/detail?uid=7beba7f561054225eb56fa8e&output=html&source=placeapi_v2', 'image_num': '8', 'children': [], 'lat': 34.212924923236194, 'lng': 108.87488600736629}}"
"{'name': '西安雁塔张景良诊所', 'location': {'lat': 34.2124621926481, 'lng': 108.88129066378025}, 'address': '沣惠南路36号橡树·街区E座1层', 'province': '陕西省', 'city': '西安市', 'area': '雁塔区', 'street_id': '977d04bfd12f6a759e95de65', 'telephone': '13309264669', 'detail': 1, 'uid': '977d04bfd12f6a759e95de65', 'detail_info': {'tag': '医疗;诊所', 'navi_location': {'lng': 108.89164002951, 'lat': 34.216356220773}, 'type': 'hospital', 'detail_url': 'http://api.map.baidu.com/place/detail?uid=977d04bfd12f6a759e95de65&output=html&source=placeapi_v2', 'overall_rating': '3.1', 'image_num': '5', 'comment_num': '5', 'children': [], 'lat': 34.2124621926481, 'lng': 108.88129066378025}}"
"{'name': '西安雁塔彭云清诊所', 'location': {'lat': 34.19882859199865, 'lng': 108.84265921084165}, 'address': '陕西省西安市雁塔区西三环东滩南社区3排6号', 'province': '陕西省', 'city': '西安市', 'area': '雁塔区', 'street_id': '5005bd1bad3c7dd3c42ba179', 'telephone': '13002963549', 'detail': 1, 'uid': '5005bd1bad3c7dd3c42ba179', 'detail_info': {'tag': '医疗;诊所', 'type': 'hospital', 'detail_url': 'http://api.map.baidu.com/place/detail?uid=5005bd1bad3c7dd3c42ba179&output=html&source=placeapi_v2', 'overall_rating': '0.0', 'image_num': '7', 'comment_num': '1', 'children': [], 'lat': 34.19882859199865, 'lng': 108.84265921084165}}"
"{'name': '康欣牙科', 'location': {'lat': 34.20254723101274, 'lng': 108.85011147416432}, 'address': '丈八南村内', 'province': '陕西省', 'city': '西安市', 'area': '雁塔区', 'street_id': '1746870c5466c144c4f50d50', 'detail': 1, 'uid': '1746870c5466c144c4f50d50', 'detail_info': {'tag': '医疗;诊所', 'navi_location': {'lng': 108.86084011774, 'lat': 34.207100198695}, 'type': 'hospital', 'detail_url': 'http://api.map.baidu.com/place/detail?uid=1746870c5466c144c4f50d50&output=html&source=placeapi_v2', 'overall_rating': '0.0', 'image_num': '5', 'comment_num': '1', 'children': [], 'lat': 34.20254723101274, 'lng': 108.85011147416432}}"
"{'name': '美康堂养生会馆', 'location': {'lat': 34.197057473133334, 'lng': 108.87065019489557}, 'address': '西安市雁塔区绿地世纪城2楼', 'province': '陕西省', 'city': '西安市', 'area': '雁塔区', 'detail': 1, 'uid': '081c19b59b464fe7ae080f0f', 'detail_info': {'tag': '医疗;其他', 'type': 'hospital', 'detail_url': 'http://api.map.baidu.com/place/detail?uid=081c19b59b464fe7ae080f0f&output=html&source=placeapi_v2', 'image_num': '5', 'children': [], 'lat': 34.197057473133334, 'lng': 108.87065019489557}}"
"{'name': '西安雁塔韩高红诊所', 'location': {'lat': 34.20353146539218, 'lng': 108.86388285442521}, 'address': '丈八四路6号缤纷南郡10幢4单元附近', 'province': '陕西省', 'city': '西安市', 'area': '雁塔区', 'street_id': '85b57dedf25d4676d1f49e34', 'detail': 1, 'uid': '85b57dedf25d4676d1f49e34', 'detail_info': {'tag': '医疗;诊所', 'type': 'hospital', 'detail_url': 'http://api.map.baidu.com/place/detail?uid=85b57dedf25d4676d1f49e34&output=html&source=placeapi_v2', 'image_num': '7', 'children': [], 'lat': 34.20353146539218, 'lng': 108.86388285442521}}"
"{'name': '西付社区卫生室', 'location': {'lat': 34.18292644658304, 'lng': 108.86064135600132}, 'address': '陕西省西安市雁塔区付村花园东区(锦业二路南100米)', 'province': '陕西省', 'city': '西安市', 'area': '雁塔区', 'street_id': 'e56bf5e3c3cf40440782c243', 'detail': 1, 'uid': 'e56bf5e3c3cf40440782c243', 'detail_info': {'tag': '医疗;诊所', 'navi_location': {'lng': 108.87160948299, 'lat': 34.187373397505}, 'type': 'hospital', 'detail_url': 'http://api.map.baidu.com/place/detail?uid=e56bf5e3c3cf40440782c243&output=html&source=placeapi_v2', 'overall_rating': '0.0', 'image_num': '4', 'comment_num': '1', 'children': [], 'lat': 34.18292644658304, 'lng': 108.86064135600132}}"
"{'name': '里花水村卫生室', 'location': {'lat': 34.198520243686204, 'lng': 108.8443234139931}, 'address': '陕西省西安市雁塔区里花水社区(北门)附近', 'province': '陕西省', 'city': '西安市', 'area': '雁塔区', 'street_id': '0fca0e611c21d9ef095cb3b7', 'detail': 1, 'uid': '0fca0e611c21d9ef095cb3b7', 'detail_info': {'tag': '医疗;诊所', 'navi_location': {'lng': 108.85547591604, 'lat': 34.203049421741}, 'type': 'hospital', 'detail_url': 'http://api.map.baidu.com/place/detail?uid=0fca0e611c21d9ef095cb3b7&output=html&source=placeapi_v2', 'overall_rating': '0.0', 'image_num': '11', 'comment_num': '2', 'children': [], 'lat': 34.198520243686204, 'lng': 108.8443234139931}}"
"{'name': '西安雁塔闫利军诊所', 'location': {'lat': 34.19903468988447, 'lng': 108.8485097597917}, 'address': '袁旗寨新村内', 'province': '陕西省', 'city': '西安市', 'area': '雁塔区', 'street_id': '3450a05cd5e0b084922ca389', 'detail': 1, 'uid': '3450a05cd5e0b084922ca389', 'detail_info': {'tag': '医疗;诊所', 'navi_location': {'lng': 108.8599023865, 'lat': 34.203695746841}, 'type': 'hospital', 'detail_url': 'http://api.map.baidu.com/place/detail?uid=3450a05cd5e0b084922ca389&output=html&source=placeapi_v2', 'overall_rating': '0.0', 'image_num': '6', 'comment_num': '1', 'children': [], 'lat': 34.19903468988447, 'lng': 108.8485097597917}}"
"{'name': '西安雁塔李志刚诊所', 'location': {'lat': 34.19822761946891, 'lng': 108.84476330176065}, 'address': '陕西省西安市雁塔区里花水社区41排2单元', 'province': '陕西省', 'city': '西安市', 'area': '雁塔区', 'street_id': 'e916c83a69365ed6f7eafcbc', 'detail': 1, 'uid': 'e916c83a69365ed6f7eafcbc', 'detail_info': {'tag': '医疗;诊所', 'type': 'hospital', 'detail_url': 'http://api.map.baidu.com/place/detail?uid=e916c83a69365ed6f7eafcbc&output=html&source=placeapi_v2', 'image_num': '10', 'children': [], 'lat': 34.19822761946891, 'lng': 108.84476330176065}}"
"{'name': '西安雁塔穆利颖中医综合诊所', 'location': {'lat': 34.20553937649525, 'lng': 108.84912948561191}, 'address': '陕西省西安市雁塔区科技八路辅路', 'province': '陕西省', 'city': '西安市', 'area': '雁塔区', 'detail': 1, 'uid': '9543225f8562d9b3b34c499a', 'detail_info': {'tag': '医疗;诊所', 'type': 'hospital', 'detail_url': 'http://api.map.baidu.com/place/detail?uid=9543225f8562d9b3b34c499a&output=html&source=placeapi_v2', 'image_num': '1', 'children': [], 'lat': 34.20553937649525, 'lng': 108.84912948561191}}"
"{'name': '西电集团医院驾驶员体检中心', 'location': {'lat': 34.19585747481765, 'lng': 108.87304876165003}, 'address': '锦业路与丈八三路交口向东1500米路北', 'province': '陕西省', 'city': '西安市', 'area': '雁塔区', 'street_id': '18cfdf39785cd8714151c0d4', 'detail': 1, 'uid': '18cfdf39785cd8714151c0d4', 'detail_info': {'tag': '医疗;体检机构', 'navi_location': {'lng': 108.88416415499, 'lat': 34.20002918595}, 'type': 'hospital', 'detail_url': 'http://api.map.baidu.com/place/detail?uid=18cfdf39785cd8714151c0d4&output=html&source=placeapi_v2', 'overall_rating': '5.0', 'image_num': '6', 'comment_num': '3', 'children': [], 'lat': 34.19585747481765, 'lng': 108.87304876165003}}"
"{'name': '闸口村卫生室', 'location': {'lat': 34.203447509668685, 'lng': 108.84995187889965}, 'address': '陕西省西安市雁塔区闸口社区内', 'province': '陕西省', 'city': '西安市', 'area': '雁塔区', 'street_id': '99c2bdd23e5c68ed8433044f', 'detail': 1, 'uid': '99c2bdd23e5c68ed8433044f', 'detail_info': {'tag': '医疗;诊所', 'type': 'hospital', 'detail_url': 'http://api.map.baidu.com/place/detail?uid=99c2bdd23e5c68ed8433044f&output=html&source=placeapi_v2', 'overall_rating': '0.0', 'image_num': '3', 'comment_num': '1', 'children': [], 'lat': 34.203447509668685, 'lng': 108.84995187889965}}"
"{'name': '东滩片区化中心社区', 'location': {'lat': 34.20128930066666, 'lng': 108.8457209032292}, 'address': '丈八西路北150米', 'province': '陕西省', 'city': '西安市', 'area': '雁塔区', 'street_id': 'b96a73e74a77c1697c29bda1', 'detail': 1, 'uid': 'b96a73e74a77c1697c29bda1', 'detail_info': {'tag': '医疗;诊所', 'type': 'hospital', 'detail_url': 'http://api.map.baidu.com/place/detail?uid=b96a73e74a77c1697c29bda1&output=html&source=placeapi_v2', 'image_num': '1', 'children': [], 'lat': 34.20128930066666, 'lng': 108.8457209032292}}"
"{'name': '陕西煤业化工集团机关卫生所', 'location': {'lat': 34.192063423327106, 'lng': 108.88084239792431}, 'address': '西安市雁塔区南三环路与丈八一路交叉路口东北侧(陕煤小区)', 'province': '陕西省', 'city': '西安市', 'area': '雁塔区', 'detail': 1, 'uid': '9b4b2f8653d880a19a0050cb', 'detail_info': {'tag': '医疗;诊所', 'type': 'hospital', 'detail_url': 'http://api.map.baidu.com/place/detail?uid=9b4b2f8653d880a19a0050cb&output=html&source=placeapi_v2', 'price': '0.0', 'overall_rating': '2.2', 'image_num': '11', 'children': [], 'lat': 34.192063423327106, 'lng': 108.88084239792431}}"
"{'name': '海派健康管理中心', 'location': {'lat': 34.1960574152957, 'lng': 108.86826209302446}, 'address': '艺饕街2楼号', 'province': '陕西省', 'city': '西安市', 'area': '雁塔区', 'detail': 1, 'uid': '237d5e865eace8242efaa796', 'detail_info': {'tag': '医疗;体检机构', 'type': 'hospital', 'detail_url': 'http://api.map.baidu.com/place/detail?uid=237d5e865eace8242efaa796&output=html&source=placeapi_v2', 'image_num': '4', 'children': [], 'lat': 34.1960574152957, 'lng': 108.86826209302446}}"
"{'name': '看看视力矫正中心', 'location': {'lat': 34.18444786455545, 'lng': 108.87667258683204}, 'address': '西安市雁塔区锦业二路与丈八二路交叉路口往东约100米(逸翠·尚府北区)', 'province': '陕西省', 'city': '西安市', 'area': '雁塔区', 'detail': 1, 'uid': 'ae62adf312485fa76d20b9e6', 'detail_info': {'tag': '医疗;其他', 'type': 'hospital', 'detail_url': 'http://api.map.baidu.com/place/detail?uid=ae62adf312485fa76d20b9e6&output=html&source=placeapi_v2', 'image_num': '6', 'children': [], 'lat': 34.18444786455545, 'lng': 108.87667258683204}}"
"{'name': '牙齿美容', 'location': {'lat': 34.19865075873716, 'lng': 108.84449311670957}, 'address': '西安市雁塔区', 'province': '陕西省', 'city': '西安市', 'area': '雁塔区', 'detail': 1, 'uid': '167847de67ad740616764313', 'detail_info': {'tag': '医疗;诊所', 'type': 'hospital', 'detail_url': 'http://api.map.baidu.com/place/detail?uid=167847de67ad740616764313&output=html&source=placeapi_v2', 'image_num': '3', 'children': [], 'lat': 34.19865075873716, 'lng': 108.84449311670957}}"
"{'name': '西安雁塔韩有全口腔诊所', 'location': {'lat': 34.19975071782165, 'lng': 108.84830638900681}, 'address': '西安市雁塔区丈八西路袁旗寨18排3单元', 'province': '陕西省', 'city': '西安市', 'area': '雁塔区', 'street_id': 'e13de4f652c3ce1ec17da29d', 'telephone': '(029)89192198', 'detail': 1, 'uid': 'e13de4f652c3ce1ec17da29d', 'detail_info': {'tag': '医疗;诊所', 'type': 'hospital', 'detail_url': 'http://api.map.baidu.com/place/detail?uid=e13de4f652c3ce1ec17da29d&output=html&source=placeapi_v2', 'overall_rating': '0.0', 'image_num': '23', 'children': [], 'lat': 34.19975071782165, 'lng': 108.84830638900681}}"
"{'name': '西安邦茂', 'location': {'lat': 34.19907481015715, 'lng': 108.85006433542094}, 'address': '陕西省西安市雁塔区丈八西路', 'province': '陕西省', 'city': '西安市', 'area': '雁塔区', 'street_id': '61aa8352fbac56ce2dfaa7e6', 'detail': 1, 'uid': '61aa8352fbac56ce2dfaa7e6', 'detail_info': {'tag': '医疗', 'type': 'hospital', 'detail_url': 'http://api.map.baidu.com/place/detail?uid=61aa8352fbac56ce2dfaa7e6&output=html&source=placeapi_v2', 'image_num': '6', 'children': [], 'lat': 34.19907481015715, 'lng': 108.85006433542094}}"
"{'name': '王中华骨健康馆', 'location': {'lat': 34.19865235123271, 'lng': 108.84412844414523}, 'address': '西安市雁塔区', 'province': '陕西省', 'city': '西安市', 'area': '雁塔区', 'detail': 1, 'uid': 'e976f2a2cfe8d1e4601c67ed', 'detail_info': {'tag': '医疗;其他', 'type': 'hospital', 'detail_url': 'http://api.map.baidu.com/place/detail?uid=e976f2a2cfe8d1e4601c67ed&output=html&source=placeapi_v2', 'image_num': '2', 'children': [], 'lat': 34.19865235123271, 'lng': 108.84412844414523}}"
"{'name': '圣安百草', 'location': {'lat': 34.20355250222145, 'lng': 108.85374434930522}, 'address': '陕西省西安市雁塔区瞪羚路26附近', 'province': '陕西省', 'city': '西安市', 'area': '雁塔区', 'detail': 1, 'uid': '24a76274286362d879dbd27e', 'detail_info': {'tag': '医疗', 'type': 'hospital', 'detail_url': 'http://api.map.baidu.com/place/detail?uid=24a76274286362d879dbd27e&output=html&source=placeapi_v2', 'image_num': '4', 'children': [], 'lat': 34.20355250222145, 'lng': 108.85374434930522}}"
"{'name': '冻龄龄', 'location': {'lat': 34.184745626451374, 'lng': 108.8780259864227}, 'address': '西安市雁塔区唐延南路与锦业二路交叉路口西北侧(逸翠·尚府北区)', 'province': '陕西省', 'city': '西安市', 'area': '雁塔区', 'detail': 1, 'uid': 'a5ca9a42534431b0dbd89151', 'detail_info': {'tag': '医疗', 'type': 'hospital', 'detail_url': 'http://api.map.baidu.com/place/detail?uid=a5ca9a42534431b0dbd89151&output=html&source=placeapi_v2', 'image_num': '3', 'children': [], 'lat': 34.184745626451374, 'lng': 108.8780259864227}}"
"{'name': '刘氏五行针疗法', 'location': {'lat': 34.198861729282086, 'lng': 108.84944497971082}, 'address': '西安市雁塔区', 'province': '陕西省', 'city': '西安市', 'area': '雁塔区', 'detail': 1, 'uid': '653797bdf36eb1922e473311', 'detail_info': {'tag': '医疗', 'type': 'hospital', 'detail_url': 'http://api.map.baidu.com/place/detail?uid=653797bdf36eb1922e473311&output=html&source=placeapi_v2', 'image_num': '1', 'children': [], 'lat': 34.198861729282086, 'lng': 108.84944497971082}}"
"{'name': '运动员服务中心', 'location': {'lat': 34.20687003055857, 'lng': 108.88043822744251}, 'address': '陕西省西安市雁塔区体育医院西(科技八路北)', 'province': '陕西省', 'city': '西安市', 'area': '雁塔区', 'street_id': '4035f26a9d60ab05b54f54c7', 'detail': 1, 'uid': '4035f26a9d60ab05b54f54c7', 'detail_info': {'tag': '医疗;疗养院', 'type': 'hospital', 'detail_url': 'http://api.map.baidu.com/place/detail?uid=4035f26a9d60ab05b54f54c7&output=html&source=placeapi_v2', 'image_num': '4', 'children': [], 'lat': 34.20687003055857, 'lng': 108.88043822744251}}"
"{'name': '雁塔区丈八街道西付社区中老年残疾人活动康复中心', 'location': {'lat': 34.18290223017363, 'lng': 108.86107256312309}, 'address': '丈八四路付村花园西付村委会隔壁附近', 'province': '陕西省', 'city': '西安市', 'area': '雁塔区', 'street_id': 'c876421cbd3d4954ddee8b51', 'detail': 1, 'uid': 'c876421cbd3d4954ddee8b51', 'detail_info': {'tag': '医疗;疗养院', 'type': 'hospital', 'detail_url': 'http://api.map.baidu.com/place/detail?uid=c876421cbd3d4954ddee8b51&output=html&source=placeapi_v2', 'image_num': '1', 'children': [], 'lat': 34.18290223017363, 'lng': 108.86107256312309}}"
"{'name': '西安南山松医疗康复器械有限公司', 'location': {'lat': 34.19614954908269, 'lng': 108.85527527748775}, 'address': '陕西省西安市雁塔区锦业路69号瞪羚谷A70106', 'province': '陕西省', 'city': '西安市', 'area': '雁塔区', 'telephone': '19991253281', 'detail': 1, 'uid': 'd71839bd2ac621f60b1cc7dd', 'detail_info': {'tag': '公司企业;公司', 'type': 'enterprise', 'detail_url': 'http://api.map.baidu.com/place/detail?uid=d71839bd2ac621f60b1cc7dd&output=html&source=placeapi_v2', 'children': [], 'lat': 34.19614954908269, 'lng': 108.85527527748775}}"
"{'name': '君泰医药(绿地店)', 'location': {'lat': 34.196613109159166, 'lng': 108.870386852642}, 'address': '西安市雁塔区丈八三路与锦业路交叉路口往西北约100米(中国银行西侧)', 'province': '陕西省', 'city': '西安市', 'area': '雁塔区', 'street_id': '478af02641e3b62a16a1909a', 'detail': 1, 'uid': '478af02641e3b62a16a1909a', 'detail_info': {'tag': '医疗;药店', 'navi_location': {'lng': 108.88203911988, 'lat': 34.200745426301}, 'type': 'hospital', 'detail_url': 'http://api.map.baidu.com/place/detail?uid=478af02641e3b62a16a1909a&output=html&source=placeapi_v2', 'price': '0.0', 'overall_rating': '1.0', 'image_num': '10', 'comment_num': '5', 'children': [], 'lat': 34.196613109159166, 'lng': 108.870386852642}}"
"{'name': '怡康医药超市(丈八三路店)', 'location': {'lat': 34.19878712103311, 'lng': 108.87109136397893}, 'address': '陕西省西安市雁塔区丈八三路西侧西安绿地世纪城仕嘉公寓A区4号楼10112室附近', 'province': '陕西省', 'city': '西安市', 'area': '雁塔区', 'street_id': 'b7a2a2e5652853c81b94c6e6', 'detail': 1, 'uid': 'b7a2a2e5652853c81b94c6e6', 'detail_info': {'tag': '医疗;药店', 'navi_location': {'lng': 108.88210377722, 'lat': 34.203136243645}, 'type': 'hospital', 'detail_url': 'http://api.map.baidu.com/place/detail?uid=b7a2a2e5652853c81b94c6e6&output=html&source=placeapi_v2', 'image_num': '5', 'children': [], 'lat': 34.19878712103311, 'lng': 108.87109136397893}}"
"{'name': '妙济堂国医馆(锦业二路店)', 'location': {'lat': 34.18463939129303, 'lng': 108.87786668439558}, 'address': '西安市雁塔区高新区锦业二路逸翠园三期北区第8幢4单元', 'province': '陕西省', 'city': '西安市', 'area': '雁塔区', 'street_id': '25f2310de893957c81288a6b', 'telephone': '(029)81128182', 'detail': 1, 'uid': '25f2310de893957c81288a6b', 'detail_info': {'tag': '医疗;药店', 'navi_location': {'lng': 108.88901430318, 'lat': 34.188549933932}, 'type': 'hospital', 'detail_url': 'http://api.map.baidu.com/place/detail?uid=25f2310de893957c81288a6b&output=html&source=placeapi_v2', 'image_num': '11', 'children': [], 'lat': 34.18463939129303, 'lng': 108.87786668439558}}"
"{'name': '怡康医药连锁超市(沣惠南路二店)', 'location': {'lat': 34.21219433412232, 'lng': 108.88112548199831}, 'address': '沣惠南路36号橡树街区第6幢2单元1层', 'province': '陕西省', 'city': '西安市', 'area': '雁塔区', 'street_id': '7631d9a7c8313cb4e215f947', 'detail': 1, 'uid': '7631d9a7c8313cb4e215f947', 'detail_info': {'tag': '医疗;药店', 'type': 'hospital', 'detail_url': 'http://api.map.baidu.com/place/detail?uid=7631d9a7c8313cb4e215f947&output=html&source=placeapi_v2', 'image_num': '2', 'children': [], 'lat': 34.21219433412232, 'lng': 108.88112548199831}}"
"{'name': '怡康医药(锦业路店)', 'location': {'lat': 34.19594078458001, 'lng': 108.8445259498825}, 'address': '锦业路尚品美地城南门', 'province': '陕西省', 'city': '西安市', 'area': '雁塔区', 'detail': 1, 'uid': 'b104f7e66e8d54d5d518b79a', 'detail_info': {'tag': '医疗;药店', 'type': 'hospital', 'detail_url': 'http://api.map.baidu.com/place/detail?uid=b104f7e66e8d54d5d518b79a&output=html&source=placeapi_v2', 'image_num': '1', 'children': [], 'lat': 34.19594078458001, 'lng': 108.8445259498825}}"
"{'name': '万百泉大药房(科技六路店)', 'location': {'lat': 34.21168463700523, 'lng': 108.8815365641599}, 'address': '高新区窑头东巷2号', 'province': '陕西省', 'city': '西安市', 'area': '雁塔区', 'street_id': 'd0e192fbfe372da8c61b75e5', 'detail': 1, 'uid': 'd0e192fbfe372da8c61b75e5', 'detail_info': {'tag': '医疗;药店', 'navi_location': {'lng': 108.89280613876, 'lat': 34.216195289575}, 'type': 'hospital', 'detail_url': 'http://api.map.baidu.com/place/detail?uid=d0e192fbfe372da8c61b75e5&output=html&source=placeapi_v2', 'image_num': '9', 'children': [], 'lat': 34.21168463700523, 'lng': 108.8815365641599}}"
"{'name': '中国再生医学', 'location': {'lat': 34.20420242133753, 'lng': 108.85678029973772}, 'address': '高新区瞪羚一路4号', 'province': '陕西省', 'city': '西安市', 'area': '雁塔区', 'street_id': '6dde7ceacb9a60753a13fdeb', 'detail': 1, 'uid': '6dde7ceacb9a60753a13fdeb', 'detail_info': {'tag': '公司企业;公司', 'type': 'enterprise', 'detail_url': 'http://api.map.baidu.com/place/detail?uid=6dde7ceacb9a60753a13fdeb&output=html&source=placeapi_v2', 'children': [], 'lat': 34.20420242133753, 'lng': 108.85678029973772}}"
"{'name': '新德医药超市', 'location': {'lat': 34.19352650345258, 'lng': 108.87058611508611}, 'address': '西安市雁塔区丈八三路与锦业一路交叉路口西北侧(旗远·锦樾)', 'province': '陕西省', 'city': '西安市', 'area': '雁塔区', 'detail': 1, 'uid': '8e4eaa67e9445c1c9cf77989', 'detail_info': {'tag': '医疗;药店', 'type': 'hospital', 'detail_url': 'http://api.map.baidu.com/place/detail?uid=8e4eaa67e9445c1c9cf77989&output=html&source=placeapi_v2', 'image_num': '1', 'children': [], 'lat': 34.19352650345258, 'lng': 108.87058611508611}}"
"{'name': '元祺堂', 'location': {'lat': 34.21262241575958, 'lng': 108.8807503839041}, 'address': '陕西省西安市雁塔区科技六路橡树街区商铺5-10302', 'province': '陕西省', 'city': '西安市', 'area': '雁塔区', 'telephone': '(029)89281968', 'detail': 1, 'uid': '6ed7d95ecc90ae4752e5c537', 'detail_info': {'tag': '休闲娱乐;其他', 'type': 'life', 'detail_url': 'http://api.map.baidu.com/place/detail?uid=6ed7d95ecc90ae4752e5c537&output=html&source=placeapi_v2', 'overall_rating': '0.0', 'image_num': '2', 'children': [], 'lat': 34.21262241575958, 'lng': 108.8807503839041}}"
"{'name': '老百姓大药房', 'location': {'lat': 34.19864827004946, 'lng': 108.84685213142137}, 'address': '陕西省西安市雁塔区丈八西路花水社区家都超市东门', 'province': '陕西省', 'city': '西安市', 'area': '雁塔区', 'street_id': 'b8ec1b67a71233d754bffff6', 'telephone': '(029)81024459', 'detail': 1, 'uid': 'b8ec1b67a71233d754bffff6', 'detail_info': {'tag': '医疗;药店', 'navi_location': {'lng': 108.85805405285, 'lat': 34.203213631188}, 'type': 'hospital', 'detail_url': 'http://api.map.baidu.com/place/detail?uid=b8ec1b67a71233d754bffff6&output=html&source=placeapi_v2', 'image_num': '9', 'children': [], 'lat': 34.19864827004946, 'lng': 108.84685213142137}}"
"{'name': '安臣大药房(丈八四路店)', 'location': {'lat': 34.202999102017344, 'lng': 108.86313672151236}, 'address': '西安市雁塔区瞪羚路与丈八四路交叉路口往西约100米(罗马景福城)', 'province': '陕西省', 'city': '西安市', 'area': '雁塔区', 'detail': 1, 'uid': '5dfb43463caa043dc4f0255f', 'detail_info': {'tag': '医疗;药店', 'type': 'hospital', 'detail_url': 'http://api.map.baidu.com/place/detail?uid=5dfb43463caa043dc4f0255f&output=html&source=placeapi_v2', 'image_num': '1', 'children': [], 'lat': 34.202999102017344, 'lng': 108.86313672151236}}"
"{'name': '康爱多大药房', 'location': {'lat': 34.204152766703345, 'lng': 108.84909104369437}, 'address': '南郑大道24号附近', 'province': '陕西省', 'city': '西安市', 'area': '雁塔区', 'street_id': '97b3675ce2594b00591093af', 'detail': 1, 'uid': '97b3675ce2594b00591093af', 'detail_info': {'tag': '医疗;药店', 'type': 'hospital', 'detail_url': 'http://api.map.baidu.com/place/detail?uid=97b3675ce2594b00591093af&output=html&source=placeapi_v2', 'image_num': '4', 'children': [], 'lat': 34.204152766703345, 'lng': 108.84909104369437}}"
"{'name': '泰生医药', 'location': {'lat': 34.21160957601252, 'lng': 108.88152766607445}, 'address': '西安市雁塔区窑头东巷与窑头北巷交叉路口往东约50米(糖果house)', 'province': '陕西省', 'city': '西安市', 'area': '雁塔区', 'detail': 1, 'uid': '6e9a0065741ca641f603b83e', 'detail_info': {'tag': '医疗;药店', 'type': 'hospital', 'detail_url': 'http://api.map.baidu.com/place/detail?uid=6e9a0065741ca641f603b83e&output=html&source=placeapi_v2', 'image_num': '1', 'children': [], 'lat': 34.21160957601252, 'lng': 108.88152766607445}}"
"{'name': '济德大药房(丈八六路店)', 'location': {'lat': 34.20081689287098, 'lng': 108.85186185687138}, 'address': '西安市雁塔区丈八六路与丈八西路交叉路口往北约50米(龙天名俊)', 'province': '陕西省', 'city': '西安市', 'area': '雁塔区', 'detail': 1, 'uid': '9c24bf568ed58e974afc8d43', 'detail_info': {'tag': '医疗;药店', 'type': 'hospital', 'detail_url': 'http://api.map.baidu.com/place/detail?uid=9c24bf568ed58e974afc8d43&output=html&source=placeapi_v2', 'image_num': '1', 'children': [], 'lat': 34.20081689287098, 'lng': 108.85186185687138}}"
"{'name': '怡康医药超市', 'location': {'lat': 34.203459562155814, 'lng': 108.86136885598434}, 'address': '陕西省西安市雁塔区瞪羚路', 'province': '陕西省', 'city': '西安市', 'area': '雁塔区', 'detail': 1, 'uid': '10c639142d1ebaf622f0175a', 'detail_info': {'tag': '医疗;药店', 'navi_location': {'lng': 108.87242186558, 'lat': 34.207876944243}, 'type': 'hospital', 'detail_url': 'http://api.map.baidu.com/place/detail?uid=10c639142d1ebaf622f0175a&output=html&source=placeapi_v2', 'image_num': '5', 'children': [], 'lat': 34.203459562155814, 'lng': 108.86136885598434}}"
"{'name': '泰生医药(丈八二路店)', 'location': {'lat': 34.18372085423946, 'lng': 108.8765157221867}, 'address': '锦业二路逸翠尚府南区1幢80102号', 'province': '陕西省', 'city': '西安市', 'area': '雁塔区', 'street_id': 'd503a66691c2b575f942b201', 'detail': 1, 'uid': 'd503a66691c2b575f942b201', 'detail_info': {'tag': '医疗;药店', 'navi_location': {'lng': 108.8878250904, 'lat': 34.187976795973}, 'type': 'hospital', 'detail_url': 'http://api.map.baidu.com/place/detail?uid=d503a66691c2b575f942b201&output=html&source=placeapi_v2', 'price': '0.0', 'overall_rating': '4.0', 'image_num': '8', 'comment_num': '1', 'children': [], 'lat': 34.18372085423946, 'lng': 108.8765157221867}}"
"{'name': '大有益丰大药房', 'location': {'lat': 34.21089591695663, 'lng': 108.86671447211475}, 'address': '陕西省西安市雁塔区国宾中央区(科技七路北)', 'province': '陕西省', 'city': '西安市', 'area': '雁塔区', 'detail': 1, 'uid': '2bad44a9470fcd7993114c55', 'detail_info': {'tag': '医疗;药店', 'type': 'hospital', 'detail_url': 'http://api.map.baidu.com/place/detail?uid=2bad44a9470fcd7993114c55&output=html&source=placeapi_v2', 'image_num': '10', 'children': [], 'lat': 34.21089591695663, 'lng': 108.86671447211475}}"
"{'name': '怡康医药超市(丈八北路七店)', 'location': {'lat': 34.20966324607687, 'lng': 108.86778679984435}, 'address': '陕西省西安市雁塔区丈八北路南段西侧国宾中央区19幢1层', 'province': '陕西省', 'city': '西安市', 'area': '雁塔区', 'detail': 1, 'uid': 'dedcbf26ca24a3628bb988d7', 'detail_info': {'tag': '医疗;药店', 'navi_location': {'lng': 108.87873071369, 'lat': 34.213783767948}, 'type': 'hospital', 'detail_url': 'http://api.map.baidu.com/place/detail?uid=dedcbf26ca24a3628bb988d7&output=html&source=placeapi_v2', 'image_num': '8', 'children': [], 'lat': 34.20966324607687, 'lng': 108.86778679984435}}"
"{'name': '万百泉大药房(东滩社区店)', 'location': {'lat': 34.198055804463856, 'lng': 108.84262405175905}, 'address': '西安市雁塔区丈八七路8号附近', 'province': '陕西省', 'city': '西安市', 'area': '雁塔区', 'detail': 1, 'uid': '2a9a5574677fc7c852e5c587', 'detail_info': {'tag': '医疗;药店', 'type': 'hospital', 'detail_url': 'http://api.map.baidu.com/place/detail?uid=2a9a5574677fc7c852e5c587&output=html&source=placeapi_v2', 'image_num': '10', 'children': [], 'lat': 34.198055804463856, 'lng': 108.84262405175905}}"
"{'name': '怡康医药超市', 'location': {'lat': 34.181964313659314, 'lng': 108.82746983525077}, 'address': '陕西省西安市长安区上林苑一路辅路', 'province': '陕西省', 'city': '西安市', 'area': '长安区', 'detail': 1, 'uid': 'b359103fabb21eacc2f1cf1b', 'detail_info': {'tag': '医疗;药店', 'type': 'hospital', 'detail_url': 'http://api.map.baidu.com/place/detail?uid=b359103fabb21eacc2f1cf1b&output=html&source=placeapi_v2', 'image_num': '4', 'children': [], 'lat': 34.181964313659314, 'lng': 108.82746983525077}}"
"{'name': '同一医药(西安丈八六路店)', 'location': {'lat': 34.18327071047573, 'lng': 108.85084791680738}, 'address': '丈八六路与锦业二路交叉口南150米', 'province': '陕西省', 'city': '西安市', 'area': '雁塔区', 'street_id': 'a61342b4aac65d7f90114cbf', 'detail': 1, 'uid': 'a61342b4aac65d7f90114cbf', 'detail_info': {'tag': '医疗;药店', 'type': 'hospital', 'detail_url': 'http://api.map.baidu.com/place/detail?uid=a61342b4aac65d7f90114cbf&output=html&source=placeapi_v2', 'image_num': '10', 'children': [], 'lat': 34.18327071047573, 'lng': 108.85084791680738}}"
"{'name': '怡康医药超市', 'location': {'lat': 34.199187474032, 'lng': 108.85942851276248}, 'address': '西安市雁塔区丈八五路与丈八西路交叉路口往南约50米(高科尚都-北区)', 'province': '陕西省', 'city': '西安市', 'area': '雁塔区', 'detail': 1, 'uid': 'ede22725a7eede7145e2740d', 'detail_info': {'tag': '医疗;药店', 'type': 'hospital', 'detail_url': 'http://api.map.baidu.com/place/detail?uid=ede22725a7eede7145e2740d&output=html&source=placeapi_v2', 'image_num': '4', 'children': [], 'lat': 34.199187474032, 'lng': 108.85942851276248}}"
"{'name': '怡康医药超市(丈八西路店)', 'location': {'lat': 34.200973576132576, 'lng': 108.84504005529826}, 'address': '丈八西路西段东滩社区大门东侧东坤商贸楼一层西侧由南向北第七间商铺', 'province': '陕西省', 'city': '西安市', 'area': '雁塔区', 'street_id': '5eb1da8f081906a303ff2d08', 'telephone': '(029)81131301', 'detail': 1, 'uid': '5eb1da8f081906a303ff2d08', 'detail_info': {'tag': '医疗;药店', 'type': 'hospital', 'detail_url': 'http://api.map.baidu.com/place/detail?uid=5eb1da8f081906a303ff2d08&output=html&source=placeapi_v2', 'image_num': '14', 'children': [], 'lat': 34.200973576132576, 'lng': 108.84504005529826}}"
"{'name': '怡康医药超市(科技四路店)', 'location': {'lat': 34.21217121362406, 'lng': 108.88111454149038}, 'address': '西安市雁塔区窑头东巷与窑头南巷交叉路口东北侧(橡树·街区)', 'province': '陕西省', 'city': '西安市', 'area': '雁塔区', 'street_id': 'caf098d2a000efb6c72ba13e', 'detail': 1, 'uid': 'caf098d2a000efb6c72ba13e', 'detail_info': {'tag': '医疗;药店', 'type': 'hospital', 'detail_url': 'http://api.map.baidu.com/place/detail?uid=caf098d2a000efb6c72ba13e&output=html&source=placeapi_v2', 'image_num': '5', 'children': [], 'lat': 34.21217121362406, 'lng': 108.88111454149038}}"
"{'name': '千好百草医药连锁', 'location': {'lat': 34.20059938504488, 'lng': 108.84903998448803}, 'address': '陕西省西安市雁塔区丈八西路', 'province': '陕西省', 'city': '西安市', 'area': '雁塔区', 'detail': 1, 'uid': '47f561fe96b4cdd90c0a70f2', 'detail_info': {'tag': '医疗;药店', 'type': 'hospital', 'detail_url': 'http://api.map.baidu.com/place/detail?uid=47f561fe96b4cdd90c0a70f2&output=html&source=placeapi_v2', 'image_num': '2', 'children': [], 'lat': 34.20059938504488, 'lng': 108.84903998448803}}"
"{'name': '秦唐大药房(东滩店)', 'location': {'lat': 34.20220855075381, 'lng': 108.8448129648424}, 'address': '丈八六路东滩村51排2号', 'province': '陕西省', 'city': '西安市', 'area': '雁塔区', 'street_id': 'b3c5dbb849cd0a5aa104645a', 'detail': 1, 'uid': 'b3c5dbb849cd0a5aa104645a', 'detail_info': {'tag': '医疗;药店', 'type': 'hospital', 'detail_url': 'http://api.map.baidu.com/place/detail?uid=b3c5dbb849cd0a5aa104645a&output=html&source=placeapi_v2', 'overall_rating': '1.0', 'image_num': '4', 'comment_num': '2', 'children': [], 'lat': 34.20220855075381, 'lng': 108.8448129648424}}"
"{'name': '万百泉大药房(丈八西路分公司)', 'location': {'lat': 34.19964388154793, 'lng': 108.86158407414482}, 'address': '丈八西路西100米', 'province': '陕西省', 'city': '西安市', 'area': '雁塔区', 'detail': 1, 'uid': '3d9ba7fc76f4bfbb2b11d10e', 'detail_info': {'tag': '医疗;药店', 'type': 'hospital', 'detail_url': 'http://api.map.baidu.com/place/detail?uid=3d9ba7fc76f4bfbb2b11d10e&output=html&source=placeapi_v2', 'image_num': '5', 'children': [], 'lat': 34.19964388154793, 'lng': 108.86158407414482}}"
"{'name': '锦业路大药房', 'location': {'lat': 34.192000609332766, 'lng': 108.83285371989784}, 'address': '西安市长安区丈八八路与锦业一路交叉路口往东南约50米(锦业新居)', 'province': '陕西省', 'city': '西安市', 'area': '长安区', 'street_id': 'f69cfa8a891c9c17754ff17b', 'telephone': '(029)89289295', 'detail': 1, 'uid': 'f69cfa8a891c9c17754ff17b', 'detail_info': {'tag': '医疗;药店', 'navi_location': {'lng': 108.84333082554, 'lat': 34.196943586776}, 'type': 'hospital', 'detail_url': 'http://api.map.baidu.com/place/detail?uid=f69cfa8a891c9c17754ff17b&output=html&source=placeapi_v2', 'overall_rating': '5.0', 'image_num': '4', 'comment_num': '2', 'children': [], 'lat': 34.192000609332766, 'lng': 108.83285371989784}}"
"{'name': '健择大药房', 'location': {'lat': 34.1984194407656, 'lng': 108.85059375830159}, 'address': '丈八西社区巴蜀人家旁', 'province': '陕西省', 'city': '西安市', 'area': '雁塔区', 'street_id': '5211d219a4992b5b7dc8761e', 'telephone': '(029)81119559', 'detail': 1, 'uid': '5211d219a4992b5b7dc8761e', 'detail_info': {'tag': '医疗;药店', 'navi_location': {'lng': 108.86164602355, 'lat': 34.202929237687}, 'type': 'hospital', 'detail_url': 'http://api.map.baidu.com/place/detail?uid=5211d219a4992b5b7dc8761e&output=html&source=placeapi_v2', 'overall_rating': '0.0', 'image_num': '15', 'children': [], 'lat': 34.1984194407656, 'lng': 108.85059375830159}}"
"{'name': '秦唐大药房', 'location': {'lat': 34.20921653787439, 'lng': 108.85429267782759}, 'address': '瞪羚二路与科技八路交叉口旁', 'province': '陕西省', 'city': '西安市', 'area': '雁塔区', 'telephone': '13309223533', 'detail': 1, 'uid': '7fabc4763aff357a7adbd2aa', 'detail_info': {'tag': '医疗;药店', 'type': 'hospital', 'detail_url': 'http://api.map.baidu.com/place/detail?uid=7fabc4763aff357a7adbd2aa&output=html&source=placeapi_v2', 'image_num': '1', 'children': [], 'lat': 34.20921653787439, 'lng': 108.85429267782759}}"
"{'name': '新德医药超市', 'location': {'lat': 34.20563316850067, 'lng': 108.84896174224981}, 'address': '陕西省西安市雁塔区科技八路辅路', 'province': '陕西省', 'city': '西安市', 'area': '雁塔区', 'detail': 1, 'uid': '4db7bf2aede5ec8fa104642c', 'detail_info': {'tag': '医疗;药店', 'type': 'hospital', 'detail_url': 'http://api.map.baidu.com/place/detail?uid=4db7bf2aede5ec8fa104642c&output=html&source=placeapi_v2', 'image_num': '4', 'children': [], 'lat': 34.20563316850067, 'lng': 108.84896174224981}}"
"{'name': '壹品康大药房', 'location': {'lat': 34.2119021162625, 'lng': 108.869127506977}, 'address': '西安市雁塔区丈八北路与科技六路交叉路口往南约100米(茶张馨苑)', 'province': '陕西省', 'city': '西安市', 'area': '雁塔区', 'detail': 1, 'uid': '5f0292bfd1d189f3eb12e4d8', 'detail_info': {'tag': '医疗;药店', 'type': 'hospital', 'detail_url': 'http://api.map.baidu.com/place/detail?uid=5f0292bfd1d189f3eb12e4d8&output=html&source=placeapi_v2', 'image_num': '6', 'children': [], 'lat': 34.2119021162625, 'lng': 108.869127506977}}"
"{'name': '众信医药超市(尚品美地城店)', 'location': {'lat': 34.19587154395682, 'lng': 108.84439014982561}, 'address': '西安市雁塔区尚品美地城5栋2104', 'province': '陕西省', 'city': '西安市', 'area': '雁塔区', 'detail': 1, 'uid': '602b1a6a2d17492cf50e77e4', 'detail_info': {'tag': '医疗;药店', 'type': 'hospital', 'detail_url': 'http://api.map.baidu.com/place/detail?uid=602b1a6a2d17492cf50e77e4&output=html&source=placeapi_v2', 'image_num': '14', 'children': [], 'lat': 34.19587154395682, 'lng': 108.84439014982561}}"
"{'name': '本真堂大药房(锦业路店)', 'location': {'lat': 34.195937951016234, 'lng': 108.84564870491808}, 'address': '锦业路91号附近', 'province': '陕西省', 'city': '西安市', 'area': '雁塔区', 'detail': 1, 'uid': 'ebdd66b2f842bb5dbda24071', 'detail_info': {'tag': '医疗;药店', 'type': 'hospital', 'detail_url': 'http://api.map.baidu.com/place/detail?uid=ebdd66b2f842bb5dbda24071&output=html&source=placeapi_v2', 'image_num': '9', 'children': [], 'lat': 34.195937951016234, 'lng': 108.84564870491808}}"
"{'name': '同一医药(锦业二路店)', 'location': {'lat': 34.18370916930352, 'lng': 108.87461965546045}, 'address': '陕西省西安市雁塔区锦业二路12东南90米', 'province': '陕西省', 'city': '西安市', 'area': '雁塔区', 'detail': 1, 'uid': '30bb60e6e2a833b0fd0eb036', 'detail_info': {'tag': '医疗;药店', 'type': 'hospital', 'detail_url': 'http://api.map.baidu.com/place/detail?uid=30bb60e6e2a833b0fd0eb036&output=html&source=placeapi_v2', 'image_num': '4', 'children': [], 'lat': 34.18370916930352, 'lng': 108.87461965546045}}"
"{'name': '艾叶医药(缤纷南郡店)', 'location': {'lat': 34.20348449944975, 'lng': 108.86230083743888}, 'address': '丈八沟街道缤纷南郡9号楼3单元50109', 'province': '陕西省', 'city': '西安市', 'area': '雁塔区', 'street_id': '0d967293febb05ae4afd3fa6', 'telephone': '(029)89587892', 'detail': 1, 'uid': '0d967293febb05ae4afd3fa6', 'detail_info': {'tag': '医疗;药店', 'type': 'hospital', 'detail_url': 'http://api.map.baidu.com/place/detail?uid=0d967293febb05ae4afd3fa6&output=html&source=placeapi_v2', 'overall_rating': '0.0', 'image_num': '12', 'comment_num': '1', 'children': [], 'lat': 34.20348449944975, 'lng': 108.86230083743888}}"
"{'name': '昕悦宁大药房', 'location': {'lat': 34.21090666410019, 'lng': 108.86812702290925}, 'address': '陕西省西安市雁塔区丈八北路', 'province': '陕西省', 'city': '西安市', 'area': '雁塔区', 'detail': 1, 'uid': '9c63388973cde3289d95de66', 'detail_info': {'tag': '医疗;药店', 'type': 'hospital', 'detail_url': 'http://api.map.baidu.com/place/detail?uid=9c63388973cde3289d95de66&output=html&source=placeapi_v2', 'image_num': '14', 'children': [], 'lat': 34.21090666410019, 'lng': 108.86812702290925}}"
"{'name': '博信医药超市', 'location': {'lat': 34.20410855879498, 'lng': 108.864288428575}, 'address': '丈八四路6号永辉超市隔壁', 'province': '陕西省', 'city': '西安市', 'area': '雁塔区', 'detail': 1, 'uid': '07e77dd1f89143405bf6be49', 'detail_info': {'tag': '医疗;药店', 'type': 'hospital', 'detail_url': 'http://api.map.baidu.com/place/detail?uid=07e77dd1f89143405bf6be49&output=html&source=placeapi_v2', 'image_num': '1', 'children': [], 'lat': 34.20410855879498, 'lng': 108.864288428575}}"
"{'name': '秦唐大药房(里花水店)', 'location': {'lat': 34.199375671445566, 'lng': 108.845147657947}, 'address': '西安市雁塔区丈八西路里花水社区北侧', 'province': '陕西省', 'city': '西安市', 'area': '雁塔区', 'detail': 1, 'uid': '65910b3010dccd5714c8f609', 'detail_info': {'tag': '医疗;药店', 'type': 'hospital', 'detail_url': 'http://api.map.baidu.com/place/detail?uid=65910b3010dccd5714c8f609&output=html&source=placeapi_v2', 'image_num': '5', 'children': [], 'lat': 34.199375671445566, 'lng': 108.845147657947}}"
"{'name': '长青大药房(铺尚分店)', 'location': {'lat': 34.202629892238996, 'lng': 108.84902482198882}, 'address': '铺尚村16-7号', 'province': '陕西省', 'city': '西安市', 'area': '雁塔区', 'street_id': 'c07fa68e4fd1f97c4e5547c5', 'detail': 1, 'uid': 'c07fa68e4fd1f97c4e5547c5', 'detail_info': {'tag': '医疗;药店', 'navi_location': {'lng': 108.85988271092, 'lat': 34.207120073212},