"{'name': '秀客发型社(西门店)', 'location': {'lat': 34.18184649807623, 'lng': 108.82388945298625}, 'address': '西安市长安区上林苑二路创汇社区F区17栋2单元103室', 'province': '陕西省', 'city': '西安市', 'area': '长安区', 'detail': 1, 'uid': '4f17f4301c8c3ea0ea12e45e', 'detail_info': {'tag': '丽人;美发', 'type': 'life', 'detail_url': 'http://api.map.baidu.com/place/detail?uid=4f17f4301c8c3ea0ea12e45e&output=html&source=placeapi_v2', 'image_num': '1', 'children': [], 'lat': 34.18184649807623, 'lng': 108.82388945298625}}"
"{'name': '慕丝发艺', 'location': {'lat': 34.23629357416025, 'lng': 108.7925070163045}, 'address': '环村南路昆明澜庭中区底商', 'province': '陕西省', 'city': '西安市', 'area': '长安区', 'detail': 1, 'uid': '14387a75f0506710246e989f', 'detail_info': {'tag': '丽人;美发', 'type': 'beauty', 'detail_url': 'http://api.map.baidu.com/place/detail?uid=14387a75f0506710246e989f&output=html&source=placeapi_v2', 'overall_rating': '0.0', 'comment_num': '2', 'children': [], 'lat': 34.23629357416025, 'lng': 108.7925070163045}}"
"{'name': '椰岛造型', 'location': {'lat': 34.22049196198436, 'lng': 108.80745668812415}, 'address': '西安市长安区鱼斗路与西安绕城高速交叉路口往东约50米', 'province': '陕西省', 'city': '西安市', 'area': '长安区', 'detail': 1, 'uid': 'd57d9c75b776aad64e55479e', 'detail_info': {'tag': '丽人;美容', 'type': 'beauty', 'detail_url': 'http://api.map.baidu.com/place/detail?uid=d57d9c75b776aad64e55479e&output=html&source=placeapi_v2', 'children': [], 'lat': 34.22049196198436, 'lng': 108.80745668812415}}"
"{'name': '蓝匠形象设计', 'location': {'lat': 34.23744744873194, 'lng': 108.79072874106556}, 'address': '西安市长安区镐京大道（东段）与汉池路交叉路口往东南约50米(昆明澜庭西北侧约100米)', 'province': '陕西省', 'city': '西安市', 'area': '长安区', 'telephone': '13571893165', 'detail': 1, 'uid': '07679b80878d350ffbf0cb16', 'detail_info': {'tag': '丽人;美发', 'type': 'beauty', 'detail_url': 'http://api.map.baidu.com/place/detail?uid=07679b80878d350ffbf0cb16&output=html&source=placeapi_v2', 'children': [], 'lat': 34.23744744873194, 'lng': 108.79072874106556}}"
"{'name': '美尔发艺', 'location': {'lat': 34.240132317699434, 'lng': 108.7859646239656}, 'address': '西安市长安区', 'province': '陕西省', 'city': '西安市', 'area': '长安区', 'detail': 1, 'uid': '7f59fa7064c568475bf6bea7', 'detail_info': {'tag': '丽人;美发', 'type': 'beauty', 'detail_url': 'http://api.map.baidu.com/place/detail?uid=7f59fa7064c568475bf6bea7&output=html&source=placeapi_v2', 'children': [], 'lat': 34.240132317699434, 'lng': 108.7859646239656}}"
"{'name': '艺剪坊专业美发', 'location': {'lat': 34.240556982898816, 'lng': 108.76605577230639}, 'address': '西安市长安区京昆线与镐京大道（东段）交叉路口往南约50米', 'province': '陕西省', 'city': '西安市', 'area': '长安区', 'detail': 1, 'uid': 'e60fac8bb0a1cd5e7ec87675', 'detail_info': {'tag': '丽人;美发', 'type': 'beauty', 'detail_url': 'http://api.map.baidu.com/place/detail?uid=e60fac8bb0a1cd5e7ec87675&output=html&source=placeapi_v2', 'children': [], 'lat': 34.240556982898816, 'lng': 108.76605577230639}}"
"{'name': '美尚造型', 'location': {'lat': 34.22009259989442, 'lng': 108.80822624373464}, 'address': '陕西省西安市长安区鱼斗路', 'province': '陕西省', 'city': '西安市', 'area': '长安区', 'street_id': '23dec1f3e0c06203fbf0cb17', 'detail': 1, 'uid': '23dec1f3e0c06203fbf0cb17', 'detail_info': {'tag': '丽人;美发', 'navi_location': {'lng': 108.81944218711, 'lat': 34.22476571548}, 'type': 'beauty', 'detail_url': 'http://api.map.baidu.com/place/detail?uid=23dec1f3e0c06203fbf0cb17&output=html&source=placeapi_v2', 'children': [], 'lat': 34.22009259989442, 'lng': 108.80822624373464}}"
"{'name': '审美造型专业烫染', 'location': {'lat': 34.22023337744199, 'lng': 108.80486998675615}, 'address': '陕西省西安市长安区童之梦幼儿园西100米(鱼斗路)', 'province': '陕西省', 'city': '西安市', 'area': '长安区', 'street_id': 'b9ce52768304e7730c0e6b4c', 'detail': 1, 'uid': 'b9ce52768304e7730c0e6b4c', 'detail_info': {'tag': '丽人;美发', 'type': 'beauty', 'detail_url': 'http://api.map.baidu.com/place/detail?uid=b9ce52768304e7730c0e6b4c&output=html&source=placeapi_v2', 'children': [], 'lat': 34.22023337744199, 'lng': 108.80486998675615}}"
"{'name': '唯美发艺', 'location': {'lat': 34.22018266950115, 'lng': 108.80722226420309}, 'address': '西安市长安区鱼斗路与西安绕城高速交叉路口往东约50米', 'province': '陕西省', 'city': '西安市', 'area': '长安区', 'detail': 1, 'uid': 'c9be75391c18defef4231031', 'detail_info': {'tag': '丽人;美发', 'type': 'beauty', 'detail_url': 'http://api.map.baidu.com/place/detail?uid=c9be75391c18defef4231031&output=html&source=placeapi_v2', 'children': [], 'lat': 34.22018266950115, 'lng': 108.80722226420309}}"
"{'name': '润润发艺', 'location': {'lat': 34.22020586041275, 'lng': 108.80470788698595}, 'address': '西安市长安区鱼斗路与西安绕城高速交叉路口往西约100米(斗门街道八一村村民委员会东侧约50米)', 'province': '陕西省', 'city': '西安市', 'area': '长安区', 'street_id': '54ba2ec36e6fefefabf0cdb4', 'detail': 1, 'uid': '54ba2ec36e6fefefabf0cdb4', 'detail_info': {'tag': '丽人;美发', 'type': 'beauty', 'detail_url': 'http://api.map.baidu.com/place/detail?uid=54ba2ec36e6fefefabf0cdb4&output=html&source=placeapi_v2', 'children': [], 'lat': 34.22020586041275, 'lng': 108.80470788698595}}"
"{'name': '艺简形象设计', 'location': {'lat': 34.23744486507278, 'lng': 108.7902231661912}, 'address': '西安市长安区镐京大道（东段）与汉池路交叉路口往东南约50米(碧桂园·国湖南侧约100米)', 'province': '陕西省', 'city': '西安市', 'area': '长安区', 'detail': 1, 'uid': 'ee253c602afe475c16c905d1', 'detail_info': {'tag': '丽人;美发', 'type': 'beauty', 'detail_url': 'http://api.map.baidu.com/place/detail?uid=ee253c602afe475c16c905d1&output=html&source=placeapi_v2', 'children': [], 'lat': 34.23744486507278, 'lng': 108.7902231661912}}"
"{'name': 'Hairalon专业理发', 'location': {'lat': 34.22018448433812, 'lng': 108.80756563282651}, 'address': '西安市长安区鱼斗路与西安绕城高速交叉路口往东约50米', 'province': '陕西省', 'city': '西安市', 'area': '长安区', 'detail': 1, 'uid': '5bf29a1669411b2e1df74d4f', 'detail_info': {'tag': '丽人;美发', 'navi_location': {'lng': 108.81871928653, 'lat': 34.224807022996}, 'type': 'beauty', 'detail_url': 'http://api.map.baidu.com/place/detail?uid=5bf29a1669411b2e1df74d4f&output=html&source=placeapi_v2', 'children': [], 'lat': 34.22018448433812, 'lng': 108.80756563282651}}"
"{'name': '酷尚一族', 'location': {'lat': 34.24052687343167, 'lng': 108.78600994280407}, 'address': '环村南路北200米', 'province': '陕西省', 'city': '西安市', 'area': '长安区', 'detail': 1, 'uid': '2b4717446d39e46682288ace', 'detail_info': {'tag': '丽人;美发', 'type': 'beauty', 'detail_url': 'http://api.map.baidu.com/place/detail?uid=2b4717446d39e46682288ace&output=html&source=placeapi_v2', 'children': [], 'lat': 34.24052687343167, 'lng': 108.78600994280407}}"
"{'name': '一剪钟情', 'location': {'lat': 34.22047155620431, 'lng': 108.80590095375435}, 'address': '西安市长安区鱼斗路与西安绕城高速交叉路口往西北约50米', 'province': '陕西省', 'city': '西安市', 'area': '长安区', 'detail': 1, 'uid': '458fd589965307bfe5e965d9', 'detail_info': {'tag': '丽人;美发', 'navi_location': {'lng': 108.81719590412, 'lat': 34.224852988201}, 'type': 'beauty', 'detail_url': 'http://api.map.baidu.com/place/detail?uid=458fd589965307bfe5e965d9&output=html&source=placeapi_v2', 'children': [], 'lat': 34.22047155620431, 'lng': 108.80590095375435}}"
"{'name': '大众理发', 'location': {'lat': 34.22043639799792, 'lng': 108.80723116601551}, 'address': '陕西省西安市长安区鱼斗路美佳惠百货超市西北50米', 'province': '陕西省', 'city': '西安市', 'area': '长安区', 'street_id': '0d546cad50f5992abca8223c', 'detail': 1, 'uid': '0d546cad50f5992abca8223c', 'detail_info': {'tag': '丽人;美发', 'type': 'beauty', 'detail_url': 'http://api.map.baidu.com/place/detail?uid=0d546cad50f5992abca8223c&output=html&source=placeapi_v2', 'children': [], 'lat': 34.22043639799792, 'lng': 108.80723116601551}}"
"{'name': '上海伊美娜美容管理连锁有限公司(西安)', 'location': {'lat': 34.24339639242693, 'lng': 108.8144505112996}, 'address': '西安市雁塔区鱼化工业园内纬一路56号', 'province': '陕西省', 'city': '西安市', 'area': '雁塔区', 'detail': 1, 'uid': '10274c3614669ba77dc87678', 'detail_info': {'tag': '公司企业;公司', 'type': 'life', 'detail_url': 'http://api.map.baidu.com/place/detail?uid=10274c3614669ba77dc87678&output=html&source=placeapi_v2', 'image_num': '1', 'children': [], 'lat': 34.24339639242693, 'lng': 108.8144505112996}}"
"{'name': '丽减美瘦吧(和平村店)', 'location': {'lat': 34.25447780756483, 'lng': 108.81625268376004}, 'address': '陕西省西安市未央区五号路8号', 'province': '陕西省', 'city': '西安市', 'area': '未央区', 'detail': 1, 'uid': '47742986cb929b39047ce8cc', 'detail_info': {'tag': '丽人;美容', 'type': 'beauty', 'detail_url': 'http://api.map.baidu.com/place/detail?uid=47742986cb929b39047ce8cc&output=html&source=placeapi_v2', 'overall_rating': '5.0', 'comment_num': '3', 'children': [], 'lat': 34.25447780756483, 'lng': 108.81625268376004}}"
"{'name': '天蕴美容养生会所', 'location': {'lat': 34.256606986418504, 'lng': 108.81968390394753}, 'address': '和平春天小区九号楼二单元1805', 'province': '陕西省', 'city': '西安市', 'area': '未央区', 'detail': 1, 'uid': '806838cdd5b1d134e9f853b0', 'detail_info': {'tag': '丽人;美容', 'type': 'beauty', 'detail_url': 'http://api.map.baidu.com/place/detail?uid=806838cdd5b1d134e9f853b0&output=html&source=placeapi_v2', 'children': [], 'lat': 34.256606986418504, 'lng': 108.81968390394753}}"
"{'name': '韩美美莱科技皮肤管理中心', 'location': {'lat': 34.25839087409631, 'lng': 108.8195879610972}, 'address': '三桥街道和平社区和平春天公寓2号楼1110-1111室', 'province': '陕西省', 'city': '西安市', 'area': '未央区', 'detail': 1, 'uid': '18e8490f9c7a5fb6130daab0', 'detail_info': {'tag': '丽人;美容', 'type': 'beauty', 'detail_url': 'http://api.map.baidu.com/place/detail?uid=18e8490f9c7a5fb6130daab0&output=html&source=placeapi_v2', 'overall_rating': '3.0', 'comment_num': '1', 'children': [], 'lat': 34.25839087409631, 'lng': 108.8195879610972}}"
"{'name': '雅尚美发', 'location': {'lat': 34.258095879535205, 'lng': 108.82006537455996}, 'address': '陕西省西安市未央区和平村东4巷西60米', 'province': '陕西省', 'city': '西安市', 'area': '未央区', 'detail': 1, 'uid': 'bad31df1786128ffa8059dac', 'detail_info': {'tag': '丽人;美发', 'type': 'beauty', 'detail_url': 'http://api.map.baidu.com/place/detail?uid=bad31df1786128ffa8059dac&output=html&source=placeapi_v2', 'children': [], 'lat': 34.258095879535205, 'lng': 108.82006537455996}}"
"{'name': '梵尚发型设计', 'location': {'lat': 34.25654209851959, 'lng': 108.81967378939241}, 'address': '和平工业园区四号路和平春天底商', 'province': '陕西省', 'city': '西安市', 'area': '未央区', 'street_id': '530baf6c066150eabb17e7b0', 'telephone': '18710383571', 'detail': 1, 'uid': '530baf6c066150eabb17e7b0', 'detail_info': {'tag': '丽人;美发', 'type': 'beauty', 'detail_url': 'http://api.map.baidu.com/place/detail?uid=530baf6c066150eabb17e7b0&output=html&source=placeapi_v2', 'overall_rating': '5.0', 'comment_num': '2', 'children': [], 'lat': 34.25654209851959, 'lng': 108.81967378939241}}"
"{'name': '玉人美容减肥中心', 'location': {'lat': 34.26118874553297, 'lng': 108.80131878535161}, 'address': '西宝公路王寺小学向西100米', 'province': '陕西省', 'city': '西安市', 'area': '长安区', 'street_id': '3cfadaff8456bb9a85420e78', 'telephone': '15829259962', 'detail': 1, 'uid': '3cfadaff8456bb9a85420e78', 'detail_info': {'tag': '丽人;美容', 'navi_location': {'lng': 108.81263519267, 'lat': 34.265509205211}, 'type': 'beauty', 'detail_url': 'http://api.map.baidu.com/place/detail?uid=3cfadaff8456bb9a85420e78&output=html&source=placeapi_v2', 'overall_rating': '0.0', 'comment_num': '1', 'children': [], 'lat': 34.26118874553297, 'lng': 108.80131878535161}}"
"{'name': '集美轩美容美体生活馆', 'location': {'lat': 34.25877130916437, 'lng': 108.81343646876061}, 'address': '新嘉园广场向北30米', 'province': '陕西省', 'city': '西安市', 'area': '未央区', 'street_id': '940f787d315d9b29ca09f060', 'detail': 1, 'uid': '940f787d315d9b29ca09f060', 'detail_info': {'tag': '丽人;美容', 'navi_location': {'lng': 108.82479827533, 'lat': 34.263389946075}, 'type': 'beauty', 'detail_url': 'http://api.map.baidu.com/place/detail?uid=940f787d315d9b29ca09f060&output=html&source=placeapi_v2', 'children': [], 'lat': 34.25877130916437, 'lng': 108.81343646876061}}"
"{'name': '艾尚鎂美妆工作室', 'location': {'lat': 34.25661258569138, 'lng': 108.8185312873086}, 'address': '昆明路和平村和平春天8号楼2单元402室', 'province': '陕西省', 'city': '西安市', 'area': '未央区', 'telephone': '18729078122', 'detail': 1, 'uid': '2536fa9ee2101d0ab21e3646', 'detail_info': {'tag': '丽人;美甲', 'type': 'beauty', 'detail_url': 'http://api.map.baidu.com/place/detail?uid=2536fa9ee2101d0ab21e3646&output=html&source=placeapi_v2', 'overall_rating': '5.0', 'comment_num': '4', 'children': [], 'lat': 34.25661258569138, 'lng': 108.8185312873086}}"
"{'name': '美伊尔美容连锁机构', 'location': {'lat': 34.26255543338815, 'lng': 108.79867046832102}, 'address': '西户公路16号附近', 'province': '陕西省', 'city': '西安市', 'area': '长安区', 'detail': 1, 'uid': 'aeca0ad111ac1b84b6f42fb5', 'detail_info': {'tag': '丽人;美容', 'type': 'beauty', 'detail_url': 'http://api.map.baidu.com/place/detail?uid=aeca0ad111ac1b84b6f42fb5&output=html&source=placeapi_v2', 'children': [], 'lat': 34.26255543338815, 'lng': 108.79867046832102}}"
"{'name': '绿康养生加盟店(第2分店)', 'location': {'lat': 34.26019648016185, 'lng': 108.81356359832142}, 'address': '红光路聚驾观景台', 'province': '陕西省', 'city': '西安市', 'area': '未央区', 'detail': 1, 'uid': 'febb075f42ed8765250bd0f6', 'detail_info': {'tag': '丽人;美容', 'type': 'beauty', 'detail_url': 'http://api.map.baidu.com/place/detail?uid=febb075f42ed8765250bd0f6&output=html&source=placeapi_v2', 'children': [], 'lat': 34.26019648016185, 'lng': 108.81356359832142}}"
"{'name': '名剪发艺(和平工业园区一号路店)', 'location': {'lat': 34.248509589328016, 'lng': 108.81860115778989}, 'address': '和平工业园区一号路与富源四路交叉口西北100米', 'province': '陕西省', 'city': '西安市', 'area': '未央区', 'street_id': 'ee275949e6f7993c0e3ddaca', 'detail': 1, 'uid': 'ee275949e6f7993c0e3ddaca', 'detail_info': {'tag': '丽人;美发', 'type': 'beauty', 'detail_url': 'http://api.map.baidu.com/place/detail?uid=ee275949e6f7993c0e3ddaca&output=html&source=placeapi_v2', 'overall_rating': '3.0', 'children': [], 'lat': 34.248509589328016, 'lng': 108.81860115778989}}"
"{'name': '俊海美发', 'location': {'lat': 34.25654149334208, 'lng': 108.81963657879317}, 'address': '西安市未央区和平春天9号楼', 'province': '陕西省', 'city': '西安市', 'area': '未央区', 'street_id': 'c21d07a0375a21e1adcb66f4', 'detail': 1, 'uid': 'c21d07a0375a21e1adcb66f4', 'detail_info': {'tag': '丽人;美发', 'type': 'beauty', 'detail_url': 'http://api.map.baidu.com/place/detail?uid=c21d07a0375a21e1adcb66f4&output=html&source=placeapi_v2', 'overall_rating': '3.0', 'children': [], 'lat': 34.25654149334208, 'lng': 108.81963657879317}}"
"{'name': 'M铭尚美发沙龙', 'location': {'lat': 34.26080829229387, 'lng': 108.7993130733106}, 'address': '王寺南街与西户公路交叉口东100米', 'province': '陕西省', 'city': '西安市', 'area': '长安区', 'street_id': '16c53b58d08e0452b34c49d5', 'telephone': '15991730698', 'detail': 1, 'uid': '16c53b58d08e0452b34c49d5', 'detail_info': {'tag': '丽人;美发', 'type': 'beauty', 'detail_url': 'http://api.map.baidu.com/place/detail?uid=16c53b58d08e0452b34c49d5&output=html&source=placeapi_v2', 'price': '89.0', 'overall_rating': '3.0', 'children': [], 'lat': 34.26080829229387, 'lng': 108.7993130733106}}"
"{'name': '微林美业', 'location': {'lat': 34.26117280377168, 'lng': 108.7967258092451}, 'address': '西安市长安区沣东大道与王寺南街交叉路口往西约100米(万福花园-北区)', 'province': '陕西省', 'city': '西安市', 'area': '长安区', 'detail': 1, 'uid': '138be8961285a98cca09f0ea', 'detail_info': {'tag': '丽人;美容', 'type': 'beauty', 'detail_url': 'http://api.map.baidu.com/place/detail?uid=138be8961285a98cca09f0ea&output=html&source=placeapi_v2', 'children': [], 'lat': 34.26117280377168, 'lng': 108.7967258092451}}"
"{'name': '绝色造型(肖里村店)', 'location': {'lat': 34.2534734232013, 'lng': 108.8221072908888}, 'address': '陕西省西安市未央区和平工业园区二号路', 'province': '陕西省', 'city': '西安市', 'area': '未央区', 'detail': 1, 'uid': '33e55c3b83c14302a21de9f9', 'detail_info': {'tag': '丽人;美发', 'type': 'beauty', 'detail_url': 'http://api.map.baidu.com/place/detail?uid=33e55c3b83c14302a21de9f9&output=html&source=placeapi_v2', 'children': [], 'lat': 34.2534734232013, 'lng': 108.8221072908888}}"
"{'name': '大上海造型', 'location': {'lat': 34.251821785729, 'lng': 108.8242544966205}, 'address': '第四巷20号附近', 'province': '陕西省', 'city': '西安市', 'area': '未央区', 'street_id': '5c1be9a4317fd040b13c8197', 'detail': 1, 'uid': '5c1be9a4317fd040b13c8197', 'detail_info': {'tag': '丽人;美发', 'type': 'beauty', 'detail_url': 'http://api.map.baidu.com/place/detail?uid=5c1be9a4317fd040b13c8197&output=html&source=placeapi_v2', 'children': [], 'lat': 34.251821785729, 'lng': 108.8242544966205}}"
"{'name': '优剪专业染烫店', 'location': {'lat': 34.2565406880691, 'lng': 108.81999861081336}, 'address': '陕西省西安市未央区四号路1号东北60米', 'province': '陕西省', 'city': '西安市', 'area': '未央区', 'detail': 1, 'uid': '970b8e05e34a18d33de23130', 'detail_info': {'tag': '丽人;美发', 'type': 'beauty', 'detail_url': 'http://api.map.baidu.com/place/detail?uid=970b8e05e34a18d33de23130&output=html&source=placeapi_v2', 'children': [], 'lat': 34.2565406880691, 'lng': 108.81999861081336}}"
"{'name': '发型社烫染连锁机构(西宝公路店)', 'location': {'lat': 34.26117308230741, 'lng': 108.79728532611261}, 'address': '陕西省西安市长安区沣东大道与西户公路交叉口西100米', 'province': '陕西省', 'city': '西安市', 'area': '长安区', 'street_id': '6b6f800f50f06d31471a32dc', 'detail': 1, 'uid': '815235dbea6342ff9d95deac', 'detail_info': {'tag': '丽人;美发', 'navi_location': {'lng': 108.80862865488, 'lat': 34.265608714047}, 'type': 'beauty', 'detail_url': 'http://api.map.baidu.com/place/detail?uid=815235dbea6342ff9d95deac&output=html&source=placeapi_v2', 'overall_rating': '5.0', 'comment_num': '3', 'children': [], 'lat': 34.26117308230741, 'lng': 108.79728532611261}}"
"{'name': '凤保堂灸疗理疗生殖美疗中心', 'location': {'lat': 34.26077915025948, 'lng': 108.80453845443336}, 'address': '陕西省西安市长安区王寺村王寺东街办108号', 'province': '陕西省', 'city': '西安市', 'area': '长安区', 'detail': 1, 'uid': '3ab11af9fe02988461685881', 'detail_info': {'tag': '丽人;美容', 'type': 'beauty', 'detail_url': 'http://api.map.baidu.com/place/detail?uid=3ab11af9fe02988461685881&output=html&source=placeapi_v2', 'children': [], 'lat': 34.26077915025948, 'lng': 108.80453845443336}}"
"{'name': '沐涵焕颜美肤养生馆', 'location': {'lat': 34.256198444898914, 'lng': 108.81060522915102}, 'address': '三桥街道办事处聚家庄六合家园4号楼1单元302', 'province': '陕西省', 'city': '西安市', 'area': '未央区', 'telephone': '18991956302,18182681506', 'detail': 1, 'uid': 'b77e47a2ca701349a21de972', 'detail_info': {'tag': '丽人;美容', 'type': 'life', 'detail_url': 'http://api.map.baidu.com/place/detail?uid=b77e47a2ca701349a21de972&output=html&source=placeapi_v2', 'image_num': '1', 'children': [], 'lat': 34.256198444898914, 'lng': 108.81060522915102}}"
"{'name': '杜一生问题性皮肤修复馆', 'location': {'lat': 34.26080952414481, 'lng': 108.7998465929351}, 'address': '西安市长安区沣东大道与西户公路交叉路口往东约100米(沣泽佳苑东南侧约150米)', 'province': '陕西省', 'city': '西安市', 'area': '长安区', 'detail': 1, 'uid': '324d1440876cf64293114c7a', 'detail_info': {'tag': '丽人;美容', 'type': 'beauty', 'detail_url': 'http://api.map.baidu.com/place/detail?uid=324d1440876cf64293114c7a&output=html&source=placeapi_v2', 'overall_rating': '0.0', 'children': [], 'lat': 34.26080952414481, 'lng': 108.7998465929351}}"
"{'name': '臻钻美甲美体', 'location': {'lat': 34.259874409288386, 'lng': 108.82109562540164}, 'address': '西安市未央区西宝疏导线与沣东大道交叉路口往南约50米(土门制药厂)', 'province': '陕西省', 'city': '西安市', 'area': '未央区', 'detail': 1, 'uid': '4d84f40bbf5cfb57d42ce2b9', 'detail_info': {'tag': '丽人;美容', 'type': 'beauty', 'detail_url': 'http://api.map.baidu.com/place/detail?uid=4d84f40bbf5cfb57d42ce2b9&output=html&source=placeapi_v2', 'children': [], 'lat': 34.259874409288386, 'lng': 108.82109562540164}}"
"{'name': '雨丝美', 'location': {'lat': 34.25968397457435, 'lng': 108.81345642865504}, 'address': '红光路西围墙村西围新嘉园东区', 'province': '陕西省', 'city': '西安市', 'area': '未央区', 'telephone': '18591783181', 'detail': 1, 'uid': '690c40943d6b5a76d518b711', 'detail_info': {'tag': '丽人;美容', 'type': 'beauty', 'detail_url': 'http://api.map.baidu.com/place/detail?uid=690c40943d6b5a76d518b711&output=html&source=placeapi_v2', 'children': [], 'lat': 34.25968397457435, 'lng': 108.81345642865504}}"
"{'name': 'FK发型工作室(和平村分店)', 'location': {'lat': 34.256468155097885, 'lng': 108.81995429912217}, 'address': '陕西省西安市未央区三桥街道和平工业园区四号路和平春天', 'province': '陕西省', 'city': '西安市', 'area': '未央区', 'street_id': 'd21e99885c75f3b5931fc933', 'telephone': '18092517651', 'detail': 1, 'uid': 'd21e99885c75f3b5931fc933', 'detail_info': {'tag': '丽人;美发', 'type': 'beauty', 'detail_url': 'http://api.map.baidu.com/place/detail?uid=d21e99885c75f3b5931fc933&output=html&source=placeapi_v2', 'overall_rating': '4.0', 'comment_num': '1', 'children': [], 'lat': 34.256468155097885, 'lng': 108.81995429912217}}"
"{'name': '传奇时尚美甲(纹绣店)', 'location': {'lat': 34.26004012876938, 'lng': 108.81396004293335}, 'address': '陕西省西安市未央区西围新嘉园(东区)西北', 'province': '陕西省', 'city': '西安市', 'area': '未央区', 'street_id': 'edc0de173be992eef4eafc38', 'telephone': '13201552058', 'detail': 1, 'uid': 'edc0de173be992eef4eafc38', 'detail_info': {'tag': '丽人;美甲', 'type': 'beauty', 'detail_url': 'http://api.map.baidu.com/place/detail?uid=edc0de173be992eef4eafc38&output=html&source=placeapi_v2', 'children': [], 'lat': 34.26004012876938, 'lng': 108.81396004293335}}"
"{'name': '关怀人生美容养生会所', 'location': {'lat': 34.2611694400186, 'lng': 108.80093619100283}, 'address': '西安市长安区王寺东街302', 'province': '陕西省', 'city': '西安市', 'area': '长安区', 'street_id': '89d1309f728267f903ff2d15', 'detail': 1, 'uid': '89d1309f728267f903ff2d15', 'detail_info': {'tag': '丽人;美容', 'navi_location': {'lng': 108.81198442153, 'lat': 34.265499137894}, 'type': 'beauty', 'detail_url': 'http://api.map.baidu.com/place/detail?uid=89d1309f728267f903ff2d15&output=html&source=placeapi_v2', 'children': [], 'lat': 34.2611694400186, 'lng': 108.80093619100283}}"
"{'name': '千艺造型', 'location': {'lat': 34.268882179384015, 'lng': 108.82114595594038}, 'address': '陕西省西安市未央区阿房一路西口1号南60米', 'province': '陕西省', 'city': '西安市', 'area': '未央区', 'detail': 1, 'uid': '5db8aa57975f1de65c0d0251', 'detail_info': {'tag': '丽人;美发', 'type': 'beauty', 'detail_url': 'http://api.map.baidu.com/place/detail?uid=5db8aa57975f1de65c0d0251&output=html&source=placeapi_v2', 'overall_rating': '1.0', 'comment_num': '2', 'children': [], 'lat': 34.268882179384015, 'lng': 108.82114595594038}}"
"{'name': '发现时光美发沙龙', 'location': {'lat': 34.27019637140646, 'lng': 108.77553163652888}, 'address': '陕西省西安市长安区科源路', 'province': '陕西省', 'city': '西安市', 'area': '长安区', 'detail': 1, 'uid': '28f937eb3c913020c7f50d03', 'detail_info': {'tag': '丽人;美发', 'type': 'beauty', 'detail_url': 'http://api.map.baidu.com/place/detail?uid=28f937eb3c913020c7f50d03&output=html&source=placeapi_v2', 'children': [], 'lat': 34.27019637140646, 'lng': 108.77553163652888}}"
"{'name': '阳丽专业发型设计', 'location': {'lat': 34.259763288908864, 'lng': 108.79777817590208}, 'address': '西安市长安区王寺南街与中二巷交叉路口往东北约100米(万福花园-南区东侧约150米)', 'province': '陕西省', 'city': '西安市', 'area': '长安区', 'street_id': '8d8e6866f64ea0c0a1a934c7', 'detail': 1, 'uid': '8d8e6866f64ea0c0a1a934c7', 'detail_info': {'tag': '丽人;美发', 'navi_location': {'lng': 108.80901025506, 'lat': 34.264094181727}, 'type': 'beauty', 'detail_url': 'http://api.map.baidu.com/place/detail?uid=8d8e6866f64ea0c0a1a934c7&output=html&source=placeapi_v2', 'children': [], 'lat': 34.259763288908864, 'lng': 108.79777817590208}}"
"{'name': '风尚造型(天台二路店)', 'location': {'lat': 34.265109099363976, 'lng': 108.8164082102087}, 'address': '陕西省西安市未央区天台三路', 'province': '陕西省', 'city': '西安市', 'area': '未央区', 'detail': 1, 'uid': '8d6f12f9415aacfa3813fd5a', 'detail_info': {'tag': '丽人;美发', 'type': 'beauty', 'detail_url': 'http://api.map.baidu.com/place/detail?uid=8d6f12f9415aacfa3813fd5a&output=html&source=placeapi_v2', 'children': [], 'lat': 34.265109099363976, 'lng': 108.8164082102087}}"
"{'name': '绝色造型', 'location': {'lat': 34.259991099372435, 'lng': 108.81351911957498}, 'address': '西宝公路南150米', 'province': '陕西省', 'city': '西安市', 'area': '未央区', 'telephone': '18789439300', 'detail': 1, 'uid': '1a73152291a4b63216a190a7', 'detail_info': {'tag': '丽人;美发', 'type': 'beauty', 'detail_url': 'http://api.map.baidu.com/place/detail?uid=1a73152291a4b63216a190a7&output=html&source=placeapi_v2', 'overall_rating': '5.0', 'comment_num': '2', 'children': [], 'lat': 34.259991099372435, 'lng': 108.81351911957498}}"
"{'name': '乌王生发白发养发', 'location': {'lat': 34.25494903954794, 'lng': 108.81639195030738}, 'address': '沣东新城中海昆明路九号12栋30111商铺', 'province': '陕西省', 'city': '西安市', 'area': '未央区', 'detail': 1, 'uid': '2f3be38187cdd4069ff77945', 'detail_info': {'tag': '丽人;美发', 'type': 'beauty', 'detail_url': 'http://api.map.baidu.com/place/detail?uid=2f3be38187cdd4069ff77945&output=html&source=placeapi_v2', 'overall_rating': '5.0', 'comment_num': '3', 'children': [], 'lat': 34.25494903954794, 'lng': 108.81639195030738}}"
"{'name': '优瘦身国际减肥连锁(芊域溪源店)', 'location': {'lat': 34.26796665623866, 'lng': 108.7791870548046}, 'address': '沣东新城芊域溪源A区5号楼二单元104', 'province': '陕西省', 'city': '西安市', 'area': '长安区', 'telephone': '13379002441', 'detail': 1, 'uid': '35809e8dbde7333b8b2fb579', 'detail_info': {'tag': '丽人;美体', 'type': 'beauty', 'detail_url': 'http://api.map.baidu.com/place/detail?uid=35809e8dbde7333b8b2fb579&output=html&source=placeapi_v2', 'children': [], 'lat': 34.26796665623866, 'lng': 108.7791870548046}}"
"{'name': 'FK发型工作室', 'location': {'lat': 34.26066288995103, 'lng': 108.81273154026108}, 'address': '三桥街道红光路和平村西五百米酷歌KTV楼下', 'province': '陕西省', 'city': '西安市', 'area': '未央区', 'detail': 1, 'uid': '0acfe189e11918c14054d786', 'detail_info': {'tag': '丽人;美发', 'type': 'beauty', 'detail_url': 'http://api.map.baidu.com/place/detail?uid=0acfe189e11918c14054d786&output=html&source=placeapi_v2', 'children': [], 'lat': 34.26066288995103, 'lng': 108.81273154026108}}"
"{'name': '灵感发艺造型', 'location': {'lat': 34.265336573164774, 'lng': 108.81612767201472}, 'address': '陕西省西安市未央区天台三路', 'province': '陕西省', 'city': '西安市', 'area': '未央区', 'detail': 1, 'uid': '4d66143b96a29c5bc61e519c', 'detail_info': {'tag': '丽人;美发', 'type': 'beauty', 'detail_url': 'http://api.map.baidu.com/place/detail?uid=4d66143b96a29c5bc61e519c&output=html&source=placeapi_v2', 'children': [], 'lat': 34.265336573164774, 'lng': 108.81612767201472}}"
"{'name': '古贝.Style美发', 'location': {'lat': 34.254989139969865, 'lng': 108.81646443291851}, 'address': '陕西省西安市未央区昆明路9号', 'province': '陕西省', 'city': '西安市', 'area': '未央区', 'telephone': '18049432486', 'detail': 1, 'uid': 'c040bc340106f8fdab059db5', 'detail_info': {'tag': '丽人;美发', 'type': 'beauty', 'detail_url': 'http://api.map.baidu.com/place/detail?uid=c040bc340106f8fdab059db5&output=html&source=placeapi_v2', 'overall_rating': '5.0', 'comment_num': '3', 'children': [], 'lat': 34.254989139969865, 'lng': 108.81646443291851}}"
"{'name': '非凡造型', 'location': {'lat': 34.276340972260215, 'lng': 108.79384590213}, 'address': '陕西省西安市长安区天人路附近', 'province': '陕西省', 'city': '西安市', 'area': '长安区', 'street_id': 'ae27934acea9baf793114ce3', 'detail': 1, 'uid': 'ae27934acea9baf793114ce3', 'detail_info': {'tag': '丽人;美发', 'type': 'shopping', 'detail_url': 'http://api.map.baidu.com/place/detail?uid=ae27934acea9baf793114ce3&output=html&source=placeapi_v2', 'children': [], 'lat': 34.276340972260215, 'lng': 108.79384590213}}"
"{'name': '沣东新城金紫雨养发护发馆', 'location': {'lat': 34.25749566505267, 'lng': 108.81681378697739}, 'address': '陕西省西安市未央区和平村西5巷', 'province': '陕西省', 'city': '西安市', 'area': '未央区', 'detail': 1, 'uid': 'e3582ee719b302a784330439', 'detail_info': {'tag': '丽人;美发', 'type': 'beauty', 'detail_url': 'http://api.map.baidu.com/place/detail?uid=e3582ee719b302a784330439&output=html&source=placeapi_v2', 'children': [], 'lat': 34.25749566505267, 'lng': 108.81681378697739}}"
"{'name': '手艺人', 'location': {'lat': 34.255163210708425, 'lng': 108.81083388241697}, 'address': '陕西省西安市未央区西围墙工业区西环路', 'province': '陕西省', 'city': '西安市', 'area': '未央区', 'detail': 1, 'uid': '36d4416426cd668ec17da203', 'detail_info': {'tag': '丽人;美发', 'type': 'beauty', 'detail_url': 'http://api.map.baidu.com/place/detail?uid=36d4416426cd668ec17da203&output=html&source=placeapi_v2', 'children': [], 'lat': 34.255163210708425, 'lng': 108.81083388241697}}"
"{'name': '润发造型', 'location': {'lat': 34.253289495343154, 'lng': 108.82177340520009}, 'address': '和平工业园一号路/和平工业园六号路(路口)东100米', 'province': '陕西省', 'city': '西安市', 'area': '未央区', 'telephone': '15389266253', 'detail': 1, 'uid': '348599fef36e79ec43024510', 'detail_info': {'tag': '丽人;美发', 'type': 'beauty', 'detail_url': 'http://api.map.baidu.com/place/detail?uid=348599fef36e79ec43024510&output=html&source=placeapi_v2', 'price': '26.0', 'overall_rating': '3.0', 'children': [], 'lat': 34.253289495343154, 'lng': 108.82177340520009}}"
"{'name': '语涵发艺专业烫染', 'location': {'lat': 34.25260022727013, 'lng': 108.82293877956336}, 'address': '西安市未央区第四巷与富源三路交叉路口往东约100米(小童星双语幼儿园东北侧)', 'province': '陕西省', 'city': '西安市', 'area': '未央区', 'street_id': 'feafa66dca897f0d902ca354', 'detail': 1, 'uid': 'feafa66dca897f0d902ca354', 'detail_info': {'tag': '丽人;美发', 'type': 'beauty', 'detail_url': 'http://api.map.baidu.com/place/detail?uid=feafa66dca897f0d902ca354&output=html&source=placeapi_v2', 'overall_rating': '3.0', 'children': [], 'lat': 34.25260022727013, 'lng': 108.82293877956336}}"
"{'name': '剪变发吧', 'location': {'lat': 34.25805679950479, 'lng': 108.8131851718333}, 'address': '西环路1号', 'province': '陕西省', 'city': '西安市', 'area': '未央区', 'street_id': '249e6578cf5b17740b69d98c', 'telephone': '18691849372', 'detail': 1, 'uid': '249e6578cf5b17740b69d98c', 'detail_info': {'tag': '丽人;美发', 'type': 'beauty', 'detail_url': 'http://api.map.baidu.com/place/detail?uid=249e6578cf5b17740b69d98c&output=html&source=placeapi_v2', 'overall_rating': '0.0', 'comment_num': '1', 'children': [], 'lat': 34.25805679950479, 'lng': 108.8131851718333}}"
"{'name': '古城理发店', 'location': {'lat': 34.263261594714486, 'lng': 108.79934954815079}, 'address': '西户公路14号附近', 'province': '陕西省', 'city': '西安市', 'area': '长安区', 'detail': 1, 'uid': 'c855cfc9af96fe4a00ff2d45', 'detail_info': {'tag': '丽人;美发', 'navi_location': {'lng': 108.81033662111, 'lat': 34.267649033983}, 'type': 'beauty', 'detail_url': 'http://api.map.baidu.com/place/detail?uid=c855cfc9af96fe4a00ff2d45&output=html&source=placeapi_v2', 'children': [], 'lat': 34.263261594714486, 'lng': 108.79934954815079}}"
"{'name': '新座标烫染剪', 'location': {'lat': 34.2608180353131, 'lng': 108.8032949149705}, 'address': '陕西省西安市长安区怡园教师小区(阿房宫考古遗址公园西南)', 'province': '陕西省', 'city': '西安市', 'area': '长安区', 'street_id': 'aeb460f306e1ec9ee8f85381', 'detail': 1, 'uid': 'aeb460f306e1ec9ee8f85381', 'detail_info': {'tag': '丽人;美发', 'type': 'beauty', 'detail_url': 'http://api.map.baidu.com/place/detail?uid=aeb460f306e1ec9ee8f85381&output=html&source=placeapi_v2', 'overall_rating': '3.0', 'children': [], 'lat': 34.2608180353131, 'lng': 108.8032949149705}}"
"{'name': '魂彩阁发型设计', 'location': {'lat': 34.261181276158474, 'lng': 108.80081237039956}, 'address': '西安市长安区王寺东街号路北', 'province': '陕西省', 'city': '西安市', 'area': '长安区', 'telephone': '13468828804', 'detail': 1, 'uid': 'ffca2bb9c03e62deb13c81b1', 'detail_info': {'tag': '丽人;美发', 'type': 'beauty', 'detail_url': 'http://api.map.baidu.com/place/detail?uid=ffca2bb9c03e62deb13c81b1&output=html&source=placeapi_v2', 'children': [], 'lat': 34.261181276158474, 'lng': 108.80081237039956}}"
"{'name': '婷婷美发屋', 'location': {'lat': 34.25527923450181, 'lng': 108.81223340553139}, 'address': '西安市未央区西围墙工业区西环路与昆明路交叉路口往北约100米(中海·昆明路九号)', 'province': '陕西省', 'city': '西安市', 'area': '未央区', 'street_id': '8f0dc04881027cbb931fc962', 'detail': 1, 'uid': '8f0dc04881027cbb931fc962', 'detail_info': {'tag': '丽人;美发', 'type': 'beauty', 'detail_url': 'http://api.map.baidu.com/place/detail?uid=8f0dc04881027cbb931fc962&output=html&source=placeapi_v2', 'children': [], 'lat': 34.25527923450181, 'lng': 108.81223340553139}}"
"{'name': '维尔美专业烫染', 'location': {'lat': 34.26115619506521, 'lng': 108.8026216085275}, 'address': '王寺东街69号王寺小学附近', 'province': '陕西省', 'city': '西安市', 'area': '长安区', 'street_id': '7fc5188490a1b2ccf03cbae6', 'telephone': '13474133646', 'detail': 1, 'uid': '7fc5188490a1b2ccf03cbae6', 'detail_info': {'tag': '丽人;美发', 'type': 'beauty', 'detail_url': 'http://api.map.baidu.com/place/detail?uid=7fc5188490a1b2ccf03cbae6&output=html&source=placeapi_v2', 'children': [], 'lat': 34.26115619506521, 'lng': 108.8026216085275}}"
"{'name': '尚宣造型', 'location': {'lat': 34.27861219285657, 'lng': 108.8125575716288}, 'address': '陕西省西安市未央区西户公路', 'province': '陕西省', 'city': '西安市', 'area': '未央区', 'detail': 1, 'uid': '6c0d8e6e1528083817b54bad', 'detail_info': {'tag': '丽人;美发', 'type': 'beauty', 'detail_url': 'http://api.map.baidu.com/place/detail?uid=6c0d8e6e1528083817b54bad&output=html&source=placeapi_v2', 'children': [], 'lat': 34.27861219285657, 'lng': 108.8125575716288}}"
"{'name': '纤丝雨', 'location': {'lat': 34.26074378843967, 'lng': 108.79955460380805}, 'address': '西安市长安区沣东大道与王寺南街交叉路口往东约100米(沣泽佳苑东南侧约150米)', 'province': '陕西省', 'city': '西安市', 'area': '长安区', 'detail': 1, 'uid': '350677357d195300db131810', 'detail_info': {'tag': '丽人;美发', 'navi_location': {'lng': 108.81064257768, 'lat': 34.265361669346}, 'type': 'beauty', 'detail_url': 'http://api.map.baidu.com/place/detail?uid=350677357d195300db131810&output=html&source=placeapi_v2', 'children': [], 'lat': 34.26074378843967, 'lng': 108.79955460380805}}"
"{'name': '艺剪造型室', 'location': {'lat': 34.25704842191591, 'lng': 108.81380533419231}, 'address': '陕西省西安市未央区西围三巷', 'province': '陕西省', 'city': '西安市', 'area': '未央区', 'detail': 1, 'uid': 'c2c9b17e34925d513be4a61b', 'detail_info': {'tag': '丽人;美发', 'type': 'beauty', 'detail_url': 'http://api.map.baidu.com/place/detail?uid=c2c9b17e34925d513be4a61b&output=html&source=placeapi_v2', 'children': [], 'lat': 34.25704842191591, 'lng': 108.81380533419231}}"
"{'name': '发源A造型', 'location': {'lat': 34.2607909491229, 'lng': 108.79961202549921}, 'address': '西安市长安区沣东大道与王寺南街交叉路口往东约100米(沣泽佳苑东南侧约150米)', 'province': '陕西省', 'city': '西安市', 'area': '长安区', 'street_id': '7ed25c8479505130f82d61ec', 'telephone': '13474513600', 'detail': 1, 'uid': '7ed25c8479505130f82d61ec', 'detail_info': {'tag': '丽人;美发', 'navi_location': {'lng': 108.81092456925, 'lat': 34.265365639879}, 'type': 'beauty', 'detail_url': 'http://api.map.baidu.com/place/detail?uid=7ed25c8479505130f82d61ec&output=html&source=placeapi_v2', 'price': '86.0', 'children': [], 'lat': 34.2607909491229, 'lng': 108.79961202549921}}"
"{'name': '初见造型', 'location': {'lat': 34.25426631920319, 'lng': 108.81645475535277}, 'address': '中海昆明九号13号楼13-10102商铺', 'province': '陕西省', 'city': '西安市', 'area': '未央区', 'telephone': '13474464450', 'detail': 1, 'uid': '80bb0e45cd532d83b9df8f8a', 'detail_info': {'tag': '丽人;美发', 'type': 'beauty', 'detail_url': 'http://api.map.baidu.com/place/detail?uid=80bb0e45cd532d83b9df8f8a&output=html&source=placeapi_v2', 'children': [], 'lat': 34.25426631920319, 'lng': 108.81645475535277}}"
"{'name': '东纬尔美理发店', 'location': {'lat': 34.26115942270328, 'lng': 108.80260650824991}, 'address': '王寺东街79号', 'province': '陕西省', 'city': '西安市', 'area': '长安区', 'telephone': '13474133646', 'detail': 1, 'uid': '8ec9bd72d68906086b49f397', 'detail_info': {'tag': '丽人;美发', 'type': 'beauty', 'detail_url': 'http://api.map.baidu.com/place/detail?uid=8ec9bd72d68906086b49f397&output=html&source=placeapi_v2', 'children': [], 'lat': 34.26115942270328, 'lng': 108.80260650824991}}"
"{'name': '王斌造型(西宝公路店)', 'location': {'lat': 34.26119466216586, 'lng': 108.80092111269455}, 'address': '王寺东街37号', 'province': '陕西省', 'city': '西安市', 'area': '长安区', 'street_id': 'b5855dd24bfdf7ba25d2bb17', 'telephone': '13468828804', 'detail': 1, 'uid': 'b5855dd24bfdf7ba25d2bb17', 'detail_info': {'tag': '丽人;美发', 'type': 'beauty', 'detail_url': 'http://api.map.baidu.com/place/detail?uid=b5855dd24bfdf7ba25d2bb17&output=html&source=placeapi_v2', 'children': [], 'lat': 34.26119466216586, 'lng': 108.80092111269455}}"
"{'name': '精剪屋', 'location': {'lat': 34.25734374333994, 'lng': 108.81640111030907}, 'address': '陕西省西安市未央区和平工业园区四号路', 'province': '陕西省', 'city': '西安市', 'area': '未央区', 'detail': 1, 'uid': '627aec005eede759774ff120', 'detail_info': {'tag': '丽人;美发', 'type': 'beauty', 'detail_url': 'http://api.map.baidu.com/place/detail?uid=627aec005eede759774ff120&output=html&source=placeapi_v2', 'children': [], 'lat': 34.25734374333994, 'lng': 108.81640111030907}}"
"{'name': '植草缘植物养发馆', 'location': {'lat': 34.26122571681728, 'lng': 108.80482786467269}, 'address': '陕西省西安市长安区王寺东街121号附近', 'province': '陕西省', 'city': '西安市', 'area': '长安区', 'detail': 1, 'uid': 'c2f7abe03cb37b1c33f71d45', 'detail_info': {'tag': '丽人;美发', 'type': 'beauty', 'detail_url': 'http://api.map.baidu.com/place/detail?uid=c2f7abe03cb37b1c33f71d45&output=html&source=placeapi_v2', 'children': [], 'lat': 34.26122571681728, 'lng': 108.80482786467269}}"
"{'name': '理发店', 'location': {'lat': 34.265120366343865, 'lng': 108.81614559011281}, 'address': '陕西省西安市未央区天台二路西150米附近', 'province': '陕西省', 'city': '西安市', 'area': '未央区', 'street_id': 'ff63636d6c124d43d8d891a3', 'detail': 1, 'uid': 'ff63636d6c124d43d8d891a3', 'detail_info': {'tag': '丽人;美发', 'type': 'beauty', 'detail_url': 'http://api.map.baidu.com/place/detail?uid=ff63636d6c124d43d8d891a3&output=html&source=placeapi_v2', 'children': [], 'lat': 34.265120366343865, 'lng': 108.81614559011281}}"
"{'name': '米拉发艺', 'location': {'lat': 34.25143509844573, 'lng': 108.82320717049788}, 'address': '西安市未央区', 'province': '陕西省', 'city': '西安市', 'area': '未央区', 'detail': 1, 'uid': 'be912cba05d87daf740269a0', 'detail_info': {'tag': '丽人;美发', 'type': 'beauty', 'detail_url': 'http://api.map.baidu.com/place/detail?uid=be912cba05d87daf740269a0&output=html&source=placeapi_v2', 'children': [], 'lat': 34.25143509844573, 'lng': 108.82320717049788}}"
"{'name': '阿龙发型工作室', 'location': {'lat': 34.25275814239478, 'lng': 108.82282936345622}, 'address': '陕西省西安市未央区第四巷', 'province': '陕西省', 'city': '西安市', 'area': '未央区', 'street_id': 'a1cc38a3014c1d5de115f9d6', 'detail': 1, 'uid': 'a1cc38a3014c1d5de115f9d6', 'detail_info': {'tag': '丽人;美发', 'type': 'beauty', 'detail_url': 'http://api.map.baidu.com/place/detail?uid=a1cc38a3014c1d5de115f9d6&output=html&source=placeapi_v2', 'children': [], 'lat': 34.25275814239478, 'lng': 108.82282936345622}}"
"{'name': '精剪发型设计工作室(西围二巷)', 'location': {'lat': 34.25723029727563, 'lng': 108.8135186221462}, 'address': '陕西省西安市未央区西围二巷', 'province': '陕西省', 'city': '西安市', 'area': '未央区', 'detail': 1, 'uid': '7b87b453e15b22c5cac3db93', 'detail_info': {'tag': '丽人;美发', 'type': 'beauty', 'detail_url': 'http://api.map.baidu.com/place/detail?uid=7b87b453e15b22c5cac3db93&output=html&source=placeapi_v2', 'children': [], 'lat': 34.25723029727563, 'lng': 108.8135186221462}}"
"{'name': '张扬造型(第四巷)', 'location': {'lat': 34.25246872829863, 'lng': 108.82175664271311}, 'address': '西安市未央区第四巷与富源三路交叉路口东侧(宇博连锁酒店南侧)', 'province': '陕西省', 'city': '西安市', 'area': '未央区', 'street_id': '16696dee5c9e1c1e9e82ea92', 'detail': 1, 'uid': '16696dee5c9e1c1e9e82ea92', 'detail_info': {'tag': '丽人;美发', 'type': 'beauty', 'detail_url': 'http://api.map.baidu.com/place/detail?uid=16696dee5c9e1c1e9e82ea92&output=html&source=placeapi_v2', 'children': [], 'lat': 34.25246872829863, 'lng': 108.82175664271311}}"
"{'name': '艾美造型', 'location': {'lat': 34.27885242975026, 'lng': 108.81189729054074}, 'address': '天台六路37号附近', 'province': '陕西省', 'city': '西安市', 'area': '未央区', 'street_id': '46b0661f22b56f8fd0ff23c1', 'detail': 1, 'uid': '46b0661f22b56f8fd0ff23c1', 'detail_info': {'tag': '丽人;美发', 'navi_location': {'lng': 108.82307621738, 'lat': 34.283386276821}, 'type': 'beauty', 'detail_url': 'http://api.map.baidu.com/place/detail?uid=46b0661f22b56f8fd0ff23c1&output=html&source=placeapi_v2', 'children': [], 'lat': 34.27885242975026, 'lng': 108.81189729054074}}"
"{'name': '舞欣级舞蹈工作室', 'location': {'lat': 34.26079850453571, 'lng': 108.8161597463848}, 'address': '红光路和平小学向西200米夏伟理发店二楼', 'province': '陕西省', 'city': '西安市', 'area': '未央区', 'detail': 1, 'uid': '16eb893b14cd9de726e0a0b6', 'detail_info': {'tag': '运动健身;健身中心', 'type': 'life', 'detail_url': 'http://api.map.baidu.com/place/detail?uid=16eb893b14cd9de726e0a0b6&output=html&source=placeapi_v2', 'image_num': '1', 'children': [], 'lat': 34.26079850453571, 'lng': 108.8161597463848}}"
"{'name': '超净π洗车美容', 'location': {'lat': 34.261259321031055, 'lng': 108.80702614432724}, 'address': '西宝公路北50米', 'province': '陕西省', 'city': '西安市', 'area': '长安区', 'detail': 1, 'uid': '452a79e4361796bd5abbbc04', 'detail_info': {'tag': '汽车服务;汽车美容', 'type': 'life', 'detail_url': 'http://api.map.baidu.com/place/detail?uid=452a79e4361796bd5abbbc04&output=html&source=placeapi_v2', 'image_num': '4', 'children': [], 'lat': 34.261259321031055, 'lng': 108.80702614432724}}"
"{'name': '完美尺寸健康身材管理中心(王寺店)', 'location': {'lat': 34.26249490321168, 'lng': 108.79604881940688}, 'address': '王寺西街嘉欣花园商铺', 'province': '陕西省', 'city': '西安市', 'area': '长安区', 'street_id': 'ea874acb5508c0108f1a89fe', 'telephone': '18192541719', 'detail': 1, 'uid': 'ea874acb5508c0108f1a89fe', 'detail_info': {'tag': '医疗;体检机构', 'navi_location': {'lng': 108.80750271246, 'lat': 34.266786114055}, 'type': 'hospital', 'detail_url': 'http://api.map.baidu.com/place/detail?uid=ea874acb5508c0108f1a89fe&output=html&source=placeapi_v2', 'overall_rating': '5.0', 'image_num': '6', 'comment_num': '1', 'children': [], 'lat': 34.26249490321168, 'lng': 108.79604881940688}}"
"{'name': '香薇妮丝女子减肥院(征和六路店)', 'location': {'lat': 34.292503160667074, 'lng': 108.8207314760535}, 'address': '沣东新城征和六路华润二十四城一层商铺(建设银行向西10米)', 'province': '陕西省', 'city': '西安市', 'area': '未央区', 'telephone': '15829550070', 'detail': 1, 'uid': '6e21d36ef63b2bc04354d760', 'detail_info': {'tag': '丽人;美体', 'type': 'beauty', 'detail_url': 'http://api.map.baidu.com/place/detail?uid=6e21d36ef63b2bc04354d760&output=html&source=placeapi_v2', 'price': '162.0', 'overall_rating': '3.8', 'comment_num': '4', 'children': [], 'lat': 34.292503160667074, 'lng': 108.8207314760535}}"
"{'name': '姬颜氏美丽汇美肤管理(后卫寨店)', 'location': {'lat': 34.30181198193402, 'lng': 108.81377003006494}, 'address': '后卫寨启航佳苑B区16号楼104室', 'province': '陕西省', 'city': '西安市', 'area': '未央区', 'telephone': '(029)84427027', 'detail': 1, 'uid': 'f998c9fcede09678715e8085', 'detail_info': {'tag': '丽人;美容', 'type': 'beauty', 'detail_url': 'http://api.map.baidu.com/place/detail?uid=f998c9fcede09678715e8085&output=html&source=placeapi_v2', 'overall_rating': '5.0', 'comment_num': '1', 'children': [], 'lat': 34.30181198193402, 'lng': 108.81377003006494}}"
"{'name': '兰熙高端皮肤管理中心', 'location': {'lat': 34.29203897449558, 'lng': 108.81887008549202}, 'address': '三桥新街华润二十四城一期11-10107', 'province': '陕西省', 'city': '西安市', 'area': '未央区', 'telephone': '18758065501', 'detail': 1, 'uid': 'cdf9c9273b92c91bf4eafcd3', 'detail_info': {'tag': '丽人;美容', 'type': 'beauty', 'detail_url': 'http://api.map.baidu.com/place/detail?uid=cdf9c9273b92c91bf4eafcd3&output=html&source=placeapi_v2', 'overall_rating': '3.0', 'comment_num': '1', 'children': [], 'lat': 34.29203897449558, 'lng': 108.81887008549202}}"
"{'name': 'SUHE苏禾韩式皮肤管理(万象城店)', 'location': {'lat': 34.29188844602998, 'lng': 108.82453168911026}, 'address': '三桥万象城C座1208(亚朵酒店楼上)', 'province': '陕西省', 'city': '西安市', 'area': '未央区', 'detail': 1, 'uid': '953657df722a6abbc909f0c5', 'detail_info': {'tag': '丽人;美容', 'type': 'beauty', 'detail_url': 'http://api.map.baidu.com/place/detail?uid=953657df722a6abbc909f0c5&output=html&source=placeapi_v2', 'price': '199.0', 'overall_rating': '4.9', 'comment_num': '18', 'children': [], 'lat': 34.29188844602998, 'lng': 108.82453168911026}}"
"{'name': '诗艾丽美容美体中心', 'location': {'lat': 34.29181638127535, 'lng': 108.81875242828733}, 'address': '陕西省西安市未央区征和六路', 'province': '陕西省', 'city': '西安市', 'area': '未央区', 'detail': 1, 'uid': '4aab226767c197d54afd3f87', 'detail_info': {'tag': '丽人;美容', 'type': 'beauty', 'detail_url': 'http://api.map.baidu.com/place/detail?uid=4aab226767c197d54afd3f87&output=html&source=placeapi_v2', 'children': [], 'lat': 34.29181638127535, 'lng': 108.81875242828733}}"
"{'name': '启航美业(启航时代广场店)', 'location': {'lat': 34.302720874403356, 'lng': 108.80951796883997}, 'address': '西安市未央区沣东新城启航时代佳苑A12单元1楼1201-04号', 'province': '陕西省', 'city': '西安市', 'area': '未央区', 'street_id': '8078283100ccdcb4f8f0cb71', 'telephone': '13519166177,(029)89305443', 'detail': 1, 'uid': '8078283100ccdcb4f8f0cb71', 'detail_info': {'tag': '丽人;美容', 'type': 'beauty', 'detail_url': 'http://api.map.baidu.com/place/detail?uid=8078283100ccdcb4f8f0cb71&output=html&source=placeapi_v2', 'overall_rating': '3.0', 'children': [], 'lat': 34.302720874403356, 'lng': 108.80951796883997}}"
"{'name': '西安丽竹养生美容有限公司', 'location': {'lat': 34.30220194964351, 'lng': 108.80886078139088}, 'address': '西安市未央区三桥后卫寨地铁口启航时代广场A区12号楼2301', 'province': '陕西省', 'city': '西安市', 'area': '未央区', 'street_id': 'bed392cbab077abe1ff74df3', 'telephone': '(029)84527077', 'detail': 1, 'uid': 'bed392cbab077abe1ff74df3', 'detail_info': {'tag': '丽人;美容', 'type': 'beauty', 'detail_url': 'http://api.map.baidu.com/place/detail?uid=bed392cbab077abe1ff74df3&output=html&source=placeapi_v2', 'price': '0.0', 'children': [], 'lat': 34.30220194964351, 'lng': 108.80886078139088}}"
"{'name': '名流发型工作室', 'location': {'lat': 34.3026660077573, 'lng': 108.80917364257829}, 'address': '西咸新区沣东新城启航时代广场B座1楼(三桥饭庄斜对面向西一百米)', 'province': '陕西省', 'city': '西安市', 'area': '未央区', 'street_id': '8de6fe93b34062b3c9e33c11', 'telephone': '15388679290,13772034755', 'detail': 1, 'uid': '8de6fe93b34062b3c9e33c11', 'detail_info': {'tag': '丽人;美发', 'type': 'beauty', 'detail_url': 'http://api.map.baidu.com/place/detail?uid=8de6fe93b34062b3c9e33c11&output=html&source=placeapi_v2', 'children': [], 'lat': 34.3026660077573, 'lng': 108.80917364257829}}"
"{'name': 'NAIL纹绣美甲', 'location': {'lat': 34.292331533130756, 'lng': 108.82333696168975}, 'address': '陕西省西安市未央区征和六路', 'province': '陕西省', 'city': '西安市', 'area': '未央区', 'telephone': '13572827377', 'detail': 1, 'uid': '50baa28e6115f6c913293549', 'detail_info': {'tag': '丽人;美甲', 'type': 'beauty', 'detail_url': 'http://api.map.baidu.com/place/detail?uid=50baa28e6115f6c913293549&output=html&source=placeapi_v2', 'overall_rating': '5.0', 'comment_num': '3', 'children': [], 'lat': 34.292331533130756, 'lng': 108.82333696168975}}"
"{'name': '美伊尔美容连锁机构', 'location': {'lat': 34.292886050380524, 'lng': 108.8177765388556}, 'address': '华润二十四城1期9号楼', 'province': '陕西省', 'city': '西安市', 'area': '未央区', 'detail': 1, 'uid': '8cafac26a4926665213bf2fe', 'detail_info': {'tag': '丽人;美容', 'type': 'beauty', 'detail_url': 'http://api.map.baidu.com/place/detail?uid=8cafac26a4926665213bf2fe&output=html&source=placeapi_v2', 'children': [], 'lat': 34.292886050380524, 'lng': 108.8177765388556}}"
"{'name': '铂兰之钥美容SPA馆', 'location': {'lat': 34.3029219876677, 'lng': 108.80902948944572}, 'address': '三桥街道后卫寨启航时代广场商业步行街', 'province': '陕西省', 'city': '西安市', 'area': '未央区', 'detail': 1, 'uid': 'dd17f1dddbfa9a6b85420ecf', 'detail_info': {'tag': '丽人;美容', 'type': 'beauty', 'detail_url': 'http://api.map.baidu.com/place/detail?uid=dd17f1dddbfa9a6b85420ecf&output=html&source=placeapi_v2', 'children': [], 'lat': 34.3029219876677, 'lng': 108.80902948944572}}"
"{'name': '八白芳祛斑祛痘', 'location': {'lat': 34.29257463431354, 'lng': 108.8188790673778}, 'address': '陕西省西安市未央区征和六路', 'province': '陕西省', 'city': '西安市', 'area': '未央区', 'detail': 1, 'uid': '9e7374c486688abfdeee8b91', 'detail_info': {'tag': '丽人;美容', 'type': 'beauty', 'detail_url': 'http://api.map.baidu.com/place/detail?uid=9e7374c486688abfdeee8b91&output=html&source=placeapi_v2', 'children': [], 'lat': 34.29257463431354, 'lng': 108.8188790673778}}"
"{'name': '益萱手机美容(后卫寨店)', 'location': {'lat': 34.30166119299755, 'lng': 108.81015295561518}, 'address': '后围寨立交桥与西咸路交叉口西北150米', 'province': '陕西省', 'city': '西安市', 'area': '未央区', 'detail': 1, 'uid': '90f4ffb5c762395aa6da3994', 'detail_info': {'tag': '丽人;美容', 'type': 'beauty', 'detail_url': 'http://api.map.baidu.com/place/detail?uid=90f4ffb5c762395aa6da3994&output=html&source=placeapi_v2', 'children': [], 'lat': 34.30166119299755, 'lng': 108.81015295561518}}"
"{'name': '米莱日式美甲(三桥店)', 'location': {'lat': 34.292585082161715, 'lng': 108.82400714889667}, 'address': '三桥华润万象城C座2508室(亚朵酒店旁边，地铁三桥站B口)', 'province': '陕西省', 'city': '西安市', 'area': '未央区', 'detail': 1, 'uid': '61ce1a354fc763b06240a908', 'detail_info': {'tag': '丽人;美甲', 'type': 'beauty', 'detail_url': 'http://api.map.baidu.com/place/detail?uid=61ce1a354fc763b06240a908&output=html&source=placeapi_v2', 'price': '158.0', 'overall_rating': '5.0', 'comment_num': '4', 'children': [], 'lat': 34.292585082161715, 'lng': 108.82400714889667}}"
"{'name': '你豆问题肌肤', 'location': {'lat': 34.2913295829814, 'lng': 108.81893352195289}, 'address': '陕西省西安市未央区征和六路', 'province': '陕西省', 'city': '西安市', 'area': '未央区', 'telephone': '19929932108,17791826501', 'detail': 1, 'uid': '2e06e09f794c747be6073866', 'detail_info': {'tag': '丽人;美容', 'type': 'beauty', 'detail_url': 'http://api.map.baidu.com/place/detail?uid=2e06e09f794c747be6073866&output=html&source=placeapi_v2', 'children': [], 'lat': 34.2913295829814, 'lng': 108.81893352195289}}"
"{'name': '子木美容美发', 'location': {'lat': 34.29126971042441, 'lng': 108.81901499653618}, 'address': '陕西省西安市未央区征和六路', 'province': '陕西省', 'city': '西安市', 'area': '未央区', 'telephone': '17772928712', 'detail': 1, 'uid': '64e6d76ce2c5dd79b4147ffa', 'detail_info': {'tag': '丽人;美容', 'type': 'beauty', 'detail_url': 'http://api.map.baidu.com/place/detail?uid=64e6d76ce2c5dd79b4147ffa&output=html&source=placeapi_v2', 'children': [], 'lat': 34.29126971042441, 'lng': 108.81901499653618}}"
"{'name': '晓梅发屋', 'location': {'lat': 34.29346047336428, 'lng': 108.80901235566985}, 'address': '天台八路付一路西50米', 'province': '陕西省', 'city': '西安市', 'area': '未央区', 'street_id': '9bd764eab19b266dd1f49e9a', 'detail': 1, 'uid': '9bd764eab19b266dd1f49e9a', 'detail_info': {'tag': '丽人;美发', 'type': 'beauty', 'detail_url': 'http://api.map.baidu.com/place/detail?uid=9bd764eab19b266dd1f49e9a&output=html&source=placeapi_v2', 'children': [], 'lat': 34.29346047336428, 'lng': 108.80901235566985}}"
"{'name': '双双化妆美甲工作室(启航时代广场店)', 'location': {'lat': 34.302898968901964, 'lng': 108.80816152732608}, 'address': '西咸路501号启航时代广场A座B1层', 'province': '陕西省', 'city': '西安市', 'area': '未央区', 'telephone': '15829769554', 'detail': 1, 'uid': '722a2680cb1f2a826fa3ccc0', 'detail_info': {'tag': '丽人;美甲', 'type': 'beauty', 'detail_url': 'http://api.map.baidu.com/place/detail?uid=722a2680cb1f2a826fa3ccc0&output=html&source=placeapi_v2', 'price': '58.0', 'children': [], 'lat': 34.302898968901964, 'lng': 108.80816152732608}}"
"{'name': '亚太三宝专业外敷减肥', 'location': {'lat': 34.291266870051594, 'lng': 108.81793970250591}, 'address': '郑和六路华润二十四城四期34-30108号', 'province': '陕西省', 'city': '西安市', 'area': '未央区', 'telephone': '18091597413', 'detail': 1, 'uid': '9b18d3ce96f975aef9221324', 'detail_info': {'tag': '丽人;美体', 'type': 'beauty', 'detail_url': 'http://api.map.baidu.com/place/detail?uid=9b18d3ce96f975aef9221324&output=html&source=placeapi_v2', 'overall_rating': '5.0', 'comment_num': '2', 'children': [], 'lat': 34.291266870051594, 'lng': 108.81793970250591}}"
"{'name': '媛梦高级美发沙龙', 'location': {'lat': 34.30437801336607, 'lng': 108.80088759267369}, 'address': '陕西省西安市未央区沪霍线辅路', 'province': '陕西省', 'city': '西安市', 'area': '未央区', 'telephone': '15319716667', 'detail': 1, 'uid': 'f69f8308aa80754d8d7727dc', 'detail_info': {'tag': '丽人;美发', 'type': 'beauty', 'detail_url': 'http://api.map.baidu.com/place/detail?uid=f69f8308aa80754d8d7727dc&output=html&source=placeapi_v2', 'children': [], 'lat': 34.30437801336607, 'lng': 108.80088759267369}}"
"{'name': '铭媛美发店', 'location': {'lat': 34.292207229923676, 'lng': 108.82104219547419}, 'address': '陕西省西安市未央区征和六路沣东新城华润二十四城6号楼1011室', 'province': '陕西省', 'city': '西安市', 'area': '未央区', 'telephone': '(029)84538226', 'detail': 1, 'uid': 'acd16bcc0e33b79fcac3db1f', 'detail_info': {'tag': '丽人;美发', 'type': 'beauty', 'detail_url': 'http://api.map.baidu.com/place/detail?uid=acd16bcc0e33b79fcac3db1f&output=html&source=placeapi_v2', 'overall_rating': '4.1', 'comment_num': '7', 'children': [], 'lat': 34.292207229923676, 'lng': 108.82104219547419}}"
"{'name': '美甲美睫皮肤管理', 'location': {'lat': 34.292840832806355, 'lng': 108.8186708187952}, 'address': '西安市未央区', 'province': '陕西省', 'city': '西安市', 'area': '未央区', 'telephone': '17766661907', 'detail': 1, 'uid': '2b0aeaecc81e5e9ba2a934ca', 'detail_info': {'tag': '丽人;美容', 'type': 'beauty', 'detail_url': 'http://api.map.baidu.com/place/detail?uid=2b0aeaecc81e5e9ba2a934ca&output=html&source=placeapi_v2', 'children': [], 'lat': 34.292840832806355, 'lng': 108.8186708187952}}"
"{'name': '唯美时光美容养生会所(沣东新城店)', 'location': {'lat': 34.30215796690437, 'lng': 108.80879435129097}, 'address': '沣东新城西咸大道启航时代广场c座1502室', 'province': '陕西省', 'city': '西安市', 'area': '未央区', 'detail': 1, 'uid': '3b1ad479bebef3e7b6147f7e', 'detail_info': {'tag': '丽人;美容', 'type': 'beauty', 'detail_url': 'http://api.map.baidu.com/place/detail?uid=3b1ad479bebef3e7b6147f7e&output=html&source=placeapi_v2', 'children': [], 'lat': 34.30215796690437, 'lng': 108.80879435129097}}"
"{'name': '幻颜之美', 'location': {'lat': 34.29205697766797, 'lng': 108.81886907754821}, 'address': '三桥华润二十四城11号楼商铺11-10105', 'province': '陕西省', 'city': '西安市', 'area': '未央区', 'street_id': 'f435658f004b9a0c04026f39', 'telephone': '15809286089', 'detail': 1, 'uid': 'f435658f004b9a0c04026f39', 'detail_info': {'tag': '丽人;美容', 'type': 'beauty', 'detail_url': 'http://api.map.baidu.com/place/detail?uid=f435658f004b9a0c04026f39&output=html&source=placeapi_v2', 'children': [], 'lat': 34.29205697766797, 'lng': 108.81886907754821}}"
"{'name': '陕西永琪美容美发公司', 'location': {'lat': 34.30255450988695, 'lng': 108.80794021800719}, 'address': '陕西省西安市未央区三桥街道后卫寨启航时代广场a座', 'province': '陕西省', 'city': '西安市', 'area': '未央区', 'detail': 1, 'uid': 'd1a618088493d99cf6e73b78', 'detail_info': {'tag': '丽人;美发', 'type': 'beauty', 'detail_url': 'http://api.map.baidu.com/place/detail?uid=d1a618088493d99cf6e73b78&output=html&source=placeapi_v2', 'children': [], 'lat': 34.30255450988695, 'lng': 108.80794021800719}}"
"{'name': '自由人造型', 'location': {'lat': 34.30257327297679, 'lng': 108.79868928698747}, 'address': '陕西省西安市未央区G30连霍高速新店温泉小区旁', 'province': '陕西省', 'city': '西安市', 'area': '未央区', 'telephone': '18392968739', 'detail': 1, 'uid': '3d28a0bba9ab3e7043ab9a1f', 'detail_info': {'tag': '丽人;美发', 'type': 'beauty', 'detail_url': 'http://api.map.baidu.com/place/detail?uid=3d28a0bba9ab3e7043ab9a1f&output=html&source=placeapi_v2', 'overall_rating': '5.0', 'comment_num': '2', 'children': [], 'lat': 34.30257327297679, 'lng': 108.79868928698747}}"
"{'name': '御滋堂协和养发', 'location': {'lat': 34.29206344767025, 'lng': 108.82072248450022}, 'address': '三桥街道征合六路华润24城6号商铺6-10117', 'province': '陕西省', 'city': '西安市', 'area': '未央区', 'telephone': '(029)84413086', 'detail': 1, 'uid': '8dbceefadd456cadbbbd63d7', 'detail_info': {'tag': '丽人;美发', 'type': 'beauty', 'detail_url': 'http://api.map.baidu.com/place/detail?uid=8dbceefadd456cadbbbd63d7&output=html&source=placeapi_v2', 'overall_rating': '0.0', 'comment_num': '1', 'children': [], 'lat': 34.29206344767025, 'lng': 108.82072248450022}}"
"{'name': '佧琦尔美发沙龙', 'location': {'lat': 34.291800292419275, 'lng': 108.8175422791462}, 'address': '陕西省西安市未央区征和六路', 'province': '陕西省', 'city': '西安市', 'area': '未央区', 'telephone': '18710422131', 'detail': 1, 'uid': '04edbfb7208b8467c72ba1f4', 'detail_info': {'tag': '丽人;美发', 'type': 'beauty', 'detail_url': 'http://api.map.baidu.com/place/detail?uid=04edbfb7208b8467c72ba1f4&output=html&source=placeapi_v2', 'children': [], 'lat': 34.291800292419275, 'lng': 108.8175422791462}}"
"{'name': '公主说美甲美睫化妆生活馆(三桥店)', 'location': {'lat': 34.303843368583806, 'lng': 108.80782860414583}, 'address': '三桥后卫寨地铁口启航佳苑B区14号楼1402室', 'province': '陕西省', 'city': '西安市', 'area': '未央区', 'street_id': 'f7d6fae119d8c77eb4265513', 'detail': 1, 'uid': 'f7d6fae119d8c77eb4265513', 'detail_info': {'tag': '丽人;美甲', 'type': 'beauty', 'detail_url': 'http://api.map.baidu.com/place/detail?uid=f7d6fae119d8c77eb4265513&output=html&source=placeapi_v2', 'overall_rating': '0.0', 'comment_num': '0', 'children': [], 'lat': 34.303843368583806, 'lng': 108.80782860414583}}"
"{'name': '优瘦身国际减肥连锁(华润二十四城店)', 'location': {'lat': 34.29281625713482, 'lng': 108.81890317023138}, 'address': '陕西省西安市未央区征和六路华润二十四城二期22--10102', 'province': '陕西省', 'city': '西安市', 'area': '未央区', 'detail': 1, 'uid': '789a5cf626f481c84d2fdfbf', 'detail_info': {'tag': '丽人;美体', 'type': 'beauty', 'detail_url': 'http://api.map.baidu.com/place/detail?uid=789a5cf626f481c84d2fdfbf&output=html&source=placeapi_v2', 'children': [], 'lat': 34.29281625713482, 'lng': 108.81890317023138}}"
"{'name': '一栖一绘美甲美睫工作室', 'location': {'lat': 34.302950969613754, 'lng': 108.80902947066691}, 'address': '启航佳苑a区6栋706', 'province': '陕西省', 'city': '西安市', 'area': '未央区', 'detail': 1, 'uid': '58c90a69fb9a0913eddfcab7', 'detail_info': {'tag': '丽人;美甲', 'type': 'beauty', 'detail_url': 'http://api.map.baidu.com/place/detail?uid=58c90a69fb9a0913eddfcab7&output=html&source=placeapi_v2', 'children': [], 'lat': 34.302950969613754, 'lng': 108.80902947066691}}"
"{'name': '秀瑞斯减肥(三桥店)', 'location': {'lat': 34.29208295499423, 'lng': 108.81887008027178}, 'address': '三桥街道华润二十四城11栋10105号', 'province': '陕西省', 'city': '西安市', 'area': '未央区', 'telephone': '18691986163', 'detail': 1, 'uid': 'ac7097d06f824c6ceee4a56c', 'detail_info': {'tag': '丽人;美体', 'type': 'beauty', 'detail_url': 'http://api.map.baidu.com/place/detail?uid=ac7097d06f824c6ceee4a56c&output=html&source=placeapi_v2', 'children': [], 'lat': 34.29208295499423, 'lng': 108.81887008027178}}"
"{'name': '影·刺青', 'location': {'lat': 34.29241866784773, 'lng': 108.82446933493924}, 'address': '陕西省西安市未央区三桥B口万象城B座3023', 'province': '陕西省', 'city': '西安市', 'area': '未央区', 'detail': 1, 'uid': 'dc30bf871b977cd216a19070', 'detail_info': {'tag': '丽人;其他', 'type': 'beauty', 'detail_url': 'http://api.map.baidu.com/place/detail?uid=dc30bf871b977cd216a19070&output=html&source=placeapi_v2', 'children': [], 'lat': 34.29241866784773, 'lng': 108.82446933493924}}"
"{'name': '美丝缘(天台九路店)', 'location': {'lat': 34.29673648892646, 'lng': 108.80723621350833}, 'address': '西安市未央区天台九路与天台八路付一路交叉口西150米', 'province': '陕西省', 'city': '西安市', 'area': '未央区', 'street_id': '5ba4d4e17c3ed80584420eba', 'detail': 1, 'uid': '5ba4d4e17c3ed80584420eba', 'detail_info': {'tag': '丽人;美发', 'type': 'beauty', 'detail_url': 'http://api.map.baidu.com/place/detail?uid=5ba4d4e17c3ed80584420eba&output=html&source=placeapi_v2', 'children': [], 'lat': 34.29673648892646, 'lng': 108.80723621350833}}"
"{'name': '发型工作室', 'location': {'lat': 34.29677766733587, 'lng': 108.81183867109658}, 'address': '陕西省西安市未央区三桥曦源温泉小区(天台九路北)', 'province': '陕西省', 'city': '西安市', 'area': '未央区', 'street_id': 'f83a62e40dde74fd306212d7', 'detail': 1, 'uid': 'f83a62e40dde74fd306212d7', 'detail_info': {'tag': '丽人;美发', 'type': 'beauty', 'detail_url': 'http://api.map.baidu.com/place/detail?uid=f83a62e40dde74fd306212d7&output=html&source=placeapi_v2', 'children': [], 'lat': 34.29677766733587, 'lng': 108.81183867109658}}"
"{'name': '丽减美瘦吧(三桥万象城店)', 'location': {'lat': 34.29266333650555, 'lng': 108.82274799864713}, 'address': '三桥万象城金街西口二楼2-10205商铺', 'province': '陕西省', 'city': '西安市', 'area': '未央区', 'telephone': '13891096986,15829870520', 'detail': 1, 'uid': 'e66fcbc1acaacc4d0bf5eb0d', 'detail_info': {'tag': '丽人;美容', 'type': 'life', 'detail_url': 'http://api.map.baidu.com/place/detail?uid=e66fcbc1acaacc4d0bf5eb0d&output=html&source=placeapi_v2', 'image_num': '1', 'children': [], 'lat': 34.29266333650555, 'lng': 108.82274799864713}}"
"{'name': 'AL美发中心', 'location': {'lat': 34.29261652853083, 'lng': 108.81915967720701}, 'address': '华润二十四城2-10108商铺(物业隔壁)', 'province': '陕西省', 'city': '西安市', 'area': '未央区', 'street_id': 'a221669e6d0567c181a12eba', 'detail': 1, 'uid': 'a221669e6d0567c181a12eba', 'detail_info': {'tag': '丽人;美发', 'type': 'beauty', 'detail_url': 'http://api.map.baidu.com/place/detail?uid=a221669e6d0567c181a12eba&output=html&source=placeapi_v2', 'price': '86.0', 'children': [], 'lat': 34.29261652853083, 'lng': 108.81915967720701}}"
"{'name': '首艺造型', 'location': {'lat': 34.30762568705292, 'lng': 108.81570825736459}, 'address': '西安市未央区孙武路与天章大道交叉路口往西约50米', 'province': '陕西省', 'city': '西安市', 'area': '未央区', 'detail': 1, 'uid': '56a92acaf4ebe8c736b06cb0', 'detail_info': {'tag': '丽人;美发', 'type': 'beauty', 'detail_url': 'http://api.map.baidu.com/place/detail?uid=56a92acaf4ebe8c736b06cb0&output=html&source=placeapi_v2', 'children': [], 'lat': 34.30762568705292, 'lng': 108.81570825736459}}"
"{'name': '美派造型', 'location': {'lat': 34.30251086591603, 'lng': 108.81166164892375}, 'address': '西安市未央区后卫寨西咸路启航时代广场启航佳苑B区大门口北侧10米', 'province': '陕西省', 'city': '西安市', 'area': '未央区', 'telephone': '13572041456', 'detail': 1, 'uid': '06c43c8eec24765bca09f050', 'detail_info': {'tag': '丽人;美发', 'type': 'beauty', 'detail_url': 'http://api.map.baidu.com/place/detail?uid=06c43c8eec24765bca09f050&output=html&source=placeapi_v2', 'children': [], 'lat': 34.30251086591603, 'lng': 108.81166164892375}}"
"{'name': '卡伊造型(二十四城店)', 'location': {'lat': 34.29327950416752, 'lng': 108.81721610050742}, 'address': '西安市未央区', 'province': '陕西省', 'city': '西安市', 'area': '未央区', 'detail': 1, 'uid': 'b04657fcfff4cd81940319fa', 'detail_info': {'tag': '丽人;美发', 'type': 'beauty', 'detail_url': 'http://api.map.baidu.com/place/detail?uid=b04657fcfff4cd81940319fa&output=html&source=placeapi_v2', 'children': [], 'lat': 34.29327950416752, 'lng': 108.81721610050742}}"
"{'name': '靓安减肥', 'location': {'lat': 34.29184921150967, 'lng': 108.81754730419898}, 'address': '陕西省西安市未央区征和六路', 'province': '陕西省', 'city': '西安市', 'area': '未央区', 'telephone': '18509271869', 'detail': 1, 'uid': '2cdfe9d5449a42e978f7966f', 'detail_info': {'tag': '丽人;美体', 'type': 'beauty', 'detail_url': 'http://api.map.baidu.com/place/detail?uid=2cdfe9d5449a42e978f7966f&output=html&source=placeapi_v2', 'children': [], 'lat': 34.29184921150967, 'lng': 108.81754730419898}}"
"{'name': '美YOYO造型', 'location': {'lat': 34.307588759990786, 'lng': 108.8169107285195}, 'address': '西安市未央区孙武路与天章大道交叉路口北侧', 'province': '陕西省', 'city': '西安市', 'area': '未央区', 'detail': 1, 'uid': '2b0a2f7184f7ac73d2f49edc', 'detail_info': {'tag': '丽人;美发', 'type': 'beauty', 'detail_url': 'http://api.map.baidu.com/place/detail?uid=2b0a2f7184f7ac73d2f49edc&output=html&source=placeapi_v2', 'children': [], 'lat': 34.307588759990786, 'lng': 108.8169107285195}}"
"{'name': '创艺匠心', 'location': {'lat': 34.293407577044626, 'lng': 108.81977302683208}, 'address': '三桥华润二十四城西安华润二十四城3号楼', 'province': '陕西省', 'city': '西安市', 'area': '未央区', 'detail': 1, 'uid': '28c84ce2ab7d414e343a7117', 'detail_info': {'tag': '丽人;美发', 'type': 'beauty', 'detail_url': 'http://api.map.baidu.com/place/detail?uid=28c84ce2ab7d414e343a7117&output=html&source=placeapi_v2', 'children': [], 'lat': 34.293407577044626, 'lng': 108.81977302683208}}"
"{'name': '明道时尚烫染形象设计', 'location': {'lat': 34.296612487622795, 'lng': 108.80770449661921}, 'address': '天台九路与天台八路付一路交叉口西150米', 'province': '陕西省', 'city': '西安市', 'area': '未央区', 'street_id': 'f2f61f75234c7cd29de32196', 'detail': 1, 'uid': 'f2f61f75234c7cd29de32196', 'detail_info': {'tag': '丽人;美发', 'navi_location': {'lng': 108.81882269318, 'lat': 34.301251206605}, 'type': 'beauty', 'detail_url': 'http://api.map.baidu.com/place/detail?uid=f2f61f75234c7cd29de32196&output=html&source=placeapi_v2', 'children': [], 'lat': 34.296612487622795, 'lng': 108.80770449661921}}"
"{'name': '酷派造型', 'location': {'lat': 34.28976515070885, 'lng': 108.82415605928225}, 'address': '西安市未央区凤凰城4号商铺', 'province': '陕西省', 'city': '西安市', 'area': '未央区', 'street_id': '30ff7e10eab65645b54f54c0', 'detail': 1, 'uid': '30ff7e10eab65645b54f54c0', 'detail_info': {'tag': '丽人;美发', 'navi_location': {'lng': 108.83518939557, 'lat': 34.294235338938}, 'type': 'beauty', 'detail_url': 'http://api.map.baidu.com/place/detail?uid=30ff7e10eab65645b54f54c0&output=html&source=placeapi_v2', 'overall_rating': '0.0', 'comment_num': '1', 'children': [], 'lat': 34.28976515070885, 'lng': 108.82415605928225}}"
"{'name': '妍色美业沙龙', 'location': {'lat': 34.28979597784126, 'lng': 108.82417715832496}, 'address': '西安市未央区华宇凤凰城33号楼4012号', 'province': '陕西省', 'city': '西安市', 'area': '未央区', 'street_id': '0589e9a3102d7bc128201a5c', 'telephone': '15349186751', 'detail': 1, 'uid': 'beb5eb9373613cae1d1d1147', 'detail_info': {'tag': '丽人;美发', 'type': 'beauty', 'detail_url': 'http://api.map.baidu.com/place/detail?uid=beb5eb9373613cae1d1d1147&output=html&source=placeapi_v2', 'overall_rating': '0.0', 'comment_num': '1', 'children': [], 'lat': 34.28979597784126, 'lng': 108.82417715832496}}"
"{'name': '艺剪造型(华润24城店)', 'location': {'lat': 34.2918740433194, 'lng': 108.8196063149364}, 'address': '西安市未央区华润24城1幢10103室', 'province': '陕西省', 'city': '西安市', 'area': '未央区', 'street_id': 'f588c4804d04390ae912e4ba', 'telephone': '15999867069', 'detail': 1, 'uid': 'f588c4804d04390ae912e4ba', 'detail_info': {'tag': '丽人;美发', 'type': 'beauty', 'detail_url': 'http://api.map.baidu.com/place/detail?uid=f588c4804d04390ae912e4ba&output=html&source=placeapi_v2', 'price': '43.0', 'children': [], 'lat': 34.2918740433194, 'lng': 108.8196063149364}}"
"{'name': 'U米造型', 'location': {'lat': 34.28976093623323, 'lng': 108.82405357656262}, 'address': '西户路华宇凤凰城门口', 'province': '陕西省', 'city': '西安市', 'area': '未央区', 'street_id': 'f2129ea0ed8e16a993114c10', 'telephone': '18092274895', 'detail': 1, 'uid': 'f2129ea0ed8e16a993114c10', 'detail_info': {'tag': '丽人;美发', 'type': 'beauty', 'detail_url': 'http://api.map.baidu.com/place/detail?uid=f2129ea0ed8e16a993114c10&output=html&source=placeapi_v2', 'overall_rating': '0.0', 'comment_num': '1', 'children': [], 'lat': 34.28976093623323, 'lng': 108.82405357656262}}"
"{'name': '铭洋休闲美业', 'location': {'lat': 34.29270156918275, 'lng': 108.81756932690273}, 'address': '陕西省西安市未央区征和六路', 'province': '陕西省', 'city': '西安市', 'area': '未央区', 'telephone': '18109200924', 'detail': 1, 'uid': 'e0cac68b3c08953f4c2fdfa3', 'detail_info': {'tag': '丽人;美发', 'type': 'beauty', 'detail_url': 'http://api.map.baidu.com/place/detail?uid=e0cac68b3c08953f4c2fdfa3&output=html&source=placeapi_v2', 'children': [], 'lat': 34.29270156918275, 'lng': 108.81756932690273}}"
"{'name': 'X-24发型社', 'location': {'lat': 34.29133830285912, 'lng': 108.81886814334473}, 'address': '征和六路华润二十四城四期', 'province': '陕西省', 'city': '西安市', 'area': '未央区', 'detail': 1, 'uid': '0e61a0449936f79046572638', 'detail_info': {'tag': '丽人;美发', 'type': 'beauty', 'detail_url': 'http://api.map.baidu.com/place/detail?uid=0e61a0449936f79046572638&output=html&source=placeapi_v2', 'children': [], 'lat': 34.29133830285912, 'lng': 108.81886814334473}}"
"{'name': '丽影发艺', 'location': {'lat': 34.29680590004859, 'lng': 108.80927525440903}, 'address': '三桥街道后围寨城温泉小区对面', 'province': '陕西省', 'city': '西安市', 'area': '未央区', 'street_id': '3af397dcdb3f3fe40869d920', 'detail': 1, 'uid': '3af397dcdb3f3fe40869d920', 'detail_info': {'tag': '丽人;美发', 'type': 'beauty', 'detail_url': 'http://api.map.baidu.com/place/detail?uid=3af397dcdb3f3fe40869d920&output=html&source=placeapi_v2', 'children': [], 'lat': 34.29680590004859, 'lng': 108.80927525440903}}"
"{'name': '艺新美发', 'location': {'lat': 34.307529542515695, 'lng': 108.81180193207243}, 'address': '陕西省西安市未央区孙武路', 'province': '陕西省', 'city': '西安市', 'area': '未央区', 'detail': 1, 'uid': '0500612daeba0d899022e046', 'detail_info': {'tag': '丽人;美发', 'type': 'beauty', 'detail_url': 'http://api.map.baidu.com/place/detail?uid=0500612daeba0d899022e046&output=html&source=placeapi_v2', 'children': [], 'lat': 34.307529542515695, 'lng': 108.81180193207243}}"
"{'name': '敏源造型', 'location': {'lat': 34.29675023301502, 'lng': 108.807915909843}, 'address': '陕西省西安市未央区天台九路', 'province': '陕西省', 'city': '西安市', 'area': '未央区', 'detail': 1, 'uid': '24eeeab6e3f2edf5ce04efce', 'detail_info': {'tag': '丽人;美发', 'type': 'beauty', 'detail_url': 'http://api.map.baidu.com/place/detail?uid=24eeeab6e3f2edf5ce04efce&output=html&source=placeapi_v2', 'children': [], 'lat': 34.29675023301502, 'lng': 108.807915909843}}"
"{'name': '发域养发馆', 'location': {'lat': 34.29180938434695, 'lng': 108.81875242902649}, 'address': '陕西省西安市未央区征和六路', 'province': '陕西省', 'city': '西安市', 'area': '未央区', 'detail': 1, 'uid': '5910692210cb0fe09ff77970', 'detail_info': {'tag': '丽人;美发', 'type': 'beauty', 'detail_url': 'http://api.map.baidu.com/place/detail?uid=5910692210cb0fe09ff77970&output=html&source=placeapi_v2', 'children': [], 'lat': 34.29180938434695, 'lng': 108.81875242902649}}"
"{'name': '帝茉澜植物养发馆', 'location': {'lat': 34.30284232710321, 'lng': 108.81189600978121}, 'address': '西安市未央区启航佳苑A区东门对面', 'province': '陕西省', 'city': '西安市', 'area': '未央区', 'detail': 1, 'uid': '8deaf2b77024d8ff2fb90848', 'detail_info': {'tag': '丽人;美发', 'type': 'beauty', 'detail_url': 'http://api.map.baidu.com/place/detail?uid=8deaf2b77024d8ff2fb90848&output=html&source=placeapi_v2', 'children': [], 'lat': 34.30284232710321, 'lng': 108.81189600978121}}"
"{'name': '潮人造型', 'location': {'lat': 34.33419560150815, 'lng': 108.82380301151066}, 'address': '陕西省西安市未央区苏宁电器西安配送中心东南(丰产路)', 'province': '陕西省', 'city': '西安市', 'area': '未央区', 'street_id': 'bdfd9b8e3d63f53a40ab9a3d', 'detail': 1, 'uid': 'bdfd9b8e3d63f53a40ab9a3d', 'detail_info': {'tag': '丽人;美发', 'type': 'beauty', 'detail_url': 'http://api.map.baidu.com/place/detail?uid=bdfd9b8e3d63f53a40ab9a3d&output=html&source=placeapi_v2', 'children': [], 'lat': 34.33419560150815, 'lng': 108.82380301151066}}"
"{'name': '亮点理发店', 'location': {'lat': 34.32174408773513, 'lng': 108.79699179613431}, 'address': '陕西省西安市未央区丰业大道', 'province': '陕西省', 'city': '西安市', 'area': '未央区', 'detail': 1, 'uid': 'd200c49a27e50ce22b11d1c1', 'detail_info': {'tag': '丽人;美发', 'type': 'beauty', 'detail_url': 'http://api.map.baidu.com/place/detail?uid=d200c49a27e50ce22b11d1c1&output=html&source=placeapi_v2', 'children': [], 'lat': 34.32174408773513, 'lng': 108.79699179613431}}"
"{'name': '名姿发型工作室', 'location': {'lat': 34.33741399846865, 'lng': 108.81962965570796}, 'address': '天章大道芊域阳光南区12号楼3单元2层', 'province': '陕西省', 'city': '西安市', 'area': '未央区', 'detail': 1, 'uid': '818542c80a273744c6effb9f', 'detail_info': {'tag': '丽人;美发', 'type': 'beauty', 'detail_url': 'http://api.map.baidu.com/place/detail?uid=818542c80a273744c6effb9f&output=html&source=placeapi_v2', 'overall_rating': '0.0', 'comment_num': '1', 'children': [], 'lat': 34.33741399846865, 'lng': 108.81962965570796}}"
"{'name': '梵古造型工作室', 'location': {'lat': 34.337399556882694, 'lng': 108.81939131678165}, 'address': '建章街道芊域阳光十二号楼三单元一楼', 'province': '陕西省', 'city': '西安市', 'area': '未央区', 'detail': 1, 'uid': 'd16c2faa3aa5090b7ec87684', 'detail_info': {'tag': '丽人;美发', 'type': 'beauty', 'detail_url': 'http://api.map.baidu.com/place/detail?uid=d16c2faa3aa5090b7ec87684&output=html&source=placeapi_v2', 'children': [], 'lat': 34.337399556882694, 'lng': 108.81939131678165}}"
"{'name': '阿强形象设计', 'location': {'lat': 34.33521179297063, 'lng': 108.82433466468395}, 'address': '陕西省西安市未央区X307(丰产路)', 'province': '陕西省', 'city': '西安市', 'area': '未央区', 'telephone': '13152195778', 'detail': 1, 'uid': 'e72bc0bb1faeeff2b04c49dc', 'detail_info': {'tag': '丽人;美发', 'type': 'beauty', 'detail_url': 'http://api.map.baidu.com/place/detail?uid=e72bc0bb1faeeff2b04c49dc&output=html&source=placeapi_v2', 'children': [], 'lat': 34.33521179297063, 'lng': 108.82433466468395}}"
"{'name': '首艺造型', 'location': {'lat': 34.33506446523718, 'lng': 108.82412681484367}, 'address': '陕西省西安市未央区X307(丰产路)', 'province': '陕西省', 'city': '西安市', 'area': '未央区', 'telephone': '17868622804', 'detail': 1, 'uid': '7b7f1a0928f269ac130daaaf', 'detail_info': {'tag': '丽人;美发', 'type': 'beauty', 'detail_url': 'http://api.map.baidu.com/place/detail?uid=7b7f1a0928f269ac130daaaf&output=html&source=placeapi_v2', 'children': [], 'lat': 34.33506446523718, 'lng': 108.82412681484367}}"
"{'name': '伊姿美', 'location': {'lat': 34.371774272191125, 'lng': 108.76686869795168}, 'address': '咸阳市渭城区', 'province': '陕西省', 'city': '咸阳市', 'area': '渭城区', 'detail': 1, 'uid': '0977790d6986ef618a36ee53', 'detail_info': {'tag': '丽人;美容', 'type': 'beauty', 'detail_url': 'http://api.map.baidu.com/place/detail?uid=0977790d6986ef618a36ee53&output=html&source=placeapi_v2', 'children': [], 'lat': 34.371774272191125, 'lng': 108.76686869795168}}"
"{'name': '琳美造型(金旭路店)', 'location': {'lat': 34.36888057237163, 'lng': 108.77981291474472}, 'address': '金旭路19号', 'province': '陕西省', 'city': '咸阳市', 'area': '渭城区', 'street_id': 'e4bf92c72b34649fda2f281b', 'detail': 1, 'uid': 'e4bf92c72b34649fda2f281b', 'detail_info': {'tag': '丽人;美发', 'type': 'beauty', 'detail_url': 'http://api.map.baidu.com/place/detail?uid=e4bf92c72b34649fda2f281b&output=html&source=placeapi_v2', 'children': [], 'lat': 34.36888057237163, 'lng': 108.77981291474472}}"
"{'name': '靓密码美容美体店', 'location': {'lat': 34.3723381964802, 'lng': 108.7699998639897}, 'address': '长陵路南50米', 'province': '陕西省', 'city': '咸阳市', 'area': '渭城区', 'street_id': 'e4efaf34281a5a5e9a005048', 'detail': 1, 'uid': 'e4efaf34281a5a5e9a005048', 'detail_info': {'tag': '丽人;美容', 'type': 'beauty', 'detail_url': 'http://api.map.baidu.com/place/detail?uid=e4efaf34281a5a5e9a005048&output=html&source=placeapi_v2', 'overall_rating': '0.0', 'children': [], 'lat': 34.3723381964802, 'lng': 108.7699998639897}}"
"{'name': '青之颜美容美体', 'location': {'lat': 34.37175585351791, 'lng': 108.7668157814826}, 'address': '咸阳市渭城区长陵路附近', 'province': '陕西省', 'city': '咸阳市', 'area': '渭城区', 'telephone': '17749295329', 'detail': 1, 'uid': '6f7ca5dee59a82cdae31e5af', 'detail_info': {'tag': '丽人;美容', 'type': 'beauty', 'detail_url': 'http://api.map.baidu.com/place/detail?uid=6f7ca5dee59a82cdae31e5af&output=html&source=placeapi_v2', 'overall_rating': '0.0', 'children': [], 'lat': 34.37175585351791, 'lng': 108.7668157814826}}"
"{'name': '小石发艺', 'location': {'lat': 34.369670247483924, 'lng': 108.7817323077983}, 'address': '陕西省咸阳市渭城区金旭路', 'province': '陕西省', 'city': '咸阳市', 'area': '渭城区', 'street_id': '5b83c1e21b08e69edbd891a7', 'detail': 1, 'uid': '5b83c1e21b08e69edbd891a7', 'detail_info': {'tag': '丽人;美发', 'type': 'beauty', 'detail_url': 'http://api.map.baidu.com/place/detail?uid=5b83c1e21b08e69edbd891a7&output=html&source=placeapi_v2', 'children': [], 'lat': 34.369670247483924, 'lng': 108.7817323077983}}"
"{'name': '安森专业烫染', 'location': {'lat': 34.37274361647135, 'lng': 108.77068166009803}, 'address': '长陵路三普东区门口', 'province': '陕西省', 'city': '咸阳市', 'area': '渭城区', 'detail': 1, 'uid': '916ed5674a06f1632811d126', 'detail_info': {'tag': '丽人;美发', 'type': 'beauty', 'detail_url': 'http://api.map.baidu.com/place/detail?uid=916ed5674a06f1632811d126&output=html&source=placeapi_v2', 'children': [], 'lat': 34.37274361647135, 'lng': 108.77068166009803}}"
"{'name': '诚成发艺', 'location': {'lat': 34.37437745919257, 'lng': 108.77344036947801}, 'address': '长陵路石桥门楼东', 'province': '陕西省', 'city': '咸阳市', 'area': '渭城区', 'detail': 1, 'uid': 'eee69a23ee9e18ac4207c199', 'detail_info': {'tag': '丽人;美发', 'type': 'beauty', 'detail_url': 'http://api.map.baidu.com/place/detail?uid=eee69a23ee9e18ac4207c199&output=html&source=placeapi_v2', 'children': [], 'lat': 34.37437745919257, 'lng': 108.77344036947801}}"
"{'name': '西咸新区大众理发', 'location': {'lat': 34.37687030148302, 'lng': 108.77991855182093}, 'address': '长陵路与101县道交叉口西150米', 'province': '陕西省', 'city': '咸阳市', 'area': '渭城区', 'detail': 1, 'uid': '003dbf813aa41b8b8bdb73fd', 'detail_info': {'tag': '丽人;美发', 'type': 'beauty', 'detail_url': 'http://api.map.baidu.com/place/detail?uid=003dbf813aa41b8b8bdb73fd&output=html&source=placeapi_v2', 'children': [], 'lat': 34.37687030148302, 'lng': 108.77991855182093}}"
"{'name': '玲玲发屋(长陵路店)', 'location': {'lat': 34.37336270958322, 'lng': 108.77094299988696}, 'address': '陕西省咸阳市渭城区长陵路淳化小周饸饹旁', 'province': '陕西省', 'city': '咸阳市', 'area': '渭城区', 'street_id': '56d0608f52c4cffaf32d8326', 'detail': 1, 'uid': '56d0608f52c4cffaf32d8326', 'detail_info': {'tag': '丽人;美发', 'type': 'beauty', 'detail_url': 'http://api.map.baidu.com/place/detail?uid=56d0608f52c4cffaf32d8326&output=html&source=placeapi_v2', 'children': [], 'lat': 34.37336270958322, 'lng': 108.77094299988696}}"
"{'name': '波波美发(长陵路)', 'location': {'lat': 34.37141138152935, 'lng': 108.767253727636}, 'address': '陕西省咸阳市渭城区X101', 'province': '陕西省', 'city': '咸阳市', 'area': '渭城区', 'street_id': '674606f845939f972fb96dff', 'detail': 1, 'uid': '674606f845939f972fb96dff', 'detail_info': {'tag': '丽人;美发', 'type': 'beauty', 'detail_url': 'http://api.map.baidu.com/place/detail?uid=674606f845939f972fb96dff&output=html&source=placeapi_v2', 'overall_rating': '0.0', 'children': [], 'lat': 34.37141138152935, 'lng': 108.767253727636}}"
"{'name': '烫染空间(长陵路)', 'location': {'lat': 34.371721070262986, 'lng': 108.76684170613927}, 'address': '渭城街道玻璃厂小门向西50米', 'province': '陕西省', 'city': '咸阳市', 'area': '渭城区', 'street_id': 'b7ee0efdc8383ab9b5265591', 'detail': 1, 'uid': 'b7ee0efdc8383ab9b5265591', 'detail_info': {'tag': '丽人;美发', 'type': 'beauty', 'detail_url': 'http://api.map.baidu.com/place/detail?uid=b7ee0efdc8383ab9b5265591&output=html&source=placeapi_v2', 'children': [], 'lat': 34.371721070262986, 'lng': 108.76684170613927}}"
"{'name': '琴儿发秀', 'location': {'lat': 34.37408437296326, 'lng': 108.77268605738674}, 'address': '朝阳五路与长陵路交叉口西50米', 'province': '陕西省', 'city': '咸阳市', 'area': '渭城区', 'street_id': '32f428626f3da6a5a8175a59', 'detail': 1, 'uid': '32f428626f3da6a5a8175a59', 'detail_info': {'tag': '丽人;美发', 'type': 'beauty', 'detail_url': 'http://api.map.baidu.com/place/detail?uid=32f428626f3da6a5a8175a59&output=html&source=placeapi_v2', 'overall_rating': '0.0', 'children': [], 'lat': 34.37408437296326, 'lng': 108.77268605738674}}"
"{'name': '海娜花植物养发馆', 'location': {'lat': 34.37342749410824, 'lng': 108.77209258842413}, 'address': '朝阳五路与长陵路交叉口西南100米', 'province': '陕西省', 'city': '咸阳市', 'area': '渭城区', 'street_id': '9e26f1110760724e72210bba', 'detail': 1, 'uid': '9e26f1110760724e72210bba', 'detail_info': {'tag': '丽人;美发', 'type': 'beauty', 'detail_url': 'http://api.map.baidu.com/place/detail?uid=9e26f1110760724e72210bba&output=html&source=placeapi_v2', 'children': [], 'lat': 34.37342749410824, 'lng': 108.77209258842413}}"
"{'name': '样样红发型', 'location': {'lat': 34.375189751923635, 'lng': 108.77562227563541}, 'address': '陕西省咸阳市渭城区长陵路', 'province': '陕西省', 'city': '咸阳市', 'area': '渭城区', 'street_id': 'd23c85e06ede96e048cc4a80', 'detail': 1, 'uid': 'd23c85e06ede96e048cc4a80', 'detail_info': {'tag': '丽人;美发', 'type': 'beauty', 'detail_url': 'http://api.map.baidu.com/place/detail?uid=d23c85e06ede96e048cc4a80&output=html&source=placeapi_v2', 'children': [], 'lat': 34.375189751923635, 'lng': 108.77562227563541}}"
"{'name': '时尚追踪专业烫染', 'location': {'lat': 34.37200080217792, 'lng': 108.76746083722853}, 'address': '陕西省咸阳市渭城区X101', 'province': '陕西省', 'city': '咸阳市', 'area': '渭城区', 'street_id': '5912f74b5cb34daa40afe62f', 'detail': 1, 'uid': '5912f74b5cb34daa40afe62f', 'detail_info': {'tag': '丽人;美发', 'type': 'beauty', 'detail_url': 'http://api.map.baidu.com/place/detail?uid=5912f74b5cb34daa40afe62f&output=html&source=placeapi_v2', 'overall_rating': '0.0', 'children': [], 'lat': 34.37200080217792, 'lng': 108.76746083722853}}"
"{'name': '晨霞发艺', 'location': {'lat': 34.374841852782026, 'lng': 108.77565200612734}, 'address': '陕西省咸阳市渭城区X101', 'province': '陕西省', 'city': '咸阳市', 'area': '渭城区', 'street_id': '87d19a475f1774d8ca2915b5', 'detail': 1, 'uid': '87d19a475f1774d8ca2915b5', 'detail_info': {'tag': '丽人;美发', 'type': 'beauty', 'detail_url': 'http://api.map.baidu.com/place/detail?uid=87d19a475f1774d8ca2915b5&output=html&source=placeapi_v2', 'children': [], 'lat': 34.374841852782026, 'lng': 108.77565200612734}}"
"{'name': '阳光造型', 'location': {'lat': 34.37224454837605, 'lng': 108.76812399269363}, 'address': '长陵路32号附近', 'province': '陕西省', 'city': '咸阳市', 'area': '渭城区', 'street_id': 'f9ddbf257d0f1496d0ff235f', 'telephone': '18391455425,18740309790', 'detail': 1, 'uid': 'f9ddbf257d0f1496d0ff235f', 'detail_info': {'tag': '丽人;美发', 'type': 'beauty', 'detail_url': 'http://api.map.baidu.com/place/detail?uid=f9ddbf257d0f1496d0ff235f&output=html&source=placeapi_v2', 'children': [], 'lat': 34.37224454837605, 'lng': 108.76812399269363}}"
"{'name': '小芳造型', 'location': {'lat': 34.37163727464891, 'lng': 108.76661706409855}, 'address': '第二人民医院东郊分院东30米', 'province': '陕西省', 'city': '咸阳市', 'area': '渭城区', 'street_id': 'd2da61570e0ff8312b06ce0f', 'detail': 1, 'uid': 'd2da61570e0ff8312b06ce0f', 'detail_info': {'tag': '丽人;美发', 'type': 'beauty', 'detail_url': 'http://api.map.baidu.com/place/detail?uid=d2da61570e0ff8312b06ce0f&output=html&source=placeapi_v2', 'overall_rating': '0.0', 'children': [], 'lat': 34.37163727464891, 'lng': 108.76661706409855}}"
"{'name': '七分美造型', 'location': {'lat': 34.37080173069933, 'lng': 108.76559453715275}, 'address': '长陵路', 'province': '陕西省', 'city': '咸阳市', 'area': '渭城区', 'street_id': '84680c39450c079fc1f1cf90', 'detail': 1, 'uid': '84680c39450c079fc1f1cf90', 'detail_info': {'tag': '丽人;美发', 'navi_location': {'lng': 108.77698216023, 'lat': 34.375297367208}, 'type': 'beauty', 'detail_url': 'http://api.map.baidu.com/place/detail?uid=84680c39450c079fc1f1cf90&output=html&source=placeapi_v2', 'children': [], 'lat': 34.37080173069933, 'lng': 108.76559453715275}}"
"{'name': '发缘地精品烫染店', 'location': {'lat': 34.37144899026663, 'lng': 108.7673346180079}, 'address': '陕西省咸阳市渭城区X101', 'province': '陕西省', 'city': '咸阳市', 'area': '渭城区', 'street_id': '77d364ec82846788f503b88c', 'detail': 1, 'uid': '77d364ec82846788f503b88c', 'detail_info': {'tag': '丽人;美发', 'type': 'beauty', 'detail_url': 'http://api.map.baidu.com/place/detail?uid=77d364ec82846788f503b88c&output=html&source=placeapi_v2', 'children': [], 'lat': 34.37144899026663, 'lng': 108.7673346180079}}"
"{'name': '起点专业剪烫染', 'location': {'lat': 34.37415988353836, 'lng': 108.77285611962392}, 'address': '朝阳五路与长陵路交叉口西北50米', 'province': '陕西省', 'city': '咸阳市', 'area': '渭城区', 'telephone': '13060446640', 'detail': 1, 'uid': 'e13e607a351948378bdb7323', 'detail_info': {'tag': '丽人;美发', 'type': 'beauty', 'detail_url': 'http://api.map.baidu.com/place/detail?uid=e13e607a351948378bdb7323&output=html&source=placeapi_v2', 'children': [], 'lat': 34.37415988353836, 'lng': 108.77285611962392}}"
"{'name': '舞精灵舞蹈班', 'location': {'lat': 34.37633554651572, 'lng': 108.77952120998677}, 'address': '陕西省咸阳市渭城区X101', 'province': '陕西省', 'city': '咸阳市', 'area': '渭城区', 'street_id': '6263dbecae17d9cd4c6d465b', 'detail': 1, 'uid': '6263dbecae17d9cd4c6d465b', 'detail_info': {'tag': '运动健身;健身中心', 'type': 'life', 'detail_url': 'http://api.map.baidu.com/place/detail?uid=6263dbecae17d9cd4c6d465b&output=html&source=placeapi_v2', 'image_num': '3', 'children': [], 'lat': 34.37633554651572, 'lng': 108.77952120998677}}"
"{'name': '皇家天使养生SPA美容会所(绿地世纪城店)', 'location': {'lat': 34.19781932198496, 'lng': 108.87210884918714}, 'address': '西安市雁塔区锦业路1号丈八三路绿地世纪城B区10102号', 'province': '陕西省', 'city': '西安市', 'area': '雁塔区', 'street_id': 'c6cffc00537bcc832cb9088b', 'telephone': '(029)65690009', 'detail': 1, 'uid': 'c6cffc00537bcc832cb9088b', 'detail_info': {'tag': '丽人;美容', 'type': 'beauty', 'detail_url': 'http://api.map.baidu.com/place/detail?uid=c6cffc00537bcc832cb9088b&output=html&source=placeapi_v2', 'price': '100.0', 'overall_rating': '4.7', 'comment_num': '12', 'children': [], 'lat': 34.19781932198496, 'lng': 108.87210884918714}}"
"{'name': '黛姿悦美容美体中心(绿地缤纷荟店)', 'location': {'lat': 34.19611319572382, 'lng': 108.87627576112428}, 'address': '锦业路丈八二路十字路口绿地缤纷荟3F', 'province': '陕西省', 'city': '西安市', 'area': '雁塔区', 'telephone': '(029)81142757', 'detail': 1, 'uid': '7db9e6c0ed3cafd9a2d2307f', 'detail_info': {'tag': '丽人;美容', 'type': 'beauty', 'detail_url': 'http://api.map.baidu.com/place/detail?uid=7db9e6c0ed3cafd9a2d2307f&output=html&source=placeapi_v2', 'price': '71.0', 'overall_rating': '4.8', 'comment_num': '11', 'children': [], 'lat': 34.19611319572382, 'lng': 108.87627576112428}}"
"{'name': 'YESIDO椰岛造型(益田假日里店)', 'location': {'lat': 34.19626111808544, 'lng': 108.87810131099522}, 'address': '高新区锦业路益田假日里购物中心2楼', 'province': '陕西省', 'city': '西安市', 'area': '雁塔区', 'telephone': '(029)81159221', 'detail': 1, 'uid': 'c71b9091a52da65aae045746', 'detail_info': {'tag': '丽人;美容', 'type': 'beauty', 'detail_url': 'http://api.map.baidu.com/place/detail?uid=c71b9091a52da65aae045746&output=html&source=placeapi_v2', 'overall_rating': '5.0', 'comment_num': '4', 'children': [], 'lat': 34.19626111808544, 'lng': 108.87810131099522}}"
"{'name': '爱婕妤美容美发养生连锁机构(高新店)', 'location': {'lat': 34.20349985284645, 'lng': 108.86237549786892}, 'address': '陕西省西安市雁塔区瞪羚路', 'province': '陕西省', 'city': '西安市', 'area': '雁塔区', 'telephone': '(029)81115277', 'detail': 1, 'uid': '75b35218e1ede10a6240a998', 'detail_info': {'tag': '丽人;美容', 'type': 'beauty', 'detail_url': 'http://api.map.baidu.com/place/detail?uid=75b35218e1ede10a6240a998&output=html&source=placeapi_v2', 'overall_rating': '3.2', 'comment_num': '9', 'children': [], 'lat': 34.20349985284645, 'lng': 108.86237549786892}}"
"{'name': '希克造型', 'location': {'lat': 34.19630040512322, 'lng': 108.87603655018526}, 'address': '陕西省西安市雁塔区丈八沟街道绿地世纪城丈八三路与锦业路十字向向西两百米', 'province': '陕西省', 'city': '西安市', 'area': '雁塔区', 'detail': 1, 'uid': 'e90c967720034b7471210b43', 'detail_info': {'tag': '丽人;美发', 'type': 'beauty', 'detail_url': 'http://api.map.baidu.com/place/detail?uid=e90c967720034b7471210b43&output=html&source=placeapi_v2', 'children': [], 'lat': 34.19630040512322, 'lng': 108.87603655018526}}"
"{'name': '摩登潮牌造型hairsalon(高新店)', 'location': {'lat': 34.19625339855489, 'lng': 108.86954604177689}, 'address': '丈八三路5号绿地世纪城仕嘉公寓A区44号', 'province': '陕西省', 'city': '西安市', 'area': '雁塔区', 'detail': 1, 'uid': '431516a4e2e05c5c21022077', 'detail_info': {'tag': '丽人;美发', 'type': 'beauty', 'detail_url': 'http://api.map.baidu.com/place/detail?uid=431516a4e2e05c5c21022077&output=html&source=placeapi_v2', 'price': '41.0', 'overall_rating': '4.5', 'comment_num': '18', 'children': [], 'lat': 34.19625339855489, 'lng': 108.86954604177689}}"
"{'name': '诚美美容养生馆(科技六路店)', 'location': {'lat': 34.21299696589422, 'lng': 108.8713623706259}, 'address': '科技六路西口枫林意树北门12栋2单元1层', 'province': '陕西省', 'city': '西安市', 'area': '雁塔区', 'street_id': '7cfcf7201766278f52e5c53f', 'telephone': '(029)88814503', 'detail': 1, 'uid': '7cfcf7201766278f52e5c53f', 'detail_info': {'tag': '丽人;美容', 'navi_location': {'lng': 108.8824733949, 'lat': 34.217531820424}, 'type': 'beauty', 'detail_url': 'http://api.map.baidu.com/place/detail?uid=7cfcf7201766278f52e5c53f&output=html&source=placeapi_v2', 'overall_rating': '5.0', 'comment_num': '1', 'children': [], 'lat': 34.21299696589422, 'lng': 108.8713623706259}}"
"{'name': '域见造型', 'location': {'lat': 34.19690862274022, 'lng': 108.87059659393104}, 'address': '丈八三路绿地世纪城A区中国银行后面(锦业路与丈八三路交叉口旁)', 'province': '陕西省', 'city': '西安市', 'area': '雁塔区', 'telephone': '(029)68978070,18710618335', 'detail': 1, 'uid': '65fd4520aef84e594c6d464d', 'detail_info': {'tag': '丽人;美发', 'type': 'beauty', 'detail_url': 'http://api.map.baidu.com/place/detail?uid=65fd4520aef84e594c6d464d&output=html&source=placeapi_v2', 'overall_rating': '2.6', 'comment_num': '5', 'children': [], 'lat': 34.19690862274022, 'lng': 108.87059659393104}}"
"{'name': '时间海科学美肤中心(西安绿地店)', 'location': {'lat': 34.19755495008021, 'lng': 108.8726646681098}, 'address': '高新区丈八三路绿地世纪城食饕街B区10126号', 'province': '陕西省', 'city': '西安市', 'area': '雁塔区', 'street_id': '06ff1da015258d35621c67c2', 'detail': 1, 'uid': '06ff1da015258d35621c67c2', 'detail_info': {'tag': '丽人;美容', 'type': 'beauty', 'detail_url': 'http://api.map.baidu.com/place/detail?uid=06ff1da015258d35621c67c2&output=html&source=placeapi_v2', 'overall_rating': '4.8', 'comment_num': '8', 'children': [], 'lat': 34.19755495008021, 'lng': 108.8726646681098}}"
"{'name': '克丽缇娜(绿地世纪城店)', 'location': {'lat': 34.19828239631106, 'lng': 108.87126114243634}, 'address': '陕西省西安市雁塔区丈八三路5北70米', 'province': '陕西省', 'city': '西安市', 'area': '雁塔区', 'street_id': '6c739819c608dee3c1f1cf11', 'telephone': '(029)68252111,13201622008', 'detail': 1, 'uid': '6c739819c608dee3c1f1cf11', 'detail_info': {'tag': '丽人;美容', 'type': 'beauty', 'detail_url': 'http://api.map.baidu.com/place/detail?uid=6c739819c608dee3c1f1cf11&output=html&source=placeapi_v2', 'overall_rating': '4.2', 'comment_num': '5', 'children': [], 'lat': 34.19828239631106, 'lng': 108.87126114243634}}"
"{'name': '克丽缇娜(枫林意树店)', 'location': {'lat': 34.212857165188055, 'lng': 108.87212309969358}, 'address': '西安市雁塔区科技六路与高新六路交叉路口西南侧(天地源·枫林意树)', 'province': '陕西省', 'city': '西安市', 'area': '雁塔区', 'telephone': '18792589989,(029)84503525', 'detail': 1, 'uid': '6d83cbdd72d7f455354aaebc', 'detail_info': {'tag': '丽人;美容', 'type': 'beauty', 'detail_url': 'http://api.map.baidu.com/place/detail?uid=6d83cbdd72d7f455354aaebc&output=html&source=placeapi_v2', 'overall_rating': '4.8', 'comment_num': '28', 'children': [], 'lat': 34.212857165188055, 'lng': 108.87212309969358}}"
"{'name': '姬颜氏美丽汇美肤管理(逸翠园i都会店)', 'location': {'lat': 34.18606352819315, 'lng': 108.88050477545313}, 'address': '唐延南路逸翠园I都会3号楼3单元926室', 'province': '陕西省', 'city': '西安市', 'area': '雁塔区', 'telephone': '15319411351', 'detail': 1, 'uid': 'c44f6fe75d2f73045bf6bef8', 'detail_info': {'tag': '丽人;美容', 'type': 'beauty', 'detail_url': 'http://api.map.baidu.com/place/detail?uid=c44f6fe75d2f73045bf6bef8&output=html&source=placeapi_v2', 'price': '86.0', 'overall_rating': '5.0', 'comment_num': '2', 'children': [], 'lat': 34.18606352819315, 'lng': 108.88050477545313}}"
"{'name': '香延形象设计中心', 'location': {'lat': 34.184637578162736, 'lng': 108.87774117862992}, 'address': '陕西省西安市雁塔区逸翠·尚府北区8栋楼', 'province': '陕西省', 'city': '西安市', 'area': '雁塔区', 'street_id': 'b942777580288c488e772701', 'telephone': '18629426131', 'detail': 1, 'uid': 'b942777580288c488e772701', 'detail_info': {'tag': '丽人;美发', 'navi_location': {'lng': 108.88829101631, 'lat': 34.18832150729}, 'type': 'beauty', 'detail_url': 'http://api.map.baidu.com/place/detail?uid=b942777580288c488e772701&output=html&source=placeapi_v2', 'overall_rating': '3.5', 'comment_num': '3', 'children': [], 'lat': 34.184637578162736, 'lng': 108.87774117862992}}"
"{'name': '永琪美容美发(绿地世纪城店)', 'location': {'lat': 34.198581088633, 'lng': 108.87068242690576}, 'address': '丈八三路绿地世纪城A区46号', 'province': '陕西省', 'city': '西安市', 'area': '雁塔区', 'street_id': '7634fe265ee63f89f822130d', 'telephone': '(029)68250561', 'detail': 1, 'uid': '7634fe265ee63f89f822130d', 'detail_info': {'tag': '丽人;美发', 'navi_location': {'lng': 108.88182967636, 'lat': 34.202779300379}, 'type': 'beauty', 'detail_url': 'http://api.map.baidu.com/place/detail?uid=7634fe265ee63f89f822130d&output=html&source=placeapi_v2', 'price': '473.0', 'overall_rating': '2.6', 'comment_num': '9', 'children': [], 'lat': 34.198581088633, 'lng': 108.87068242690576}}"
"{'name': '韩国志允美容美发', 'location': {'lat': 34.18359581561751, 'lng': 108.87503098172569}, 'address': '陕西省西安市雁塔区锦业二路12南90米', 'province': '陕西省', 'city': '西安市', 'area': '雁塔区', 'telephone': '(029)89284208,13312131577', 'detail': 1, 'uid': '4ec94f848d02666f40ab9a4d', 'detail_info': {'tag': '丽人;美容', 'type': 'beauty', 'detail_url': 'http://api.map.baidu.com/place/detail?uid=4ec94f848d02666f40ab9a4d&output=html&source=placeapi_v2', 'overall_rating': '4.0', 'comment_num': '1', 'children': [], 'lat': 34.18359581561751, 'lng': 108.87503098172569}}"
"{'name': '阿劳马美发美容美甲', 'location': {'lat': 34.19600749241192, 'lng': 108.87234570690975}, 'address': '西安市雁塔区锦业路与丈八三路交叉路口往东约100米(绿地中央广场)', 'province': '陕西省', 'city': '西安市', 'area': '雁塔区', 'street_id': 'a4d12d8943b21197704b879f', 'detail': 1, 'uid': 'a4d12d8943b21197704b879f', 'detail_info': {'tag': '丽人;美容', 'type': 'beauty', 'detail_url': 'http://api.map.baidu.com/place/detail?uid=a4d12d8943b21197704b879f&output=html&source=placeapi_v2', 'price': '120.0', 'overall_rating': '3.3', 'comment_num': '4', 'children': [], 'lat': 34.19600749241192, 'lng': 108.87234570690975}}"
"{'name': '永琪美容美发(枫林意树店)', 'location': {'lat': 34.212942603202485, 'lng': 108.87455539892062}, 'address': '西安市雁塔区枫林意树北门200号', 'province': '陕西省', 'city': '西安市', 'area': '雁塔区', 'street_id': '870ac98392a47aa3abf72956', 'telephone': '(029)81778456', 'detail': 1, 'uid': '870ac98392a47aa3abf72956', 'detail_info': {'tag': '丽人;美发', 'type': 'beauty', 'detail_url': 'http://api.map.baidu.com/place/detail?uid=870ac98392a47aa3abf72956&output=html&source=placeapi_v2', 'price': '107.0', 'overall_rating': '1.6', 'comment_num': '5', 'children': [], 'lat': 34.212942603202485, 'lng': 108.87455539892062}}"
"{'name': '漾肤美研', 'location': {'lat': 34.192066185404414, 'lng': 108.87737836575745}, 'address': '锦业一路中投国际B座701(君悦酒店斜对面)', 'province': '陕西省', 'city': '西安市', 'area': '雁塔区', 'telephone': '15319468063', 'detail': 1, 'uid': '55b0bd46958095c115a1909f', 'detail_info': {'tag': '丽人;美容', 'type': 'beauty', 'detail_url': 'http://api.map.baidu.com/place/detail?uid=55b0bd46958095c115a1909f&output=html&source=placeapi_v2', 'price': '96.0', 'overall_rating': '5.0', 'comment_num': '1', 'children': [], 'lat': 34.192066185404414, 'lng': 108.87737836575745}}"
"{'name': '靓倩美容连锁养生会馆', 'location': {'lat': 34.20514001448386, 'lng': 108.84675430329364}, 'address': '科技八路美寓华庭7号楼3单元604室', 'province': '陕西省', 'city': '西安市', 'area': '雁塔区', 'telephone': '15029574400,(029)62710856', 'detail': 1, 'uid': '4381c13df072d1456cc02c3d', 'detail_info': {'tag': '丽人;美容', 'type': 'beauty', 'detail_url': 'http://api.map.baidu.com/place/detail?uid=4381c13df072d1456cc02c3d&output=html&source=placeapi_v2', 'price': '259.0', 'overall_rating': '5.0', 'comment_num': '9', 'children': [], 'lat': 34.20514001448386, 'lng': 108.84675430329364}}"
"{'name': '瘦吧减肥专门店(唐延南路店)', 'location': {'lat': 34.18550651216066, 'lng': 108.87986349905927}, 'address': '唐延南路与锦业二路交汇逸翠园都会商业街10111号商铺二楼', 'province': '陕西省', 'city': '西安市', 'area': '雁塔区', 'street_id': 'd7813a6e1fb6d2e5d1f49e31', 'telephone': '15002989976', 'detail': 1, 'uid': 'd7813a6e1fb6d2e5d1f49e31', 'detail_info': {'tag': '丽人;美体', 'type': 'beauty', 'detail_url': 'http://api.map.baidu.com/place/detail?uid=d7813a6e1fb6d2e5d1f49e31&output=html&source=placeapi_v2', 'overall_rating': '5.0', 'comment_num': '14', 'children': [], 'lat': 34.18550651216066, 'lng': 108.87986349905927}}"
"{'name': '御馨美容养生会所', 'location': {'lat': 34.19723931305551, 'lng': 108.871333926091}, 'address': '锦业路与丈八三路交叉口绿地仕嘉公寓底商1号', 'province': '陕西省', 'city': '西安市', 'area': '雁塔区', 'detail': 1, 'uid': 'db26b7b298b55f6530169b86', 'detail_info': {'tag': '丽人;美容', 'type': 'beauty', 'detail_url': 'http://api.map.baidu.com/place/detail?uid=db26b7b298b55f6530169b86&output=html&source=placeapi_v2', 'overall_rating': '4.5', 'comment_num': '6', 'children': [], 'lat': 34.19723931305551, 'lng': 108.871333926091}}"
"{'name': '希克造型(绿地世纪城店)', 'location': {'lat': 34.19619784530044, 'lng': 108.86884429302336}, 'address': '丈八三路绿地世纪城A区48-1-10218号(西安饭庄对面)', 'province': '陕西省', 'city': '西安市', 'area': '雁塔区', 'street_id': '0128fa82098f41127c29bd08', 'telephone': '(029)68250512', 'detail': 1, 'uid': '0128fa82098f41127c29bd08', 'detail_info': {'tag': '丽人;美发', 'type': 'beauty', 'detail_url': 'http://api.map.baidu.com/place/detail?uid=0128fa82098f41127c29bd08&output=html&source=placeapi_v2', 'price': '83.0', 'overall_rating': '4.4', 'comment_num': '139', 'children': [], 'lat': 34.19619784530044, 'lng': 108.86884429302336}}"
"{'name': '真挚造型', 'location': {'lat': 34.19869683423667, 'lng': 108.87124377624382}, 'address': '丈八三路绿地世纪城B区10111号(丈八三路绿地世纪城)', 'province': '陕西省', 'city': '西安市', 'area': '雁塔区', 'street_id': '82a0e3d0792c04cc3517dce4', 'telephone': '(029)68729692', 'detail': 1, 'uid': '82a0e3d0792c04cc3517dce4', 'detail_info': {'tag': '丽人;美发', 'type': 'beauty', 'detail_url': 'http://api.map.baidu.com/place/detail?uid=82a0e3d0792c04cc3517dce4&output=html&source=placeapi_v2', 'price': '244.0', 'overall_rating': '4.9', 'comment_num': '12', 'children': [], 'lat': 34.19869683423667, 'lng': 108.87124377624382}}"
"{'name': '拂晓美发造型(锦尚名城店)', 'location': {'lat': 34.19499520585918, 'lng': 108.8404255288171}, 'address': '锦业路88号锦尚名城5号楼1单元10111室', 'province': '陕西省', 'city': '西安市', 'area': '雁塔区', 'telephone': '13468881738', 'detail': 1, 'uid': '21f09c4fe95ad8719c09f7ea', 'detail_info': {'tag': '丽人;美发', 'navi_location': {'lng': 108.8513006064, 'lat': 34.199757035784}, 'type': 'beauty', 'detail_url': 'http://api.map.baidu.com/place/detail?uid=21f09c4fe95ad8719c09f7ea&output=html&source=placeapi_v2', 'overall_rating': '5.0', 'comment_num': '1', 'children': [], 'lat': 34.19499520585918, 'lng': 108.8404255288171}}"
"{'name': '欣文国际皮肤管理中心', 'location': {'lat': 34.21298330323842, 'lng': 108.87522651423635}, 'address': '陕西省西安市高新区丈八街办科技六路天地源枫林意树一幢1单元1层10101号', 'province': '陕西省', 'city': '西安市', 'area': '雁塔区', 'detail': 1, 'uid': 'ab5cf0e6c51245c451e5c565', 'detail_info': {'tag': '丽人;美容', 'type': 'beauty', 'detail_url': 'http://api.map.baidu.com/place/detail?uid=ab5cf0e6c51245c451e5c565&output=html&source=placeapi_v2', 'children': [], 'lat': 34.21298330323842, 'lng': 108.87522651423635}}"
"{'name': '甲之兰美甲(高新店)', 'location': {'lat': 34.19651372984043, 'lng': 108.86879319507374}, 'address': '高新区锦业路绿地世纪城艺饕街A区', 'province': '陕西省', 'city': '西安市', 'area': '雁塔区', 'street_id': '5a54f1eda3629d65e6073873', 'telephone': '(029)65652799,(029)65690107', 'detail': 1, 'uid': '5a54f1eda3629d65e6073873', 'detail_info': {'tag': '丽人;美甲', 'navi_location': {'lng': 108.88130027079, 'lat': 34.200711528465}, 'type': 'beauty', 'detail_url': 'http://api.map.baidu.com/place/detail?uid=5a54f1eda3629d65e6073873&output=html&source=placeapi_v2', 'price': '142.0', 'overall_rating': '4.7', 'comment_num': '14', 'children': [], 'lat': 34.19651372984043, 'lng': 108.86879319507374}}"
"{'name': '西子美容美发会所', 'location': {'lat': 34.182704530390254, 'lng': 108.86097310802026}, 'address': '付村花园东区西门向东130米处', 'province': '陕西省', 'city': '西安市', 'area': '雁塔区', 'telephone': '13201594961', 'detail': 1, 'uid': '0804ba386b86b947b54f54a1', 'detail_info': {'tag': '丽人;美容', 'type': 'beauty', 'detail_url': 'http://api.map.baidu.com/place/detail?uid=0804ba386b86b947b54f54a1&output=html&source=placeapi_v2', 'overall_rating': '4.0', 'comment_num': '2', 'children': [], 'lat': 34.182704530390254, 'lng': 108.86097310802026}}"
"{'name': '欧兰朵美容美体会所', 'location': {'lat': 34.19756013491093, 'lng': 108.8651277398344}, 'address': '锦业路与丈八四路绿地世纪城西门50米博瑞洗车行2楼', 'province': '陕西省', 'city': '西安市', 'area': '雁塔区', 'street_id': 'b9a625b53100bc206e3e1b6c', 'detail': 1, 'uid': 'b9a625b53100bc206e3e1b6c', 'detail_info': {'tag': '丽人;美容', 'type': 'beauty', 'detail_url': 'http://api.map.baidu.com/place/detail?uid=b9a625b53100bc206e3e1b6c&output=html&source=placeapi_v2', 'overall_rating': '5.0', 'comment_num': '3', 'children': [], 'lat': 34.19756013491093, 'lng': 108.8651277398344}}"
"{'name': '韩国熊津美容会所', 'location': {'lat': 34.20177779650876, 'lng': 108.84579827559216}, 'address': '西安市雁塔区东滩社区', 'province': '陕西省', 'city': '西安市', 'area': '雁塔区', 'street_id': 'd10cdff8bdaac697d13ce3fb', 'telephone': '15529076530', 'detail': 1, 'uid': 'd10cdff8bdaac697d13ce3fb', 'detail_info': {'tag': '丽人;美容', 'navi_location': {'lng': 108.85609451706, 'lat': 34.206494565902}, 'type': 'beauty', 'detail_url': 'http://api.map.baidu.com/place/detail?uid=d10cdff8bdaac697d13ce3fb&output=html&source=placeapi_v2', 'overall_rating': '0.0', 'comment_num': '1', 'children': [], 'lat': 34.20177779650876, 'lng': 108.84579827559216}}"
"{'name': '煌媛造型', 'location': {'lat': 34.19474830056389, 'lng': 108.83726973461597}, 'address': '丈八七路锦业公寓1号楼105底商', 'province': '陕西省', 'city': '西安市', 'area': '雁塔区', 'street_id': 'a752e05f5c981d5294ec843c', 'telephone': '13630284200', 'detail': 1, 'uid': 'a752e05f5c981d5294ec843c', 'detail_info': {'tag': '丽人;美发', 'type': 'beauty', 'detail_url': 'http://api.map.baidu.com/place/detail?uid=a752e05f5c981d5294ec843c&output=html&source=placeapi_v2', 'price': '30.0', 'overall_rating': '3.5', 'comment_num': '8', 'children': [], 'lat': 34.19474830056389, 'lng': 108.83726973461597}}"
"{'name': '玛莎造型(丈八四路八分店)', 'location': {'lat': 34.20494182880242, 'lng': 108.86411430948175}, 'address': '丈八四路缤纷南郡东门商铺', 'province': '陕西省', 'city': '西安市', 'area': '雁塔区', 'street_id': 'c34f5b05344d19dbc51b752a', 'telephone': '15173068170,15009265883', 'detail': 1, 'uid': 'c34f5b05344d19dbc51b752a', 'detail_info': {'tag': '丽人;美发', 'type': 'beauty', 'detail_url': 'http://api.map.baidu.com/place/detail?uid=c34f5b05344d19dbc51b752a&output=html&source=placeapi_v2', 'price': '67.0', 'overall_rating': '2.8', 'comment_num': '5', 'children': [], 'lat': 34.20494182880242, 'lng': 108.86411430948175}}"
"{'name': '新艺美发品质惠民店', 'location': {'lat': 34.19842415891679, 'lng': 108.84269762606797},