"{'name': '西安高新医院', 'location': {'lat': 34.23593, 'lng': 108.886722}, 'address': '西安市雁塔区团结南路16号', 'province': '陕西省', 'city': '西安市', 'area': '雁塔区', 'street_id': 'd7fd2ad37ace8d4d0accddef', 'telephone': '(029)88330120', 'detail': 1, 'uid': 'd7fd2ad37ace8d4d0accddef', 'detail_info': {'tag': '医疗;综合医院', 'navi_location': {'lng': 108.8881776816, 'lat': 34.236259610327}, 'type': 'hospital', 'detail_url': 'http://api.map.baidu.com/place/detail?uid=d7fd2ad37ace8d4d0accddef&output=html&source=placeapi_v2', 'overall_rating': '2.2', 'image_num': '15', 'comment_num': '45', 'children': []}}"
"{'name': '丈八社区卫生服务中心', 'location': {'lat': 34.219694, 'lng': 108.88243}, 'address': '陕西省西安市双水磨路12号', 'province': '陕西省', 'city': '西安市', 'area': '雁塔区', 'street_id': '1229256e009c490b100daa4b', 'telephone': '(029)89525540', 'detail': 1, 'uid': '1229256e009c490b100daa4b', 'detail_info': {'tag': '医疗;诊所', 'navi_location': {'lng': 108.88236532426, 'lat': 34.220020768808}, 'type': 'hospital', 'detail_url': 'http://api.map.baidu.com/place/detail?uid=1229256e009c490b100daa4b&output=html&source=placeapi_v2', 'overall_rating': '5.0', 'image_num': '11', 'comment_num': '6', 'children': []}}"
"{'name': '西安日化医院', 'location': {'lat': 34.249113, 'lng': 108.879356}, 'address': '西安市丈八北路7号', 'province': '陕西省', 'city': '西安市', 'area': '雁塔区', 'street_id': '480b24d03341aff19cec2b5b', 'telephone': '(029)84280512', 'detail': 1, 'uid': '480b24d03341aff19cec2b5b', 'detail_info': {'tag': '医疗;综合医院', 'navi_location': {'lng': 108.87881421568, 'lat': 34.249344008343}, 'type': 'hospital', 'detail_url': 'http://api.map.baidu.com/place/detail?uid=480b24d03341aff19cec2b5b&output=html&source=placeapi_v2', 'overall_rating': '3.7', 'image_num': '22', 'comment_num': '15', 'children': []}}"
"{'name': '光大医院', 'location': {'lat': 34.238793, 'lng': 108.881038}, 'address': '西辛庄唐兴路19号', 'province': '陕西省', 'city': '西安市', 'area': '雁塔区', 'street_id': '750ec1652c49602b4c3a5954', 'telephone': '(029)88230398', 'detail': 1, 'uid': '750ec1652c49602b4c3a5954', 'detail_info': {'tag': '医疗;其他', 'navi_location': {'lng': 108.88093228981, 'lat': 34.238617555595}, 'type': 'hospital', 'detail_url': 'http://api.map.baidu.com/place/detail?uid=750ec1652c49602b4c3a5954&output=html&source=placeapi_v2', 'overall_rating': '1.7', 'image_num': '10', 'comment_num': '8', 'children': []}}"
"{'name': '海蓓诊所', 'location': {'lat': 34.201116, 'lng': 108.890663}, 'address': '陕西省西安市雁塔区丈八一路9号', 'province': '陕西省', 'city': '西安市', 'area': '雁塔区', 'telephone': '(029)65691999', 'detail': 1, 'uid': '5908a6366e73dccc4e776e05', 'detail_info': {'tag': '医疗;诊所', 'type': 'hospital', 'detail_url': 'http://api.map.baidu.com/place/detail?uid=5908a6366e73dccc4e776e05&output=html&source=placeapi_v2', 'overall_rating': '0.0', 'image_num': '6', 'comment_num': '1', 'children': []}}"
"{'name': '西安高新医院门诊', 'location': {'lat': 34.236317, 'lng': 108.888073}, 'address': '团结南路16号', 'province': '陕西省', 'city': '西安市', 'area': '雁塔区', 'street_id': '0523a14181393f60b23c8113', 'telephone': '(029)88330088', 'detail': 1, 'uid': '0523a14181393f60b23c8113', 'detail_info': {'tag': '医疗;其他', 'navi_location': {'lng': 108.8881786868, 'lat': 34.236224596477}, 'type': 'hospital', 'detail_url': 'http://api.map.baidu.com/place/detail?uid=0523a14181393f60b23c8113&output=html&source=placeapi_v2', 'overall_rating': '0.0', 'image_num': '4', 'comment_num': '1', 'children': []}}"
"{'name': '西安众山臻美品质医疗美容', 'location': {'lat': 34.220734, 'lng': 108.892475}, 'address': '西安市雁塔区科技六路摩尔中心A座3F', 'province': '陕西省', 'city': '西安市', 'area': '雁塔区', 'telephone': '(029)88223377', 'detail': 1, 'uid': '06bb4ad583acd6cf2a11d1c2', 'detail_info': {'tag': '医疗;其他', 'type': 'hospital', 'detail_url': 'http://api.map.baidu.com/place/detail?uid=06bb4ad583acd6cf2a11d1c2&output=html&source=placeapi_v2', 'image_num': '1', 'children': []}}"
"{'name': '西安市驾驶员体检中心', 'location': {'lat': 34.200241, 'lng': 108.884299}, 'address': '陕西省西安市雁塔区锦业路与丈八三路交口向东1500米路北', 'province': '陕西省', 'city': '西安市', 'area': '雁塔区', 'street_id': '1c86ebf6e810070e60180955', 'detail': 1, 'uid': '1c86ebf6e810070e60180955', 'detail_info': {'tag': '医疗;体检机构', 'navi_location': {'lng': 108.88416415589, 'lat': 34.200030186246}, 'type': 'hospital', 'detail_url': 'http://api.map.baidu.com/place/detail?uid=1c86ebf6e810070e60180955&output=html&source=placeapi_v2', 'overall_rating': '5.0', 'image_num': '10', 'comment_num': '4', 'children': []}}"
"{'name': '西安雁塔健桥医院', 'location': {'lat': 34.210087, 'lng': 108.858972}, 'address': '西安市科技八路104号', 'province': '陕西省', 'city': '西安市', 'area': '雁塔区', 'street_id': '5f8f8f880dea90bcf03cba2f', 'telephone': '(029)83797617', 'detail': 1, 'uid': '5f8f8f880dea90bcf03cba2f', 'detail_info': {'tag': '医疗;其他', 'navi_location': {'lng': 108.85894853697, 'lat': 34.210150054867}, 'type': 'hospital', 'detail_url': 'http://api.map.baidu.com/place/detail?uid=5f8f8f880dea90bcf03cba2f&output=html&source=placeapi_v2', 'overall_rating': '1.8', 'image_num': '8', 'comment_num': '4', 'children': []}}"
"{'name': '南窑头村卫生室', 'location': {'lat': 34.222904, 'lng': 108.891537}, 'address': '陕西省西安市雁塔区科技四路南窑头东区40排1层', 'province': '陕西省', 'city': '西安市', 'area': '雁塔区', 'street_id': 'e3a6fc63a287e40bcafa5f5b', 'detail': 1, 'uid': 'e3a6fc63a287e40bcafa5f5b', 'detail_info': {'tag': '医疗;诊所', 'type': 'hospital', 'detail_url': 'http://api.map.baidu.com/place/detail?uid=e3a6fc63a287e40bcafa5f5b&output=html&source=placeapi_v2', 'image_num': '4', 'children': []}}"
"{'name': '西安雁塔闫茯苓诊所', 'location': {'lat': 34.249031, 'lng': 108.885393}, 'address': '西安市雁塔区高新六路与德兴巷交叉路口往东北约50米(响塘德苑西侧)', 'province': '陕西省', 'city': '西安市', 'area': '雁塔区', 'street_id': '2bdb9ce62ce03272d3ff23cd', 'telephone': '13679207086', 'detail': 1, 'uid': '2bdb9ce62ce03272d3ff23cd', 'detail_info': {'tag': '医疗;诊所', 'type': 'hospital', 'detail_url': 'http://api.map.baidu.com/place/detail?uid=2bdb9ce62ce03272d3ff23cd&output=html&source=placeapi_v2', 'overall_rating': '1.0', 'image_num': '7', 'comment_num': '4', 'children': []}}"
"{'name': '西安雁塔妙一门诊部', 'location': {'lat': 34.227932, 'lng': 108.880138}, 'address': '陕西省西安市雁塔区丈八北路与科技三路交叉口东南100米', 'province': '陕西省', 'city': '西安市', 'area': '雁塔区', 'street_id': 'f55f02e2923f14b86b49f394', 'detail': 1, 'uid': 'f55f02e2923f14b86b49f394', 'detail_info': {'tag': '医疗;其他', 'navi_location': {'lng': 108.88007161432, 'lat': 34.228165628276}, 'type': 'hospital', 'detail_url': 'http://api.map.baidu.com/place/detail?uid=f55f02e2923f14b86b49f394&output=html&source=placeapi_v2', 'overall_rating': '5.0', 'image_num': '14', 'comment_num': '6', 'children': []}}"
"{'name': '镐京骨科', 'location': {'lat': 34.247909, 'lng': 108.792534}, 'address': '陕西省西安市长安区西户公路西100米', 'province': '陕西省', 'city': '西安市', 'area': '长安区', 'detail': 1, 'uid': 'acac521d5ae5becd3be4a6db', 'detail_info': {'tag': '医疗;诊所', 'navi_location': {'lng': 108.79247775062, 'lat': 34.247612969335}, 'type': 'hospital', 'detail_url': 'http://api.map.baidu.com/place/detail?uid=acac521d5ae5becd3be4a6db&output=html&source=placeapi_v2', 'overall_rating': '0.0', 'image_num': '1', 'comment_num': '0', 'children': []}}"
"{'name': '西安儿童医院高新门诊部', 'location': {'lat': 34.238866, 'lng': 108.880935}, 'address': '陕西省西安市雁塔区唐兴路19号都市春天', 'province': '陕西省', 'city': '西安市', 'area': '雁塔区', 'street_id': 'c6179507f42dc9a18f7727fc', 'detail': 1, 'uid': 'c6179507f42dc9a18f7727fc', 'detail_info': {'tag': '医疗;其他', 'navi_location': {'lng': 108.88087800881, 'lat': 34.238603455849}, 'type': 'hospital', 'detail_url': 'http://api.map.baidu.com/place/detail?uid=c6179507f42dc9a18f7727fc&output=html&source=placeapi_v2', 'image_num': '4', 'children': []}}"
"{'name': '西安高新朱海燕口腔诊所', 'location': {'lat': 34.213312, 'lng': 108.886944}, 'address': '西安市雁塔区科技七路与团结南路交叉路口西南侧(高科朗山)', 'province': '陕西省', 'city': '西安市', 'area': '雁塔区', 'telephone': '(029)88217658', 'detail': 1, 'uid': '64c7739cd8e515a4c9e33cee', 'detail_info': {'tag': '医疗;诊所', 'navi_location': {'lng': 108.88694147525, 'lat': 34.21344143153}, 'type': 'hospital', 'detail_url': 'http://api.map.baidu.com/place/detail?uid=64c7739cd8e515a4c9e33cee&output=html&source=placeapi_v2', 'image_num': '3', 'children': []}}"
"{'name': '天合老年公寓(雁塔店)', 'location': {'lat': 34.237109, 'lng': 108.848179}, 'address': '鱼化寨东晁村南侧200米路西(近西三环路)', 'province': '陕西省', 'city': '西安市', 'area': '雁塔区', 'street_id': 'd96d02c14dc2e3246fc02cbc', 'telephone': '(029)88691083', 'detail': 1, 'uid': 'd96d02c14dc2e3246fc02cbc', 'detail_info': {'tag': '医疗;疗养院', 'navi_location': {'lng': 108.84817269224, 'lat': 34.237026431917}, 'type': 'hospital', 'detail_url': 'http://api.map.baidu.com/place/detail?uid=d96d02c14dc2e3246fc02cbc&output=html&source=placeapi_v2', 'overall_rating': '5.0', 'image_num': '14', 'comment_num': '2', 'children': []}}"
"{'name': '西安高新医院-住院部', 'location': {'lat': 34.235733, 'lng': 108.886295}, 'address': '团结南路16号', 'province': '陕西省', 'city': '西安市', 'area': '雁塔区', 'street_id': 'd07f908e27ab5443afee7a88', 'detail': 1, 'uid': 'd07f908e27ab5443afee7a88', 'detail_info': {'tag': '医疗;其他', 'navi_location': {'lng': 108.88693409979, 'lat': 34.235666379641}, 'type': 'hospital', 'detail_url': 'http://api.map.baidu.com/place/detail?uid=d07f908e27ab5443afee7a88&output=html&source=placeapi_v2', 'overall_rating': '0.0', 'image_num': '1', 'children': []}}"
"{'name': '西安市雁塔区胡建峰诊所', 'location': {'lat': 34.224143, 'lng': 108.885927}, 'address': '陕西省西安市雁塔区科技四路南窑头西区79排1层', 'province': '陕西省', 'city': '西安市', 'area': '雁塔区', 'detail': 1, 'uid': 'ffc7bdd04c6fa48e49fd3f09', 'detail_info': {'tag': '医疗;诊所', 'navi_location': {'lng': 108.88588667826, 'lat': 34.224096006155}, 'type': 'hospital', 'detail_url': 'http://api.map.baidu.com/place/detail?uid=ffc7bdd04c6fa48e49fd3f09&output=html&source=placeapi_v2', 'overall_rating': '1.5', 'image_num': '6', 'comment_num': '3', 'children': []}}"
"{'name': '西安雁塔长安思邈中医门诊部', 'location': {'lat': 34.247884, 'lng': 108.888037}, 'address': '西安市雁塔区团结南路与德兴巷交叉路口往南约50米(中建国熙台)', 'province': '陕西省', 'city': '西安市', 'area': '雁塔区', 'street_id': '5d032b5400294ab88bb98863', 'telephone': '(029)88643005', 'detail': 1, 'uid': '5d032b5400294ab88bb98863', 'detail_info': {'tag': '医疗;其他', 'navi_location': {'lng': 108.88820716848, 'lat': 34.247885190801}, 'type': 'hospital', 'detail_url': 'http://api.map.baidu.com/place/detail?uid=5d032b5400294ab88bb98863&output=html&source=placeapi_v2', 'overall_rating': '0.0', 'image_num': '1', 'children': []}}"
"{'name': '陕西体育医院', 'location': {'lat': 34.2114, 'lng': 108.892198}, 'address': '西安市雁塔区丈八东路303号', 'province': '陕西省', 'city': '西安市', 'area': '雁塔区', 'street_id': '950442f7046312b24151c0fd', 'detail': 1, 'uid': '950442f7046312b24151c0fd', 'detail_info': {'tag': '医疗;综合医院', 'navi_location': {'lng': 108.89222027828, 'lat': 34.211167120322}, 'type': 'hospital', 'detail_url': 'http://api.map.baidu.com/place/detail?uid=950442f7046312b24151c0fd&output=html&source=placeapi_v2', 'price': '0.0', 'overall_rating': '0.0', 'image_num': '7', 'children': []}}"
"{'name': '潘永鹏诊所', 'location': {'lat': 34.20046, 'lng': 108.879223}, 'address': '西安市雁塔区锦业路与锦业六街交叉路口北侧(新里仕嘉公寓A区)', 'province': '陕西省', 'city': '西安市', 'area': '雁塔区', 'street_id': '528e44e255e51573b6f42f7a', 'telephone': '15319769938', 'detail': 1, 'uid': '528e44e255e51573b6f42f7a', 'detail_info': {'tag': '医疗;诊所', 'navi_location': {'lng': 108.87931904002, 'lat': 34.200247125596}, 'type': 'hospital', 'detail_url': 'http://api.map.baidu.com/place/detail?uid=528e44e255e51573b6f42f7a&output=html&source=placeapi_v2', 'overall_rating': '1.0', 'image_num': '10', 'comment_num': '3', 'children': []}}"
"{'name': '陕西省血液病防治研究所附属医院', 'location': {'lat': 34.196702, 'lng': 108.885978}, 'address': '陕西省西安市雁塔区丈八二路12号', 'province': '陕西省', 'city': '西安市', 'area': '雁塔区', 'street_id': '1020060f1d0690bf1994c6a7', 'telephone': '(029)89363636', 'detail': 1, 'uid': '1020060f1d0690bf1994c6a7', 'detail_info': {'tag': '医疗;专科医院', 'navi_location': {'lng': 108.88648328248, 'lat': 34.196759852598}, 'type': 'hospital', 'detail_url': 'http://api.map.baidu.com/place/detail?uid=1020060f1d0690bf1994c6a7&output=html&source=placeapi_v2', 'overall_rating': '0.0', 'image_num': '10', 'children': []}}"
"{'name': '西辛庄村卫生室', 'location': {'lat': 34.239479, 'lng': 108.883088}, 'address': '陕西省西安市雁塔区丈八北路358号附近', 'province': '陕西省', 'city': '西安市', 'area': '雁塔区', 'street_id': '606289fd3a284230a2046410', 'detail': 1, 'uid': '606289fd3a284230a2046410', 'detail_info': {'tag': '医疗;诊所', 'navi_location': {'lng': 108.8825194645, 'lat': 34.238614543483}, 'type': 'hospital', 'detail_url': 'http://api.map.baidu.com/place/detail?uid=606289fd3a284230a2046410&output=html&source=placeapi_v2', 'overall_rating': '0.0', 'image_num': '11', 'comment_num': '1', 'children': []}}"
"{'name': '西安外事学院-门诊部', 'location': {'lat': 34.239553, 'lng': 108.876691}, 'address': '雁塔区鱼斗路14号', 'province': '陕西省', 'city': '西安市', 'area': '雁塔区', 'street_id': 'bcaebff8871c5c54c9e33c43', 'telephone': '(029)88751120', 'detail': 1, 'uid': 'bcaebff8871c5c54c9e33c43', 'detail_info': {'tag': '医疗;其他', 'navi_location': {'lng': 108.87687567598, 'lat': 34.239634898425}, 'type': 'hospital', 'detail_url': 'http://api.map.baidu.com/place/detail?uid=bcaebff8871c5c54c9e33c43&output=html&source=placeapi_v2', 'overall_rating': '0.0', 'image_num': '12', 'comment_num': '1', 'children': []}}"
"{'name': '西安雁塔牛润琪诊所', 'location': {'lat': 34.245395, 'lng': 108.851661}, 'address': '西安市雁塔区经十五路与科技西路交叉路口往北约100米(金泰怡景花园)', 'province': '陕西省', 'city': '西安市', 'area': '雁塔区', 'street_id': 'dafd6d80716f8f85a8059dfa', 'detail': 1, 'uid': 'dafd6d80716f8f85a8059dfa', 'detail_info': {'tag': '医疗;诊所', 'type': 'hospital', 'detail_url': 'http://api.map.baidu.com/place/detail?uid=dafd6d80716f8f85a8059dfa&output=html&source=placeapi_v2', 'image_num': '8', 'children': []}}"
"{'name': '西安雁塔吴涛诊所', 'location': {'lat': 34.203237, 'lng': 108.882356}, 'address': '丈八三路5号北侧,绿地世纪城b区', 'province': '陕西省', 'city': '西安市', 'area': '雁塔区', 'street_id': 'cc788fde565bf88988fc060b', 'telephone': '13619203698', 'detail': 1, 'uid': 'cc788fde565bf88988fc060b', 'detail_info': {'tag': '医疗;诊所', 'navi_location': {'lng': 108.88210287495, 'lat': 34.203240192292}, 'type': 'hospital', 'detail_url': 'http://api.map.baidu.com/place/detail?uid=cc788fde565bf88988fc060b&output=html&source=placeapi_v2', 'overall_rating': '1.5', 'image_num': '11', 'comment_num': '2', 'children': []}}"
"{'name': '丈八东村卫生室', 'location': {'lat': 34.206876, 'lng': 108.861278}, 'address': '陕西省西安市雁塔区丈八六路辅路丈八南村内', 'province': '陕西省', 'city': '西安市', 'area': '雁塔区', 'street_id': '6f9d7b3980107e52c909f0b5', 'detail': 1, 'uid': '6f9d7b3980107e52c909f0b5', 'detail_info': {'tag': '医疗;诊所', 'type': 'hospital', 'detail_url': 'http://api.map.baidu.com/place/detail?uid=6f9d7b3980107e52c909f0b5&output=html&source=placeapi_v2', 'overall_rating': '0.0', 'image_num': '2', 'comment_num': '1', 'children': []}}"
"{'name': '瑞泰尔仓口腔(得赞齿科)', 'location': {'lat': 34.241387, 'lng': 108.888116}, 'address': '陕西省西安市高新区高科新花园6号楼4幢10103室', 'province': '陕西省', 'city': '西安市', 'area': '雁塔区', 'street_id': '5044d188b676ffee4f3a5979', 'telephone': '(029)88157255', 'detail': 1, 'uid': '5044d188b676ffee4f3a5979', 'detail_info': {'tag': '医疗;诊所', 'type': 'hospital', 'detail_url': 'http://api.map.baidu.com/place/detail?uid=5044d188b676ffee4f3a5979&output=html&source=placeapi_v2', 'overall_rating': '5.0', 'image_num': '3', 'comment_num': '1', 'children': []}}"
"{'name': '西安雁塔荆孙艳诊所', 'location': {'lat': 34.21714, 'lng': 108.886027}, 'address': '陕西省西安市雁塔区科技六路枫林意树北门东侧', 'province': '陕西省', 'city': '西安市', 'area': '雁塔区', 'street_id': '7beba7f561054225eb56fa8e', 'detail': 1, 'uid': '7beba7f561054225eb56fa8e', 'detail_info': {'tag': '医疗;诊所', 'type': 'hospital', 'detail_url': 'http://api.map.baidu.com/place/detail?uid=7beba7f561054225eb56fa8e&output=html&source=placeapi_v2', 'image_num': '8', 'children': []}}"
"{'name': '雁塔冯茂秀口腔诊所', 'location': {'lat': 34.229584, 'lng': 108.879987}, 'address': '陕西省西安市雁塔区丈八北路80号', 'province': '陕西省', 'city': '西安市', 'area': '雁塔区', 'street_id': 'c3afd99604c6fc90ce04efd9', 'telephone': '(029)87307984,13389279394', 'detail': 1, 'uid': 'c3afd99604c6fc90ce04efd9', 'detail_info': {'tag': '医疗;诊所', 'navi_location': {'lng': 108.87990701942, 'lat': 34.229467339454}, 'type': 'hospital', 'detail_url': 'http://api.map.baidu.com/place/detail?uid=c3afd99604c6fc90ce04efd9&output=html&source=placeapi_v2', 'image_num': '17', 'children': []}}"
"{'name': '皓康口腔', 'location': {'lat': 34.206813, 'lng': 108.860198}, 'address': '西安市雁塔区', 'province': '陕西省', 'city': '西安市', 'area': '雁塔区', 'telephone': '(029)81020202', 'detail': 1, 'uid': '7839d7da86c806b8afee7ab7', 'detail_info': {'tag': '医疗;诊所', 'type': 'hospital', 'detail_url': 'http://api.map.baidu.com/place/detail?uid=7839d7da86c806b8afee7ab7&output=html&source=placeapi_v2', 'image_num': '2', 'children': []}}"
"{'name': '代涛口腔诊所', 'location': {'lat': 34.251389, 'lng': 108.870775}, 'address': '陕西省西安市雁塔区大寨路99号恒大城3-112', 'province': '陕西省', 'city': '西安市', 'area': '雁塔区', 'street_id': '63d034035b1e71d72b06cef8', 'telephone': '(029)89540067', 'detail': 1, 'uid': '63d034035b1e71d72b06cef8', 'detail_info': {'tag': '医疗;诊所', 'navi_location': {'lng': 108.8708279572, 'lat': 34.251290711828}, 'type': 'hospital', 'detail_url': 'http://api.map.baidu.com/place/detail?uid=63d034035b1e71d72b06cef8&output=html&source=placeapi_v2', 'price': '0.0', 'overall_rating': '5.0', 'image_num': '13', 'comment_num': '5', 'children': []}}"
"{'name': '西安雁塔彭云清诊所', 'location': {'lat': 34.203539, 'lng': 108.853676}, 'address': '陕西省西安市雁塔区西三环东滩南社区3排6号', 'province': '陕西省', 'city': '西安市', 'area': '雁塔区', 'street_id': '5005bd1bad3c7dd3c42ba179', 'telephone': '13002963549', 'detail': 1, 'uid': '5005bd1bad3c7dd3c42ba179', 'detail_info': {'tag': '医疗;诊所', 'type': 'hospital', 'detail_url': 'http://api.map.baidu.com/place/detail?uid=5005bd1bad3c7dd3c42ba179&output=html&source=placeapi_v2', 'overall_rating': '0.0', 'image_num': '7', 'comment_num': '1', 'children': []}}"
"{'name': '康欣牙科', 'location': {'lat': 34.207179, 'lng': 108.861143}, 'address': '丈八南村内', 'province': '陕西省', 'city': '西安市', 'area': '雁塔区', 'street_id': '1746870c5466c144c4f50d50', 'detail': 1, 'uid': '1746870c5466c144c4f50d50', 'detail_info': {'tag': '医疗;诊所', 'navi_location': {'lng': 108.86084011774, 'lat': 34.207100198695}, 'type': 'hospital', 'detail_url': 'http://api.map.baidu.com/place/detail?uid=1746870c5466c144c4f50d50&output=html&source=placeapi_v2', 'overall_rating': '0.0', 'image_num': '5', 'comment_num': '1', 'children': []}}"
"{'name': '博康医疗', 'location': {'lat': 34.238696, 'lng': 108.886329}, 'address': '西安市雁塔区东辛庄1排4号1层', 'province': '陕西省', 'city': '西安市', 'area': '雁塔区', 'street_id': '1dbcbd27f7e3abb4901fc9ad', 'detail': 1, 'uid': '1dbcbd27f7e3abb4901fc9ad', 'detail_info': {'tag': '医疗;其他', 'navi_location': {'lng': 108.88642716174, 'lat': 34.238549634058}, 'type': 'hospital', 'detail_url': 'http://api.map.baidu.com/place/detail?uid=1dbcbd27f7e3abb4901fc9ad&output=html&source=placeapi_v2', 'overall_rating': '0.0', 'image_num': '14', 'comment_num': '2', 'children': []}}"
"{'name': '西安高新医院-体检', 'location': {'lat': 34.236471, 'lng': 108.887752}, 'address': '西安市雁塔区团结南路16号', 'province': '陕西省', 'city': '西安市', 'area': '雁塔区', 'street_id': '5ce2637d8f993f2fae31e508', 'telephone': '(029)88330230', 'detail': 1, 'uid': '5ce2637d8f993f2fae31e508', 'detail_info': {'tag': '医疗;体检机构', 'navi_location': {'lng': 108.88787857102, 'lat': 34.236622422807}, 'type': 'hospital', 'detail_url': 'http://api.map.baidu.com/place/detail?uid=5ce2637d8f993f2fae31e508&output=html&source=placeapi_v2', 'overall_rating': '0.0', 'image_num': '6', 'comment_num': '2', 'children': []}}"
"{'name': '西安雁塔韩萍口腔诊所', 'location': {'lat': 34.246577, 'lng': 108.882615}, 'address': '西安市雁塔区文兴巷与高新六路交叉路口往西约100米(美立方小区)', 'province': '陕西省', 'city': '西安市', 'area': '雁塔区', 'telephone': '(029)84583581', 'detail': 1, 'uid': 'c55b884ffc598f44047ce8c3', 'detail_info': {'tag': '医疗;诊所', 'type': 'hospital', 'detail_url': 'http://api.map.baidu.com/place/detail?uid=c55b884ffc598f44047ce8c3&output=html&source=placeapi_v2', 'overall_rating': '5.0', 'image_num': '11', 'comment_num': '2', 'children': []}}"
"{'name': '陈家庄社区卫生室', 'location': {'lat': 34.241251, 'lng': 108.884954}, 'address': '陈家庄小区内', 'province': '陕西省', 'city': '西安市', 'area': '雁塔区', 'street_id': '8989a55859867f52631809b2', 'detail': 1, 'uid': '8989a55859867f52631809b2', 'detail_info': {'tag': '医疗;诊所', 'navi_location': {'lng': 108.88508406564, 'lat': 34.241338798933}, 'type': 'hospital', 'detail_url': 'http://api.map.baidu.com/place/detail?uid=8989a55859867f52631809b2&output=html&source=placeapi_v2', 'overall_rating': '1.0', 'image_num': '7', 'comment_num': '2', 'children': []}}"
"{'name': '艾玫栗医疗美容', 'location': {'lat': 34.250263, 'lng': 108.882653}, 'address': '大寨路6号莱安逸珲底商11-10203', 'province': '陕西省', 'city': '西安市', 'area': '雁塔区', 'detail': 1, 'uid': '0b76b3846193c12288db73fe', 'detail_info': {'tag': '医疗;其他', 'type': 'hospital', 'detail_url': 'http://api.map.baidu.com/place/detail?uid=0b76b3846193c12288db73fe&output=html&source=placeapi_v2', 'image_num': '1', 'children': []}}"
"{'name': '西安雁塔仇延松诊所', 'location': {'lat': 34.224066, 'lng': 108.874051}, 'address': '丈八北路与科技四路十字西南角鸿基新城步行街48-103商铺', 'province': '陕西省', 'city': '西安市', 'area': '雁塔区', 'street_id': '6ac8998f8725a0219d95de1a', 'telephone': '15339173229', 'detail': 1, 'uid': '6ac8998f8725a0219d95de1a', 'detail_info': {'tag': '医疗;诊所', 'type': 'hospital', 'detail_url': 'http://api.map.baidu.com/place/detail?uid=6ac8998f8725a0219d95de1a&output=html&source=placeapi_v2', 'overall_rating': '0.0', 'image_num': '6', 'comment_num': '1', 'children': []}}"
"{'name': '里花水村卫生室', 'location': {'lat': 34.203216, 'lng': 108.855341}, 'address': '陕西省西安市雁塔区里花水社区(北门)附近', 'province': '陕西省', 'city': '西安市', 'area': '雁塔区', 'street_id': '0fca0e611c21d9ef095cb3b7', 'detail': 1, 'uid': '0fca0e611c21d9ef095cb3b7', 'detail_info': {'tag': '医疗;诊所', 'navi_location': {'lng': 108.85547591604, 'lat': 34.203049421741}, 'type': 'hospital', 'detail_url': 'http://api.map.baidu.com/place/detail?uid=0fca0e611c21d9ef095cb3b7&output=html&source=placeapi_v2', 'overall_rating': '0.0', 'image_num': '11', 'comment_num': '2', 'children': []}}"
"{'name': '刘昱良正骨', 'location': {'lat': 34.239815, 'lng': 108.885616}, 'address': '西安市雁塔区东馨花园17排2号', 'province': '陕西省', 'city': '西安市', 'area': '雁塔区', 'telephone': '18292812588', 'detail': 0, 'uid': 'd26c6a8aff7d14c95b1093c9', 'detail_info': {'children': []}}"
"{'name': '新华健康', 'location': {'lat': 34.229238, 'lng': 108.894029}, 'address': '陕西省西安市雁塔区沣恵南路18号唐沣国际广场B座3层', 'province': '陕西省', 'city': '西安市', 'area': '雁塔区', 'street_id': '6f15b1a0e12adc1ba1046415', 'telephone': '(029)68720333', 'detail': 1, 'uid': '6f15b1a0e12adc1ba1046415', 'detail_info': {'tag': '医疗;体检机构', 'navi_location': {'lng': 108.89439051073, 'lat': 34.229154668151}, 'type': 'hospital', 'detail_url': 'http://api.map.baidu.com/place/detail?uid=6f15b1a0e12adc1ba1046415&output=html&source=placeapi_v2', 'overall_rating': '5.0', 'image_num': '7', 'comment_num': '2', 'children': []}}"
"{'name': '东滩片区化中心社区', 'location': {'lat': 34.205973, 'lng': 108.856743}, 'address': '丈八西路北150米', 'province': '陕西省', 'city': '西安市', 'area': '雁塔区', 'street_id': 'b96a73e74a77c1697c29bda1', 'detail': 1, 'uid': 'b96a73e74a77c1697c29bda1', 'detail_info': {'tag': '医疗;诊所', 'type': 'hospital', 'detail_url': 'http://api.map.baidu.com/place/detail?uid=b96a73e74a77c1697c29bda1&output=html&source=placeapi_v2', 'image_num': '1', 'children': []}}"
"{'name': '陕西煤业化工集团机关卫生所', 'location': {'lat': 34.19618, 'lng': 108.891985}, 'address': '西安市雁塔区南三环路与丈八一路交叉路口东北侧(陕煤小区)', 'province': '陕西省', 'city': '西安市', 'area': '雁塔区', 'detail': 1, 'uid': '9b4b2f8653d880a19a0050cb', 'detail_info': {'tag': '医疗;诊所', 'type': 'hospital', 'detail_url': 'http://api.map.baidu.com/place/detail?uid=9b4b2f8653d880a19a0050cb&output=html&source=placeapi_v2', 'price': '0.0', 'overall_rating': '2.2', 'image_num': '11', 'children': []}}"
"{'name': '西安莲湖英伦医院', 'location': {'lat': 34.248993, 'lng': 108.894282}, 'address': '西安市雁塔区沣惠南路北段恬静园4层', 'province': '陕西省', 'city': '西安市', 'area': '雁塔区', 'street_id': 'ce18c6a9b90232aae607380d', 'detail': 1, 'uid': 'ce18c6a9b90232aae607380d', 'detail_info': {'tag': '医疗;体检机构', 'navi_location': {'lng': 108.89464480664, 'lat': 34.249177859194}, 'type': 'hospital', 'detail_url': 'http://api.map.baidu.com/place/detail?uid=ce18c6a9b90232aae607380d&output=html&source=placeapi_v2', 'overall_rating': '4.1', 'image_num': '2', 'comment_num': '37', 'children': []}}"
"{'name': '冻龄龄', 'location': {'lat': 34.188896, 'lng': 108.889152}, 'address': '西安市雁塔区唐延南路与锦业二路交叉路口西北侧(逸翠·尚府北区)', 'province': '陕西省', 'city': '西安市', 'area': '雁塔区', 'detail': 1, 'uid': 'a5ca9a42534431b0dbd89151', 'detail_info': {'tag': '医疗', 'type': 'hospital', 'detail_url': 'http://api.map.baidu.com/place/detail?uid=a5ca9a42534431b0dbd89151&output=html&source=placeapi_v2', 'image_num': '3', 'children': []}}"
"{'name': '和泰健康', 'location': {'lat': 34.245823, 'lng': 108.879533}, 'address': '陕西省西安市雁塔区丈八北路10号南80米', 'province': '陕西省', 'city': '西安市', 'area': '雁塔区', 'detail': 1, 'uid': '20cc70e199acfb62c2f1cf0a', 'detail_info': {'tag': '医疗', 'type': 'hospital', 'detail_url': 'http://api.map.baidu.com/place/detail?uid=20cc70e199acfb62c2f1cf0a&output=html&source=placeapi_v2', 'image_num': '4', 'children': []}}"
"{'name': '圣安百草', 'location': {'lat': 34.208132, 'lng': 108.864787}, 'address': '陕西省西安市雁塔区瞪羚路26附近', 'province': '陕西省', 'city': '西安市', 'area': '雁塔区', 'detail': 1, 'uid': '24a76274286362d879dbd27e', 'detail_info': {'tag': '医疗', 'type': 'hospital', 'detail_url': 'http://api.map.baidu.com/place/detail?uid=24a76274286362d879dbd27e&output=html&source=placeapi_v2', 'image_num': '4', 'children': []}}"
"{'name': '西安雁塔赵颜爱口腔诊所', 'location': {'lat': 34.243318, 'lng': 108.886484}, 'address': '陕西省西安市雁塔区紫薇臻品南门商铺', 'province': '陕西省', 'city': '西安市', 'area': '雁塔区', 'street_id': '1e90b1d45293130d79dbd251', 'telephone': '(029)88698656', 'detail': 1, 'uid': '1e90b1d45293130d79dbd251', 'detail_info': {'tag': '医疗;诊所', 'type': 'hospital', 'detail_url': 'http://api.map.baidu.com/place/detail?uid=1e90b1d45293130d79dbd251&output=html&source=placeapi_v2', 'overall_rating': '5.0', 'image_num': '11', 'comment_num': '15', 'children': []}}"
"{'name': '西安南山松医疗康复器械有限公司', 'location': {'lat': 34.2007, 'lng': 108.866315}, 'address': '陕西省西安市雁塔区锦业路69号瞪羚谷A70106', 'province': '陕西省', 'city': '西安市', 'area': '雁塔区', 'telephone': '19991253281', 'detail': 1, 'uid': 'd71839bd2ac621f60b1cc7dd', 'detail_info': {'tag': '公司企业;公司', 'type': 'enterprise', 'detail_url': 'http://api.map.baidu.com/place/detail?uid=d71839bd2ac621f60b1cc7dd&output=html&source=placeapi_v2', 'children': []}}"
"{'name': '怡康医药(丈八北路五店)', 'location': {'lat': 34.224054, 'lng': 108.875045}, 'address': '丈八北路鸿基新城第49幢1单元1层10101号', 'province': '陕西省', 'city': '西安市', 'area': '雁塔区', 'detail': 1, 'uid': '4d78d5f3b2025d2dc16c1433', 'detail_info': {'tag': '医疗;药店', 'type': 'hospital', 'detail_url': 'http://api.map.baidu.com/place/detail?uid=4d78d5f3b2025d2dc16c1433&output=html&source=placeapi_v2', 'image_num': '1', 'children': []}}"
"{'name': '凡草堂24小时药店(高新店)', 'location': {'lat': 34.239057, 'lng': 108.88785}, 'address': '陕西省西安市雁塔区团结南路2号2-2号团结南路与唐兴路十字西北角', 'province': '陕西省', 'city': '西安市', 'area': '雁塔区', 'telephone': '(029)89288616', 'detail': 1, 'uid': '53f1267215e5bc77b45f1e8d', 'detail_info': {'tag': '医疗;药店', 'navi_location': {'lng': 108.88807911233, 'lat': 34.238900353406}, 'type': 'hospital', 'detail_url': 'http://api.map.baidu.com/place/detail?uid=53f1267215e5bc77b45f1e8d&output=html&source=placeapi_v2', 'overall_rating': '5.0', 'image_num': '4', 'comment_num': '1', 'children': []}}"
"{'name': '君泰医药(绿地店)', 'location': {'lat': 34.200894, 'lng': 108.881491}, 'address': '西安市雁塔区丈八三路与锦业路交叉路口往西北约100米(中国银行西侧)', 'province': '陕西省', 'city': '西安市', 'area': '雁塔区', 'street_id': '478af02641e3b62a16a1909a', 'detail': 1, 'uid': '478af02641e3b62a16a1909a', 'detail_info': {'tag': '医疗;药店', 'navi_location': {'lng': 108.88203911988, 'lat': 34.200745426301}, 'type': 'hospital', 'detail_url': 'http://api.map.baidu.com/place/detail?uid=478af02641e3b62a16a1909a&output=html&source=placeapi_v2', 'price': '0.0', 'overall_rating': '1.0', 'image_num': '10', 'comment_num': '5', 'children': []}}"
"{'name': '怡康医药超市(丈八三路店)', 'location': {'lat': 34.203057, 'lng': 108.882201}, 'address': '陕西省西安市雁塔区丈八三路西侧西安绿地世纪城仕嘉公寓A区4号楼10112室附近', 'province': '陕西省', 'city': '西安市', 'area': '雁塔区', 'street_id': 'b7a2a2e5652853c81b94c6e6', 'detail': 1, 'uid': 'b7a2a2e5652853c81b94c6e6', 'detail_info': {'tag': '医疗;药店', 'navi_location': {'lng': 108.88210377722, 'lat': 34.203136243645}, 'type': 'hospital', 'detail_url': 'http://api.map.baidu.com/place/detail?uid=b7a2a2e5652853c81b94c6e6&output=html&source=placeapi_v2', 'image_num': '5', 'children': []}}"
"{'name': '怡康医药超市', 'location': {'lat': 34.234072, 'lng': 108.854155}, 'address': '陕西省西安市雁塔区彩虹路', 'province': '陕西省', 'city': '西安市', 'area': '雁塔区', 'detail': 1, 'uid': '8f9b660916d162d6f90cad5b', 'detail_info': {'tag': '医疗;药店', 'type': 'hospital', 'detail_url': 'http://api.map.baidu.com/place/detail?uid=8f9b660916d162d6f90cad5b&output=html&source=placeapi_v2', 'image_num': '4', 'children': []}}"
"{'name': '新德医药超市', 'location': {'lat': 34.197817, 'lng': 108.881688}, 'address': '西安市雁塔区丈八三路与锦业一路交叉路口西北侧(旗远·锦樾)', 'province': '陕西省', 'city': '西安市', 'area': '雁塔区', 'detail': 1, 'uid': '8e4eaa67e9445c1c9cf77989', 'detail_info': {'tag': '医疗;药店', 'type': 'hospital', 'detail_url': 'http://api.map.baidu.com/place/detail?uid=8e4eaa67e9445c1c9cf77989&output=html&source=placeapi_v2', 'image_num': '1', 'children': []}}"
"{'name': '西安集智医疗器械科技有限公司', 'location': {'lat': 34.248269, 'lng': 108.828759}, 'address': '纬一路36号鱼化光电园3号楼B座3层', 'province': '陕西省', 'city': '西安市', 'area': '雁塔区', 'street_id': 'b4fed11fdf176401dbeced28', 'telephone': '(029)88583661', 'detail': 1, 'uid': 'b4fed11fdf176401dbeced28', 'detail_info': {'tag': '医疗;医疗器械', 'type': 'enterprise', 'detail_url': 'http://api.map.baidu.com/place/detail?uid=b4fed11fdf176401dbeced28&output=html&source=placeapi_v2', 'price': '0.0', 'overall_rating': '0.0', 'children': []}}"
"{'name': '同仁堂药店(团结南路店)', 'location': {'lat': 34.240873, 'lng': 108.88874}, 'address': '丈八沟街道枫叶新都市西门团结南路2号', 'province': '陕西省', 'city': '西安市', 'area': '雁塔区', 'street_id': '9ff6fa06eaf1bee614c8f6b8', 'telephone': '(029)88390325', 'detail': 1, 'uid': 'c7eca12b122def37e115f977', 'detail_info': {'tag': '医疗;药店', 'navi_location': {'lng': 108.88850846823, 'lat': 34.240906792995}, 'type': 'hospital', 'detail_url': 'http://api.map.baidu.com/place/detail?uid=c7eca12b122def37e115f977&output=html&source=placeapi_v2', 'overall_rating': '5.0', 'image_num': '13', 'comment_num': '3', 'children': []}}"
"{'name': '华山大药房', 'location': {'lat': 34.228185, 'lng': 108.891974}, 'address': '高新区科技三路58号汇豪树中心', 'province': '陕西省', 'city': '西安市', 'area': '雁塔区', 'detail': 1, 'uid': '15ea686f6fb031ca902ca351', 'detail_info': {'tag': '医疗;药店', 'type': 'hospital', 'detail_url': 'http://api.map.baidu.com/place/detail?uid=15ea686f6fb031ca902ca351&output=html&source=placeapi_v2', 'image_num': '1', 'children': []}}"
"{'name': '妙济堂国医馆(锦业二路店)', 'location': {'lat': 34.188792, 'lng': 108.888992}, 'address': '西安市雁塔区高新区锦业二路逸翠园三期北区第8幢4单元', 'province': '陕西省', 'city': '西安市', 'area': '雁塔区', 'street_id': '25f2310de893957c81288a6b', 'telephone': '(029)81128182', 'detail': 1, 'uid': '25f2310de893957c81288a6b', 'detail_info': {'tag': '医疗;药店', 'navi_location': {'lng': 108.88901430318, 'lat': 34.188549933932}, 'type': 'hospital', 'detail_url': 'http://api.map.baidu.com/place/detail?uid=25f2310de893957c81288a6b&output=html&source=placeapi_v2', 'image_num': '11', 'children': []}}"
"{'name': '安臣大药房(丈八四路店)', 'location': {'lat': 34.207416, 'lng': 108.874215}, 'address': '西安市雁塔区瞪羚路与丈八四路交叉路口往西约100米(罗马景福城)', 'province': '陕西省', 'city': '西安市', 'area': '雁塔区', 'detail': 1, 'uid': '5dfb43463caa043dc4f0255f', 'detail_info': {'tag': '医疗;药店', 'type': 'hospital', 'detail_url': 'http://api.map.baidu.com/place/detail?uid=5dfb43463caa043dc4f0255f&output=html&source=placeapi_v2', 'image_num': '1', 'children': []}}"
"{'name': '康爱多大药房', 'location': {'lat': 34.208799, 'lng': 108.860122}, 'address': '南郑大道24号附近', 'province': '陕西省', 'city': '西安市', 'area': '雁塔区', 'street_id': '97b3675ce2594b00591093af', 'detail': 1, 'uid': '97b3675ce2594b00591093af', 'detail_info': {'tag': '医疗;药店', 'type': 'hospital', 'detail_url': 'http://api.map.baidu.com/place/detail?uid=97b3675ce2594b00591093af&output=html&source=placeapi_v2', 'image_num': '4', 'children': []}}"
"{'name': '老百姓大药房(科技路一店)', 'location': {'lat': 34.243595, 'lng': 108.881035}, 'address': '科技路西口259号枫韵蓝湾27栋', 'province': '陕西省', 'city': '西安市', 'area': '雁塔区', 'street_id': 'c5feb13c72e9449526e0a0ef', 'telephone': '(029)88519225', 'detail': 1, 'uid': 'c5feb13c72e9449526e0a0ef', 'detail_info': {'tag': '医疗;药店', 'navi_location': {'lng': 108.88087071007, 'lat': 34.243444156446}, 'type': 'hospital', 'detail_url': 'http://api.map.baidu.com/place/detail?uid=c5feb13c72e9449526e0a0ef&output=html&source=placeapi_v2', 'overall_rating': '1.0', 'image_num': '14', 'comment_num': '2', 'children': []}}"
"{'name': '泰生医药(天星店)', 'location': {'lat': 34.238775, 'lng': 108.887788}, 'address': '团结南路2号高科新花园1栋1-01号', 'province': '陕西省', 'city': '西安市', 'area': '雁塔区', 'street_id': '63e249b61cae46c98505bfca', 'telephone': '(029)88157464', 'detail': 1, 'uid': '52cdbfa60c63d2df80a00c0a', 'detail_info': {'tag': '医疗;药店', 'navi_location': {'lng': 108.88809228059, 'lat': 34.238531070444}, 'type': 'hospital', 'detail_url': 'http://api.map.baidu.com/place/detail?uid=52cdbfa60c63d2df80a00c0a&output=html&source=placeapi_v2', 'overall_rating': '2.0', 'image_num': '13', 'comment_num': '4', 'children': []}}"
"{'name': '泰生医药', 'location': {'lat': 34.21573, 'lng': 108.892693}, 'address': '西安市雁塔区窑头东巷与窑头北巷交叉路口往东约50米(糖果house)', 'province': '陕西省', 'city': '西安市', 'area': '雁塔区', 'detail': 1, 'uid': '6e9a0065741ca641f603b83e', 'detail_info': {'tag': '医疗;药店', 'type': 'hospital', 'detail_url': 'http://api.map.baidu.com/place/detail?uid=6e9a0065741ca641f603b83e&output=html&source=placeapi_v2', 'image_num': '1', 'children': []}}"
"{'name': '老百姓大药房(丈八路一店)', 'location': {'lat': 34.2417, 'lng': 108.879481}, 'address': '陕西省西安市高新区科技路82号城市风景都市印象13号', 'province': '陕西省', 'city': '西安市', 'area': '雁塔区', 'street_id': 'ef7bf0be9a20f8b083a00c72', 'telephone': '(029)88867255', 'detail': 1, 'uid': 'ef7bf0be9a20f8b083a00c72', 'detail_info': {'tag': '医疗;药店', 'type': 'hospital', 'detail_url': 'http://api.map.baidu.com/place/detail?uid=ef7bf0be9a20f8b083a00c72&output=html&source=placeapi_v2', 'image_num': '8', 'children': []}}"
"{'name': '怡康医药超市(丈八西路店)', 'location': {'lat': 34.205664, 'lng': 108.856061}, 'address': '丈八西路西段东滩社区大门东侧东坤商贸楼一层西侧由南向北第七间商铺', 'province': '陕西省', 'city': '西安市', 'area': '雁塔区', 'street_id': '5eb1da8f081906a303ff2d08', 'telephone': '(029)81131301', 'detail': 1, 'uid': '5eb1da8f081906a303ff2d08', 'detail_info': {'tag': '医疗;药店', 'type': 'hospital', 'detail_url': 'http://api.map.baidu.com/place/detail?uid=5eb1da8f081906a303ff2d08&output=html&source=placeapi_v2', 'image_num': '14', 'children': []}}"
"{'name': '怡康医药连锁超市(沣惠南路二店)', 'location': {'lat': 34.21632, 'lng': 108.89229}, 'address': '沣惠南路36号橡树街区第6幢2单元1层', 'province': '陕西省', 'city': '西安市', 'area': '雁塔区', 'street_id': '7631d9a7c8313cb4e215f947', 'detail': 1, 'uid': '7631d9a7c8313cb4e215f947', 'detail_info': {'tag': '医疗;药店', 'type': 'hospital', 'detail_url': 'http://api.map.baidu.com/place/detail?uid=7631d9a7c8313cb4e215f947&output=html&source=placeapi_v2', 'image_num': '2', 'children': []}}"
"{'name': '桔色成人(高新旗舰店)', 'location': {'lat': 34.243436, 'lng': 108.885978}, 'address': '雁塔区科技路西段17幢3单元30102室西户一间', 'province': '陕西省', 'city': '西安市', 'area': '雁塔区', 'telephone': '(029)89546809', 'detail': 1, 'uid': 'f884cb0cfae1c28d04026fcd', 'detail_info': {'tag': '医疗;医疗保健', 'type': 'shopping', 'detail_url': 'http://api.map.baidu.com/place/detail?uid=f884cb0cfae1c28d04026fcd&output=html&source=placeapi_v2', 'price': '0.0', 'overall_rating': '5.0', 'children': []}}"
"{'name': '泰生医药(丈八二路店)', 'location': {'lat': 34.187893, 'lng': 108.887635}, 'address': '锦业二路逸翠尚府南区1幢80102号', 'province': '陕西省', 'city': '西安市', 'area': '雁塔区', 'street_id': 'd503a66691c2b575f942b201', 'telephone': '18092185121', 'detail': 1, 'uid': 'd503a66691c2b575f942b201', 'detail_info': {'tag': '医疗;药店', 'navi_location': {'lng': 108.8878250904, 'lat': 34.187976795973}, 'type': 'hospital', 'detail_url': 'http://api.map.baidu.com/place/detail?uid=d503a66691c2b575f942b201&output=html&source=placeapi_v2', 'price': '0.0', 'overall_rating': '4.0', 'image_num': '8', 'comment_num': '1', 'children': []}}"
"{'name': '同一医药(区丈八西路店)', 'location': {'lat': 34.204505, 'lng': 108.853995}, 'address': '陕西省西安市雁塔区丈八西路东滩社区8排1号', 'province': '陕西省', 'city': '西安市', 'area': '雁塔区', 'street_id': '241b720a3dc1c6f808f5eb4f', 'telephone': '15332305489', 'detail': 1, 'uid': '241b720a3dc1c6f808f5eb4f', 'detail_info': {'tag': '医疗;药店', 'type': 'hospital', 'detail_url': 'http://api.map.baidu.com/place/detail?uid=241b720a3dc1c6f808f5eb4f&output=html&source=placeapi_v2', 'overall_rating': '0.0', 'image_num': '21', 'comment_num': '1', 'children': []}}"
"{'name': '大有益丰大药房', 'location': {'lat': 34.215252, 'lng': 108.877817}, 'address': '陕西省西安市雁塔区国宾中央区(科技七路北)', 'province': '陕西省', 'city': '西安市', 'area': '雁塔区', 'detail': 1, 'uid': '2bad44a9470fcd7993114c55', 'detail_info': {'tag': '医疗;药店', 'type': 'hospital', 'detail_url': 'http://api.map.baidu.com/place/detail?uid=2bad44a9470fcd7993114c55&output=html&source=placeapi_v2', 'image_num': '10', 'children': []}}"
"{'name': '怡康医药超市(丈八北路五店)', 'location': {'lat': 34.228782, 'lng': 108.880359}, 'address': '丈八北路鸿基新城第49幢1单元1层10101号', 'province': '陕西省', 'city': '西安市', 'area': '雁塔区', 'street_id': 'de1ec96ffd55cdb6afee7afc', 'telephone': '(029)81131301,(029)89529824', 'detail': 1, 'uid': 'de1ec96ffd55cdb6afee7afc', 'detail_info': {'tag': '医疗;药店', 'type': 'hospital', 'detail_url': 'http://api.map.baidu.com/place/detail?uid=de1ec96ffd55cdb6afee7afc&output=html&source=placeapi_v2', 'overall_rating': '0.0', 'image_num': '8', 'children': []}}"
"{'name': '达仁大药房', 'location': {'lat': 34.237737, 'lng': 108.887689}, 'address': '陕西省西安市雁塔区团结南路10号附近', 'province': '陕西省', 'city': '西安市', 'area': '雁塔区', 'detail': 1, 'uid': 'a9870d70f4b63ee0b817e70e', 'detail_info': {'tag': '医疗;药店', 'type': 'hospital', 'detail_url': 'http://api.map.baidu.com/place/detail?uid=a9870d70f4b63ee0b817e70e&output=html&source=placeapi_v2', 'image_num': '2', 'children': []}}"
"{'name': '万百泉大药房(东滩社区店)', 'location': {'lat': 34.202766, 'lng': 108.85364}, 'address': '西安市雁塔区丈八七路8号附近', 'province': '陕西省', 'city': '西安市', 'area': '雁塔区', 'detail': 1, 'uid': '2a9a5574677fc7c852e5c587', 'detail_info': {'tag': '医疗;药店', 'type': 'hospital', 'detail_url': 'http://api.map.baidu.com/place/detail?uid=2a9a5574677fc7c852e5c587&output=html&source=placeapi_v2', 'image_num': '10', 'children': []}}"
"{'name': '泰生医药', 'location': {'lat': 34.223997, 'lng': 108.8872}, 'address': '陕西省西安市雁塔区团结南路', 'province': '陕西省', 'city': '西安市', 'area': '雁塔区', 'telephone': '18091590269', 'detail': 1, 'uid': 'f1a7004c1e09fb920d3dda34', 'detail_info': {'tag': '医疗;药店', 'type': 'hospital', 'detail_url': 'http://api.map.baidu.com/place/detail?uid=f1a7004c1e09fb920d3dda34&output=html&source=placeapi_v2', 'image_num': '4', 'children': []}}"
"{'name': '秦唐大药房(东滩店)', 'location': {'lat': 34.206902, 'lng': 108.855835}, 'address': '丈八六路东滩村51排2号', 'province': '陕西省', 'city': '西安市', 'area': '雁塔区', 'street_id': 'b3c5dbb849cd0a5aa104645a', 'telephone': '15339119669', 'detail': 1, 'uid': 'b3c5dbb849cd0a5aa104645a', 'detail_info': {'tag': '医疗;药店', 'type': 'hospital', 'detail_url': 'http://api.map.baidu.com/place/detail?uid=b3c5dbb849cd0a5aa104645a&output=html&source=placeapi_v2', 'overall_rating': '1.0', 'image_num': '4', 'comment_num': '2', 'children': []}}"
"{'name': '怡康医药(锦业路店)', 'location': {'lat': 34.200633, 'lng': 108.855541}, 'address': '锦业路尚品美地城南门', 'province': '陕西省', 'city': '西安市', 'area': '雁塔区', 'detail': 1, 'uid': 'b104f7e66e8d54d5d518b79a', 'detail_info': {'tag': '医疗;药店', 'type': 'hospital', 'detail_url': 'http://api.map.baidu.com/place/detail?uid=b104f7e66e8d54d5d518b79a&output=html&source=placeapi_v2', 'image_num': '1', 'children': []}}"
"{'name': '怡康医药超市(丈八北路七店)', 'location': {'lat': 34.213999, 'lng': 108.878893}, 'address': '陕西省西安市雁塔区丈八北路南段西侧国宾中央区19幢1层', 'province': '陕西省', 'city': '西安市', 'area': '雁塔区', 'detail': 1, 'uid': 'dedcbf26ca24a3628bb988d7', 'detail_info': {'tag': '医疗;药店', 'navi_location': {'lng': 108.87873071369, 'lat': 34.213783767948}, 'type': 'hospital', 'detail_url': 'http://api.map.baidu.com/place/detail?uid=dedcbf26ca24a3628bb988d7&output=html&source=placeapi_v2', 'image_num': '8', 'children': []}}"
"{'name': '同一医药(西安丈八六路店)', 'location': {'lat': 34.187881, 'lng': 108.861863}, 'address': '丈八六路与锦业二路交叉口南150米', 'province': '陕西省', 'city': '西安市', 'area': '雁塔区', 'street_id': 'a61342b4aac65d7f90114cbf', 'detail': 1, 'uid': 'a61342b4aac65d7f90114cbf', 'detail_info': {'tag': '医疗;药店', 'type': 'hospital', 'detail_url': 'http://api.map.baidu.com/place/detail?uid=a61342b4aac65d7f90114cbf&output=html&source=placeapi_v2', 'image_num': '10', 'children': []}}"
"{'name': '老百姓大药房', 'location': {'lat': 34.224221, 'lng': 108.872362}, 'address': '鸿基新城-祥园35号楼', 'province': '陕西省', 'city': '西安市', 'area': '雁塔区', 'detail': 1, 'uid': '6919747df7f4a558c81b95a8', 'detail_info': {'tag': '医疗;药店', 'type': 'hospital', 'detail_url': 'http://api.map.baidu.com/place/detail?uid=6919747df7f4a558c81b95a8&output=html&source=placeapi_v2', 'image_num': '1', 'children': []}}"
"{'name': '怡康医药超市', 'location': {'lat': 34.246158, 'lng': 108.846367}, 'address': '陕西省西安市雁塔区富源一路', 'province': '陕西省', 'city': '西安市', 'area': '雁塔区', 'telephone': '(029)88643622', 'detail': 1, 'uid': 'a76eb5c20ca470c63ce23154', 'detail_info': {'tag': '医疗;药店', 'type': 'hospital', 'detail_url': 'http://api.map.baidu.com/place/detail?uid=a76eb5c20ca470c63ce23154&output=html&source=placeapi_v2', 'image_num': '5', 'children': []}}"
"{'name': '锦业路大药房', 'location': {'lat': 34.196744, 'lng': 108.843873}, 'address': '西安市长安区丈八八路与锦业一路交叉路口往东南约50米(锦业新居)', 'province': '陕西省', 'city': '西安市', 'area': '长安区', 'street_id': 'f69cfa8a891c9c17754ff17b', 'telephone': '(029)89289295', 'detail': 1, 'uid': 'f69cfa8a891c9c17754ff17b', 'detail_info': {'tag': '医疗;药店', 'navi_location': {'lng': 108.84333082554, 'lat': 34.196943586776}, 'type': 'hospital', 'detail_url': 'http://api.map.baidu.com/place/detail?uid=f69cfa8a891c9c17754ff17b&output=html&source=placeapi_v2', 'overall_rating': '5.0', 'image_num': '4', 'comment_num': '2', 'children': []}}"
"{'name': '洪济堂大药房', 'location': {'lat': 34.246136, 'lng': 108.890142}, 'address': '西安市雁塔区团结南路与文兴巷交叉路口往东约100米(中华世纪城春晓园)', 'province': '陕西省', 'city': '西安市', 'area': '雁塔区', 'street_id': '47ebfa2d7ef3c5fdfbdc8584', 'detail': 1, 'uid': '47ebfa2d7ef3c5fdfbdc8584', 'detail_info': {'tag': '医疗;药店', 'type': 'hospital', 'detail_url': 'http://api.map.baidu.com/place/detail?uid=47ebfa2d7ef3c5fdfbdc8584&output=html&source=placeapi_v2', 'overall_rating': '0.0', 'image_num': '10', 'comment_num': '2', 'children': []}}"
"{'name': '广济大药房(大寨路店)', 'location': {'lat': 34.250597, 'lng': 108.891534}, 'address': '科技路239号中华世纪城第6幢1单元1层10107自西向东1间', 'province': '陕西省', 'city': '西安市', 'area': '雁塔区', 'telephone': '(029)89541881', 'detail': 1, 'uid': '2d8f12bb02a94f85f603b805', 'detail_info': {'tag': '医疗;药店', 'type': 'hospital', 'detail_url': 'http://api.map.baidu.com/place/detail?uid=2d8f12bb02a94f85f603b805&output=html&source=placeapi_v2', 'overall_rating': '0.0', 'image_num': '2', 'comment_num': '1', 'children': []}}"
"{'name': '舒普医药超市(科技路西口店)', 'location': {'lat': 34.24147, 'lng': 108.878508}, 'address': '陕西省西安市雁塔区鱼斗路49号附近', 'province': '陕西省', 'city': '西安市', 'area': '雁塔区', 'detail': 1, 'uid': '7b2b10ce2d0dabb60b69d982', 'detail_info': {'tag': '医疗;药店', 'type': 'hospital', 'detail_url': 'http://api.map.baidu.com/place/detail?uid=7b2b10ce2d0dabb60b69d982&output=html&source=placeapi_v2', 'image_num': '4', 'children': []}}"
"{'name': '同一医药(付新村店)', 'location': {'lat': 34.187037, 'lng': 108.872014}, 'address': '陕西省西安市雁塔区丈八四路东付新村21号4单元1层', 'province': '陕西省', 'city': '西安市', 'area': '雁塔区', 'detail': 1, 'uid': '6835e3a7d797b04de311031e', 'detail_info': {'tag': '医疗;药店', 'type': 'hospital', 'detail_url': 'http://api.map.baidu.com/place/detail?uid=6835e3a7d797b04de311031e&output=html&source=placeapi_v2', 'image_num': '7', 'children': []}}"
"{'name': '舒普大药房(大寨路店)', 'location': {'lat': 34.251182, 'lng': 108.892341}, 'address': '西安市雁塔区大寨路1号', 'province': '陕西省', 'city': '西安市', 'area': '雁塔区', 'street_id': '056ebdf920841724ae080fdc', 'telephone': '(029)88692201,18302950083', 'detail': 1, 'uid': '056ebdf920841724ae080fdc', 'detail_info': {'tag': '医疗;药店', 'navi_location': {'lng': 108.89243724151, 'lat': 34.251078450594}, 'type': 'hospital', 'detail_url': 'http://api.map.baidu.com/place/detail?uid=056ebdf920841724ae080fdc&output=html&source=placeapi_v2', 'overall_rating': '3.0', 'image_num': '12', 'comment_num': '1', 'children': []}}"
"{'name': '西安市雁塔区仁寿大药房', 'location': {'lat': 34.242167, 'lng': 108.827997}, 'address': '西安市雁塔区科技西路与西宝疏导线交叉路口东南侧(云龙商务酒店)', 'province': '陕西省', 'city': '西安市', 'area': '雁塔区', 'street_id': 'ea08e724cacb11b826d2bb07', 'telephone': '15929326460', 'detail': 1, 'uid': 'ea08e724cacb11b826d2bb07', 'detail_info': {'tag': '医疗;药店', 'type': 'hospital', 'detail_url': 'http://api.map.baidu.com/place/detail?uid=ea08e724cacb11b826d2bb07&output=html&source=placeapi_v2', 'overall_rating': '0.0', 'image_num': '13', 'comment_num': '1', 'children': []}}"
"{'name': '仲一堂', 'location': {'lat': 34.246576, 'lng': 108.887518}, 'address': '西安市雁塔区文兴巷与团结南路交叉路口西北侧(中建国熙台)', 'province': '陕西省', 'city': '西安市', 'area': '雁塔区', 'detail': 1, 'uid': '4d636569655a21a3c9c3db20', 'detail_info': {'tag': '医疗;药店', 'type': 'hospital', 'detail_url': 'http://api.map.baidu.com/place/detail?uid=4d636569655a21a3c9c3db20&output=html&source=placeapi_v2', 'overall_rating': '0.0', 'image_num': '4', 'comment_num': '1', 'children': []}}"
"{'name': '同一医药(丈八北路二店)', 'location': {'lat': 34.251365, 'lng': 108.879559}, 'address': '丈八北路575号旭景碧泽园1号楼1单元10104', 'province': '陕西省', 'city': '西安市', 'area': '雁塔区', 'street_id': 'f7f3d30dcdc491676f4760c4', 'detail': 1, 'uid': 'f7f3d30dcdc491676f4760c4', 'detail_info': {'tag': '医疗;药店', 'type': 'hospital', 'detail_url': 'http://api.map.baidu.com/place/detail?uid=f7f3d30dcdc491676f4760c4&output=html&source=placeapi_v2', 'image_num': '10', 'children': []}}"
"{'name': '同一医药(大寨路二店)', 'location': {'lat': 34.250381, 'lng': 108.86206}, 'address': '大寨路以南阿房路以东中航华府15号楼10101号', 'province': '陕西省', 'city': '西安市', 'area': '雁塔区', 'telephone': '15398013534', 'detail': 1, 'uid': '5bc3bb9da37eced5744ff144', 'detail_info': {'tag': '医疗;药店', 'type': 'hospital', 'detail_url': 'http://api.map.baidu.com/place/detail?uid=5bc3bb9da37eced5744ff144&output=html&source=placeapi_v2', 'overall_rating': '5.0', 'image_num': '11', 'comment_num': '1', 'children': []}}"
"{'name': '博信医药超市', 'location': {'lat': 34.208505, 'lng': 108.875373}, 'address': '丈八四路6号永辉超市隔壁', 'province': '陕西省', 'city': '西安市', 'area': '雁塔区', 'detail': 1, 'uid': '07e77dd1f89143405bf6be49', 'detail_info': {'tag': '医疗;药店', 'type': 'hospital', 'detail_url': 'http://api.map.baidu.com/place/detail?uid=07e77dd1f89143405bf6be49&output=html&source=placeapi_v2', 'image_num': '1', 'children': []}}"
"{'name': '乐新药店(鱼化寨店)', 'location': {'lat': 34.24489, 'lng': 108.852359}, 'address': '科技西路鱼化寨地铁口E口往西50米', 'province': '陕西省', 'city': '西安市', 'area': '雁塔区', 'telephone': '15829930333', 'detail': 1, 'uid': 'e716e74a619f6e16f90cadbd', 'detail_info': {'tag': '医疗;药店', 'type': 'hospital', 'detail_url': 'http://api.map.baidu.com/place/detail?uid=e716e74a619f6e16f90cadbd&output=html&source=placeapi_v2', 'image_num': '6', 'children': []}}"
"{'name': '华山大药房(丈八北路店)', 'location': {'lat': 34.22447, 'lng': 108.872022}, 'address': '鸿基新城步行街16号楼1号', 'province': '陕西省', 'city': '西安市', 'area': '雁塔区', 'telephone': '15202487128,(029)88215712', 'detail': 1, 'uid': 'd9633f40fad1b1fe9e82ea89', 'detail_info': {'tag': '医疗;药店', 'type': 'hospital', 'detail_url': 'http://api.map.baidu.com/place/detail?uid=d9633f40fad1b1fe9e82ea89&output=html&source=placeapi_v2', 'image_num': '1', 'children': []}}"
"{'name': '众信京兆药房(福诚店)', 'location': {'lat': 34.188284, 'lng': 108.864881}, 'address': '陕西省西安市雁塔区锦业二路86号海棠别馆', 'province': '陕西省', 'city': '西安市', 'area': '雁塔区', 'street_id': 'bc475836ca228532a1a9343c', 'telephone': '(029)81113240', 'detail': 1, 'uid': 'bc475836ca228532a1a9343c', 'detail_info': {'tag': '医疗;药店', 'type': 'hospital', 'detail_url': 'http://api.map.baidu.com/place/detail?uid=bc475836ca228532a1a9343c&output=html&source=placeapi_v2', 'image_num': '10', 'children': []}}"
"{'name': '杏林草堂药店', 'location': {'lat': 34.231013, 'lng': 108.881473}, 'address': '陕西省西安市雁塔区科技二路76号陕商大厦1层10106', 'province': '陕西省', 'city': '西安市', 'area': '雁塔区', 'detail': 1, 'uid': '0b25c054592adbaba2d23053', 'detail_info': {'tag': '医疗;药店', 'type': 'hospital', 'detail_url': 'http://api.map.baidu.com/place/detail?uid=0b25c054592adbaba2d23053&output=html&source=placeapi_v2', 'overall_rating': '0.0', 'image_num': '3', 'comment_num': '1', 'children': []}}"
"{'name': '德芝康大药房', 'location': {'lat': 34.224961, 'lng': 108.815465}, 'address': '陕西省西安市长安区鱼斗路', 'province': '陕西省', 'city': '西安市', 'area': '长安区', 'street_id': '1d6fdd1bcb9ceb4a4107c114', 'detail': 1, 'uid': '1d6fdd1bcb9ceb4a4107c114', 'detail_info': {'tag': '医疗;药店', 'type': 'hospital', 'detail_url': 'http://api.map.baidu.com/place/detail?uid=1d6fdd1bcb9ceb4a4107c114&output=html&source=placeapi_v2', 'image_num': '9', 'children': []}}"
"{'name': '万家乐大药房', 'location': {'lat': 34.226177, 'lng': 108.880691}, 'address': '陕西省西安市雁塔区丈八北路8号1层东南50米', 'province': '陕西省', 'city': '西安市', 'area': '雁塔区', 'detail': 1, 'uid': '6cf400aa484d5b720af5ebaa', 'detail_info': {'tag': '医疗;药店', 'type': 'hospital', 'detail_url': 'http://api.map.baidu.com/place/detail?uid=6cf400aa484d5b720af5ebaa&output=html&source=placeapi_v2', 'image_num': '4', 'children': []}}"
"{'name': '洪福堂大药房(大寨路店)', 'location': {'lat': 34.244741, 'lng': 108.883503}, 'address': '陕西省西安市雁塔区高新六路', 'province': '陕西省', 'city': '西安市', 'area': '雁塔区', 'detail': 1, 'uid': '9a4b4927c3ff45c64151c04d', 'detail_info': {'tag': '医疗;药店', 'type': 'hospital', 'detail_url': 'http://api.map.baidu.com/place/detail?uid=9a4b4927c3ff45c64151c04d&output=html&source=placeapi_v2', 'image_num': '5', 'children': []}}"
"{'name': '佰万康大药房', 'location': {'lat': 34.234728, 'lng': 108.859132}, 'address': '西安市雁塔区鱼斗路158号', 'province': '陕西省', 'city': '西安市', 'area': '雁塔区', 'street_id': 'fe44507ae2fef98ec61e510a', 'telephone': '15596676810', 'detail': 1, 'uid': 'fe44507ae2fef98ec61e510a', 'detail_info': {'tag': '医疗;药店', 'type': 'hospital', 'detail_url': 'http://api.map.baidu.com/place/detail?uid=fe44507ae2fef98ec61e510a&output=html&source=placeapi_v2', 'image_num': '12', 'children': []}}"
"{'name': '暖在心大药房', 'location': {'lat': 34.243704, 'lng': 108.88247}, 'address': '西安市雁塔区科技路259号', 'province': '陕西省', 'city': '西安市', 'area': '雁塔区', 'street_id': '52aae468fd61c09914b54b38', 'telephone': '(029)84672234', 'detail': 1, 'uid': '52aae468fd61c09914b54b38', 'detail_info': {'tag': '医疗;药店', 'type': 'hospital', 'detail_url': 'http://api.map.baidu.com/place/detail?uid=52aae468fd61c09914b54b38&output=html&source=placeapi_v2', 'overall_rating': '4.0', 'image_num': '17', 'comment_num': '3', 'children': []}}"
"{'name': '润康大药房(科技五路店)', 'location': {'lat': 34.223983, 'lng': 108.885991}, 'address': '西安市雁塔区团结南路南段南窑头西区78排12号', 'province': '陕西省', 'city': '西安市', 'area': '雁塔区', 'telephone': '13389236757', 'detail': 1, 'uid': '97a28c67dfe0e2c0fb2d61d9', 'detail_info': {'tag': '医疗;药店', 'navi_location': {'lng': 108.8860041335, 'lat': 34.223847930817}, 'type': 'hospital', 'detail_url': 'http://api.map.baidu.com/place/detail?uid=97a28c67dfe0e2c0fb2d61d9&output=html&source=placeapi_v2', 'price': '0.0', 'image_num': '10', 'children': []}}"
"{'name': '方健大药房', 'location': {'lat': 34.24133, 'lng': 108.884413}, 'address': '陕西省西安市雁塔区陈家庄小区内', 'province': '陕西省', 'city': '西安市', 'area': '雁塔区', 'street_id': '932ee8f71e99baf2a0acc4e4', 'detail': 1, 'uid': '932ee8f71e99baf2a0acc4e4', 'detail_info': {'tag': '医疗;药店', 'type': 'hospital', 'detail_url': 'http://api.map.baidu.com/place/detail?uid=932ee8f71e99baf2a0acc4e4&output=html&source=placeapi_v2', 'image_num': '6', 'children': []}}"
"{'name': '仁安大药房', 'location': {'lat': 34.20799, 'lng': 108.872436}, 'address': '西安市雁塔区中铁缤纷南郡南门', 'province': '陕西省', 'city': '西安市', 'area': '雁塔区', 'street_id': '761d1fd4ddb837514afc8de7', 'telephone': '(029)81104398', 'detail': 1, 'uid': '761d1fd4ddb837514afc8de7', 'detail_info': {'tag': '医疗;药店', 'type': 'hospital', 'detail_url': 'http://api.map.baidu.com/place/detail?uid=761d1fd4ddb837514afc8de7&output=html&source=placeapi_v2', 'image_num': '11', 'children': []}}"
"{'name': '同一医药(西安丈八北路三店)', 'location': {'lat': 34.224152, 'lng': 108.874821}, 'address': '丈八北路鸿基新城第48幢2单元1层20101号', 'province': '陕西省', 'city': '西安市', 'area': '雁塔区', 'street_id': 'd48d113ca8abeadee507388f', 'telephone': '(029)89383576', 'detail': 1, 'uid': 'dca8abccdae917f0ad0457d5', 'detail_info': {'tag': '医疗;药店', 'type': 'hospital', 'detail_url': 'http://api.map.baidu.com/place/detail?uid=dca8abccdae917f0ad0457d5&output=html&source=placeapi_v2', 'image_num': '5', 'children': []}}"
"{'name': '裕德轩大药房(经五路店)', 'location': {'lat': 34.224135, 'lng': 108.874729}, 'address': '陕西省西安市雁塔区鱼化一路', 'province': '陕西省', 'city': '西安市', 'area': '雁塔区', 'detail': 1, 'uid': '54026b68a6c6955cb5147f31', 'detail_info': {'tag': '医疗;药店', 'type': 'hospital', 'detail_url': 'http://api.map.baidu.com/place/detail?uid=54026b68a6c6955cb5147f31&output=html&source=placeapi_v2', 'image_num': '1', 'children': []}}"
"{'name': '和信医药超市', 'location': {'lat': 34.24489, 'lng': 108.851999}, 'address': '西安市雁塔区经十五路与科技西路交叉路口往东北约50米(金泰怡景花园)', 'province': '陕西省', 'city': '西安市', 'area': '雁塔区', 'detail': 1, 'uid': 'bdb23bc309d963df4354d735', 'detail_info': {'tag': '医疗;药店', 'type': 'hospital', 'detail_url': 'http://api.map.baidu.com/place/detail?uid=bdb23bc309d963df4354d735&output=html&source=placeapi_v2', 'image_num': '5', 'children': []}}"
"{'name': '华瑞医药(袁旗寨店)', 'location': {'lat': 34.202909, 'lng': 108.85965}, 'address': '西安市雁塔区袁旗寨26排二单元', 'province': '陕西省', 'city': '西安市', 'area': '雁塔区', 'street_id': 'd219bb1d26609388f50e771e', 'telephone': '13892857127', 'detail': 1, 'uid': 'd219bb1d26609388f50e771e', 'detail_info': {'tag': '医疗;药店', 'type': 'hospital', 'detail_url': 'http://api.map.baidu.com/place/detail?uid=d219bb1d26609388f50e771e&output=html&source=placeapi_v2', 'overall_rating': '0.0', 'image_num': '9', 'comment_num': '2', 'children': []}}"
"{'name': '西安医学院第一附属医院', 'location': {'lat': 34.264693, 'lng': 108.893353}, 'address': '西安市莲湖区沣镐西路48号', 'province': '陕西省', 'city': '西安市', 'area': '莲湖区', 'street_id': 'a5e458d5401243cde9f85337', 'telephone': '(029)84277356', 'detail': 1, 'uid': 'a5e458d5401243cde9f85337', 'detail_info': {'tag': '医疗;综合医院', 'navi_location': {'lng': 108.89333682531, 'lat': 34.26496605024}, 'type': 'hospital', 'detail_url': 'http://api.map.baidu.com/place/detail?uid=a5e458d5401243cde9f85337&output=html&source=placeapi_v2', 'price': '0.0', 'overall_rating': '1.6', 'image_num': '21', 'comment_num': '11', 'children': []}}"
"{'name': '西安医学院第一附属医院沣东医院', 'location': {'lat': 34.279234, 'lng': 108.859866}, 'address': '西安市未央区阿房二路1号', 'province': '陕西省', 'city': '西安市', 'area': '未央区', 'street_id': '9de70df265998dd14f3a5939', 'telephone': '(029)84528866', 'detail': 1, 'uid': '9de70df265998dd14f3a5939', 'detail_info': {'tag': '医疗;综合医院', 'navi_location': {'lng': 108.86014710469, 'lat': 34.2794838333}, 'type': 'hospital', 'detail_url': 'http://api.map.baidu.com/place/detail?uid=9de70df265998dd14f3a5939&output=html&source=placeapi_v2', 'overall_rating': '1.0', 'image_num': '11', 'comment_num': '1', 'children': []}}"
"{'name': '中国人民武装警察部队工程大学医院', 'location': {'lat': 34.289515, 'lng': 108.840097}, 'address': '西安市未央区三桥镇武警路4号', 'province': '陕西省', 'city': '西安市', 'area': '未央区', 'street_id': 'bcf5a1b6659d0de8715e80e8', 'detail': 1, 'uid': 'bcf5a1b6659d0de8715e80e8', 'detail_info': {'tag': '医疗;综合医院', 'navi_location': {'lng': 108.84088962103, 'lat': 34.289162521531}, 'type': 'hospital', 'detail_url': 'http://api.map.baidu.com/place/detail?uid=bcf5a1b6659d0de8715e80e8&output=html&source=placeapi_v2', 'overall_rating': '1.9', 'image_num': '9', 'comment_num': '23', 'children': []}}"
"{'name': '中航工业西安医院', 'location': {'lat': 34.274297, 'lng': 108.87998}, 'address': '西安市莲湖区大庆路副24号', 'province': '陕西省', 'city': '西安市', 'area': '莲湖区', 'street_id': '7fd6f433e7c94208626858c9', 'detail': 1, 'uid': '7fd6f433e7c94208626858c9', 'detail_info': {'tag': '医疗;综合医院', 'navi_location': {'lng': 108.88031182032, 'lat': 34.274752795052}, 'type': 'hospital', 'detail_url': 'http://api.map.baidu.com/place/detail?uid=7fd6f433e7c94208626858c9&output=html&source=placeapi_v2', 'overall_rating': '1.8', 'image_num': '14', 'comment_num': '6', 'children': []}}"
"{'name': '西安北车医院', 'location': {'lat': 34.307156, 'lng': 108.847457}, 'address': '陕西省西安市三桥镇建章路南段54号', 'province': '陕西省', 'city': '西安市', 'area': '未央区', 'street_id': '0a15c7ec187b55fced74f850', 'detail': 1, 'uid': '0a15c7ec187b55fced74f850', 'detail_info': {'tag': '医疗;综合医院', 'navi_location': {'lng': 108.84816139245, 'lat': 34.307034043729}, 'type': 'hospital', 'detail_url': 'http://api.map.baidu.com/place/detail?uid=0a15c7ec187b55fced74f850&output=html&source=placeapi_v2', 'overall_rating': '0.0', 'image_num': '7', 'comment_num': '1', 'children': []}}"
"{'name': '西安冶金医院', 'location': {'lat': 34.280134, 'lng': 108.872877}, 'address': '西安市莲湖区枣园西路40号', 'province': '陕西省', 'city': '西安市', 'area': '莲湖区', 'street_id': '3b2a4fc3242bfd65d92f28e0', 'telephone': '(029)84619424', 'detail': 1, 'uid': '3b2a4fc3242bfd65d92f28e0', 'detail_info': {'tag': '医疗;综合医院', 'navi_location': {'lng': 108.87286968615, 'lat': 34.280454083322}, 'type': 'hospital', 'detail_url': 'http://api.map.baidu.com/place/detail?uid=3b2a4fc3242bfd65d92f28e0&output=html&source=placeapi_v2', 'overall_rating': '0.0', 'image_num': '13', 'comment_num': '1', 'children': []}}"
"{'name': '强森医疗(昆明门诊中心)', 'location': {'lat': 34.259007, 'lng': 108.871612}, 'address': '陕西省西安市莲湖区昆明路十号桥莱茵小城售楼部西门', 'province': '陕西省', 'city': '西安市', 'area': '莲湖区', 'street_id': 'd69bfebf8f083272e215f911', 'telephone': '(029)84493578', 'detail': 1, 'uid': 'd69bfebf8f083272e215f911', 'detail_info': {'tag': '医疗;其他', 'type': 'hospital', 'detail_url': 'http://api.map.baidu.com/place/detail?uid=d69bfebf8f083272e215f911&output=html&source=placeapi_v2', 'overall_rating': '0.0', 'image_num': '4', 'comment_num': '1', 'children': []}}"
"{'name': '西安莲湖协和医院', 'location': {'lat': 34.265692, 'lng': 108.879213}, 'address': '西安市莲湖区汉城南路149号', 'province': '陕西省', 'city': '西安市', 'area': '莲湖区', 'street_id': 'cb06b2f09f0de6564107c1c3', 'telephone': '(029)84221982', 'detail': 1, 'uid': 'cb06b2f09f0de6564107c1c3', 'detail_info': {'tag': '医疗;综合医院', 'navi_location': {'lng': 108.8786701643, 'lat': 34.265701721217}, 'type': 'hospital', 'detail_url': 'http://api.map.baidu.com/place/detail?uid=cb06b2f09f0de6564107c1c3&output=html&source=placeapi_v2', 'price': '0.0', 'overall_rating': '2.4', 'image_num': '27', 'comment_num': '16', 'children': []}}"
"{'name': '西安长安泰和医院', 'location': {'lat': 34.26337, 'lng': 108.793564}, 'address': '西安市长安区王寺街道西街141号', 'province': '陕西省', 'city': '西安市', 'area': '长安区', 'telephone': '(029)85808366', 'detail': 1, 'uid': 'c879fa0158679e4ac909f050', 'detail_info': {'tag': '医疗;综合医院', 'navi_location': {'lng': 108.7939034504, 'lat': 34.264590612967}, 'type': 'hospital', 'detail_url': 'http://api.map.baidu.com/place/detail?uid=c879fa0158679e4ac909f050&output=html&source=placeapi_v2', 'overall_rating': '3.2', 'image_num': '10', 'comment_num': '3', 'children': []}}"
"{'name': '三桥社区卫生服务中心', 'location': {'lat': 34.309444, 'lng': 108.826248}, 'address': '西安市未央区三桥街道天章大道', 'province': '陕西省', 'city': '西安市', 'area': '未央区', 'telephone': '(029)84521609', 'detail': 1, 'uid': 'f6b771b7f828deced22dd6c2', 'detail_info': {'tag': '医疗;其他', 'navi_location': {'lng': 108.82632558873, 'lat': 34.309718079168}, 'type': 'hospital', 'detail_url': 'http://api.map.baidu.com/place/detail?uid=f6b771b7f828deced22dd6c2&output=html&source=placeapi_v2', 'overall_rating': '5.0', 'image_num': '1', 'comment_num': '1', 'children': []}}"
"{'name': '陕西西安中际中西医结合脑病医院', 'location': {'lat': 34.267958, 'lng': 108.878058}, 'address': '陕西省西安市莲湖区汉城南路旭景新港8号', 'province': '陕西省', 'city': '西安市', 'area': '莲湖区', 'street_id': '41dbfd5921da93459de3218d', 'telephone': '(029)62668120', 'detail': 1, 'uid': '41dbfd5921da93459de3218d', 'detail_info': {'tag': '医疗;专科医院', 'navi_location': {'lng': 108.87856285093, 'lat': 34.267760247834}, 'type': 'hospital', 'detail_url': 'http://api.map.baidu.com/place/detail?uid=41dbfd5921da93459de3218d&output=html&source=placeapi_v2', 'overall_rating': '5.0', 'image_num': '26', 'comment_num': '8', 'children': []}}"
"{'name': '闵旗寨村卫生室', 'location': {'lat': 34.253561, 'lng': 108.831441}, 'address': '陕西省西安市未央区二号路与富源三路交叉口西北50米', 'province': '陕西省', 'city': '西安市', 'area': '未央区', 'street_id': '39d43f823f0b82fba8059dc4', 'detail': 1, 'uid': '39d43f823f0b82fba8059dc4', 'detail_info': {'tag': '医疗;诊所', 'navi_location': {'lng': 108.83185946418, 'lat': 34.25347639268}, 'type': 'hospital', 'detail_url': 'http://api.map.baidu.com/place/detail?uid=39d43f823f0b82fba8059dc4&output=html&source=placeapi_v2', 'overall_rating': '0.0', 'image_num': '9', 'comment_num': '1', 'children': []}}"
"{'name': '强森医疗(金色悦城门诊中心)', 'location': {'lat': 34.292288, 'lng': 108.865754}, 'address': '陕西省西安市莲湖区枣园西路292号万科金色悦城商业街4层', 'province': '陕西省', 'city': '西安市', 'area': '莲湖区', 'street_id': '781723853984bfdaeb12e498', 'telephone': '(029)82692892', 'detail': 1, 'uid': '781723853984bfdaeb12e498', 'detail_info': {'tag': '医疗;其他', 'type': 'hospital', 'detail_url': 'http://api.map.baidu.com/place/detail?uid=781723853984bfdaeb12e498&output=html&source=placeapi_v2', 'image_num': '6', 'children': []}}"
"{'name': '西安未央瑞康医院', 'location': {'lat': 34.280301, 'lng': 108.84747}, 'address': '西安市未央区阿房二路西口', 'province': '陕西省', 'city': '西安市', 'area': '未央区', 'street_id': '761203eb1b9e801649fd3f2c', 'detail': 1, 'uid': '761203eb1b9e801649fd3f2c', 'detail_info': {'tag': '医疗;综合医院', 'navi_location': {'lng': 108.84715380089, 'lat': 34.279917362535}, 'type': 'hospital', 'detail_url': 'http://api.map.baidu.com/place/detail?uid=761203eb1b9e801649fd3f2c&output=html&source=placeapi_v2', 'overall_rating': '0.0', 'image_num': '5', 'comment_num': '1', 'children': []}}"
"{'name': '西安市雁塔区漳浒寨社区卫生服务中心', 'location': {'lat': 34.254118, 'lng': 108.883036}, 'address': '陕西省西安市雁塔区昆明路东段民洁路1号', 'province': '陕西省', 'city': '西安市', 'area': '雁塔区', 'telephone': '(029)84110298', 'detail': 1, 'uid': 'dfb1b012fdccd36c2b06ce50', 'detail_info': {'tag': '医疗;诊所', 'type': 'hospital', 'detail_url': 'http://api.map.baidu.com/place/detail?uid=dfb1b012fdccd36c2b06ce50&output=html&source=placeapi_v2', 'overall_rating': '3.0', 'image_num': '8', 'comment_num': '2', 'children': []}}"
"{'name': '莲湖区枣园第二社区卫生服务中心', 'location': {'lat': 34.275627, 'lng': 108.866523}, 'address': '陕西省西安市莲湖区大庆路881号', 'province': '陕西省', 'city': '西安市', 'area': '莲湖区', 'telephone': '(029)63398999', 'detail': 1, 'uid': '1b250a886865e8769ff7793c', 'detail_info': {'tag': '医疗;诊所', 'navi_location': {'lng': 108.86615706589, 'lat': 34.275804558317}, 'type': 'hospital', 'detail_url': 'http://api.map.baidu.com/place/detail?uid=1b250a886865e8769ff7793c&output=html&source=placeapi_v2', 'overall_rating': '3.0', 'image_num': '7', 'comment_num': '2', 'children': []}}"
"{'name': '西安市莲湖区三民村卫生所', 'location': {'lat': 34.286009, 'lng': 108.868277}, 'address': '枣园北路2号', 'province': '陕西省', 'city': '西安市', 'area': '莲湖区', 'street_id': '5c1c7bddf3d4965c3f9a5e2f', 'detail': 1, 'uid': '5c1c7bddf3d4965c3f9a5e2f', 'detail_info': {'tag': '医疗;诊所', 'type': 'hospital', 'detail_url': 'http://api.map.baidu.com/place/detail?uid=5c1c7bddf3d4965c3f9a5e2f&output=html&source=placeapi_v2', 'overall_rating': '0.0', 'image_num': '13', 'comment_num': '1', 'children': []}}"
"{'name': '三桥建章路社区卫生服务站', 'location': {'lat': 34.303244, 'lng': 108.852432}, 'address': '陕西省西安市未央区车辆厂生活小区2期1层', 'province': '陕西省', 'city': '西安市', 'area': '未央区', 'street_id': '07f3c8b5fa60fe1e6240a90d', 'telephone': '(029)82369962', 'detail': 1, 'uid': '07f3c8b5fa60fe1e6240a90d', 'detail_info': {'tag': '医疗;诊所', 'navi_location': {'lng': 108.85244862647, 'lat': 34.30339575495}, 'type': 'hospital', 'detail_url': 'http://api.map.baidu.com/place/detail?uid=07f3c8b5fa60fe1e6240a90d&output=html&source=placeapi_v2', 'overall_rating': '0.0', 'image_num': '7', 'comment_num': '3', 'children': []}}"
"{'name': '西安交通大学口腔医院沣东口腔专科门诊部', 'location': {'lat': 34.261422, 'lng': 108.831308}, 'address': '西宝疏导线', 'province': '陕西省', 'city': '西安市', 'area': '未央区', 'detail': 1, 'uid': '601cae510335d8122bb97c9f', 'detail_info': {'tag': '医疗;其他', 'navi_location': {'lng': 108.83184759936, 'lat': 34.261343391791}, 'type': 'hospital', 'detail_url': 'http://api.map.baidu.com/place/detail?uid=601cae510335d8122bb97c9f&output=html&source=placeapi_v2', 'overall_rating': '0.0', 'image_num': '1', 'children': []}}"
"{'name': '周医生口腔门诊部', 'location': {'lat': 34.294266, 'lng': 108.84485}, 'address': '西安市未央区三桥新街与建章路交叉路口往西约100米(保利金香槟)', 'province': '陕西省', 'city': '西安市', 'area': '未央区', 'street_id': 'f9e7a8c3a721382cb5147f91', 'telephone': '(029)68868633', 'detail': 1, 'uid': 'f9e7a8c3a721382cb5147f91', 'detail_info': {'tag': '医疗;其他', 'navi_location': {'lng': 108.84492045708, 'lat': 34.294383613009}, 'type': 'hospital', 'detail_url': 'http://api.map.baidu.com/place/detail?uid=f9e7a8c3a721382cb5147f91&output=html&source=placeapi_v2', 'overall_rating': '5.0', 'image_num': '10', 'comment_num': '1', 'children': []}}"
"{'name': '简家村卫生室', 'location': {'lat': 34.265346, 'lng': 108.858037}, 'address': '陕西省西安市未央区吉瑞快捷酒店(红光路北)', 'province': '陕西省', 'city': '西安市', 'area': '未央区', 'detail': 1, 'uid': 'b36f524bf73a9783ae31e53f', 'detail_info': {'tag': '医疗;诊所', 'navi_location': {'lng': 108.85805176448, 'lat': 34.265214170279}, 'type': 'hospital', 'detail_url': 'http://api.map.baidu.com/place/detail?uid=b36f524bf73a9783ae31e53f&output=html&source=placeapi_v2', 'image_num': '5', 'children': []}}"
"{'name': '三桥驾驶员体检站', 'location': {'lat': 34.29141, 'lng': 108.821452}, 'address': '西安市未央区天台八路付一路与征和四路交叉路口东北侧(朱宏物流西南侧约100米)', 'province': '陕西省', 'city': '西安市', 'area': '未央区', 'detail': 1, 'uid': '1f924e57b1f539d317b54b9c', 'detail_info': {'tag': '医疗;体检机构', 'type': 'hospital', 'detail_url': 'http://api.map.baidu.com/place/detail?uid=1f924e57b1f539d317b54b9c&output=html&source=placeapi_v2', 'image_num': '1', 'children': []}}"
"{'name': '康悦口腔', 'location': {'lat': 34.291422, 'lng': 108.86639}, 'address': '枣园西路金色花语城2-40108号商铺', 'province': '陕西省', 'city': '西安市', 'area': '莲湖区', 'street_id': '53fdd5b648380a65095cb3a0', 'telephone': '(029)84357686', 'detail': 1, 'uid': '53fdd5b648380a65095cb3a0', 'detail_info': {'tag': '医疗;诊所', 'type': 'hospital', 'detail_url': 'http://api.map.baidu.com/place/detail?uid=53fdd5b648380a65095cb3a0&output=html&source=placeapi_v2', 'overall_rating': '5.0', 'image_num': '8', 'comment_num': '1', 'children': []}}"
"{'name': '泓森堂国医馆', 'location': {'lat': 34.257818, 'lng': 108.881419}, 'address': '陕西省西安市雁塔区昆明路230附近', 'province': '陕西省', 'city': '西安市', 'area': '雁塔区', 'detail': 1, 'uid': 'd98d776f5dd8601802897239', 'detail_info': {'tag': '医疗;其他', 'type': 'hospital', 'detail_url': 'http://api.map.baidu.com/place/detail?uid=d98d776f5dd8601802897239&output=html&source=placeapi_v2', 'image_num': '4', 'children': []}}"
"{'name': '沣东新城侯坚诊所', 'location': {'lat': 34.259352, 'lng': 108.823075}, 'address': '陕西省西安市未央区西环路2号', 'province': '陕西省', 'city': '西安市', 'area': '未央区', 'detail': 1, 'uid': '9023b995b056ad5588f15dd3', 'detail_info': {'tag': '医疗;诊所', 'type': 'hospital', 'detail_url': 'http://api.map.baidu.com/place/detail?uid=9023b995b056ad5588f15dd3&output=html&source=placeapi_v2', 'image_num': '1', 'children': []}}"
"{'name': '京华口腔(土门店)', 'location': {'lat': 34.264836, 'lng': 108.887882}, 'address': '西安市莲湖区丰镐西路186号隆基大厦1楼', 'province': '陕西省', 'city': '西安市', 'area': '莲湖区', 'telephone': '(029)84221559', 'detail': 1, 'uid': '4f6da9e74f5092217f29bd4b', 'detail_info': {'tag': '医疗;其他', 'type': 'hospital', 'detail_url': 'http://api.map.baidu.com/place/detail?uid=4f6da9e74f5092217f29bd4b&output=html&source=placeapi_v2', 'overall_rating': '0.0', 'image_num': '3', 'comment_num': '1', 'children': []}}"
"{'name': '三桥村卫生室(阿房四路店)', 'location': {'lat': 34.289029, 'lng': 108.8429}, 'address': '阿房四路9号', 'province': '陕西省', 'city': '西安市', 'area': '未央区', 'street_id': '27e4cb806cd09855c2f1cf87', 'detail': 1, 'uid': '27e4cb806cd09855c2f1cf87', 'detail_info': {'tag': '医疗;诊所', 'navi_location': {'lng': 108.84306093234, 'lat': 34.289078701311}, 'type': 'hospital', 'detail_url': 'http://api.map.baidu.com/place/detail?uid=27e4cb806cd09855c2f1cf87&output=html&source=placeapi_v2', 'overall_rating': '0.0', 'image_num': '12', 'comment_num': '1', 'children': []}}"
"{'name': '莲湖区枣园丰盛园-社区卫生站', 'location': {'lat': 34.282321, 'lng': 108.869512}, 'address': '陕西省西安市莲湖区枣园西路128号', 'province': '陕西省', 'city': '西安市', 'area': '莲湖区', 'street_id': '09185c562c5afc20f1193713', 'telephone': '(029)84319162', 'detail': 1, 'uid': '09185c562c5afc20f1193713', 'detail_info': {'tag': '医疗;诊所', 'type': 'hospital', 'detail_url': 'http://api.map.baidu.com/place/detail?uid=09185c562c5afc20f1193713&output=html&source=placeapi_v2', 'overall_rating': '0.0', 'image_num': '9', 'comment_num': '2', 'children': []}}"
"{'name': '康健诊所口腔', 'location': {'lat': 34.283356, 'lng': 108.894201}, 'address': '陕西省西安市莲湖区丰衍路', 'province': '陕西省', 'city': '西安市', 'area': '莲湖区', 'detail': 1, 'uid': '8562dfb4ca9bbdca0b69d9e9', 'detail_info': {'tag': '医疗;诊所', 'type': 'hospital', 'detail_url': 'http://api.map.baidu.com/place/detail?uid=8562dfb4ca9bbdca0b69d9e9&output=html&source=placeapi_v2', 'image_num': '4', 'children': []}}"
"{'name': '薛亚妹诊所', 'location': {'lat': 34.292906, 'lng': 108.843016}, 'address': '陕西省西安市未央区三桥路', 'province': '陕西省', 'city': '西安市', 'area': '未央区', 'detail': 1, 'uid': '5b987a376d2991e896ca0710', 'detail_info': {'tag': '医疗;诊所', 'type': 'hospital', 'detail_url': 'http://api.map.baidu.com/place/detail?uid=5b987a376d2991e896ca0710&output=html&source=placeapi_v2', 'image_num': '7', 'children': []}}"
"{'name': '西安北车医院-急诊科', 'location': {'lat': 34.306851, 'lng': 108.847761}, 'address': '建章路南段54号西安北车医院内', 'province': '陕西省', 'city': '西安市', 'area': '未央区', 'street_id': 'c30bfd662622b06aede4a5bb', 'detail': 1, 'uid': 'c30bfd662622b06aede4a5bb', 'detail_info': {'tag': '医疗;其他', 'navi_location': {'lng': 108.84790409889, 'lat': 34.306680330101}, 'type': 'hospital', 'detail_url': 'http://api.map.baidu.com/place/detail?uid=c30bfd662622b06aede4a5bb&output=html&source=placeapi_v2', 'image_num': '1', 'children': []}}"
"{'name': '京华口腔', 'location': {'lat': 34.297159, 'lng': 108.831965}, 'address': '陕西省西安市未央区征和六路', 'province': '陕西省', 'city': '西安市', 'area': '未央区', 'street_id': '1b702b678b028d22250bd056', 'telephone': '(029)89100512', 'detail': 1, 'uid': '1b702b678b028d22250bd056', 'detail_info': {'tag': '医疗;诊所', 'navi_location': {'lng': 108.83196646674, 'lat': 34.297303111924}, 'type': 'hospital', 'detail_url': 'http://api.map.baidu.com/place/detail?uid=1b702b678b028d22250bd056&output=html&source=placeapi_v2', 'image_num': '4', 'children': []}}"
"{'name': '三桥村卫生室(沁园花都东南)', 'location': {'lat': 34.297849, 'lng': 108.849583}, 'address': '西安市未央区西安高架快速干道与西三环交叉路口往西约100米(锦绣公园)', 'province': '陕西省', 'city': '西安市', 'area': '未央区', 'street_id': '71c226b017fca6654054d7ed', 'detail': 1, 'uid': '71c226b017fca6654054d7ed', 'detail_info': {'tag': '医疗;诊所', 'type': 'hospital', 'detail_url': 'http://api.map.baidu.com/place/detail?uid=71c226b017fca6654054d7ed&output=html&source=placeapi_v2', 'overall_rating': '0.0', 'image_num': '8', 'comment_num': '1', 'children': []}}"
"{'name': '西咸新区沣东新城张光明口腔诊所', 'location': {'lat': 34.298733, 'lng': 108.839461}, 'address': '陕西省西安市未央区三桥村老街', 'province': '陕西省', 'city': '西安市', 'area': '未央区', 'detail': 1, 'uid': '4d20623f559a512ec91b95a2', 'detail_info': {'tag': '医疗;诊所', 'type': 'hospital', 'detail_url': 'http://api.map.baidu.com/place/detail?uid=4d20623f559a512ec91b95a2&output=html&source=placeapi_v2', 'image_num': '8', 'children': []}}"
"{'name': '杨何村卫生室', 'location': {'lat': 34.28489, 'lng': 108.850257}, 'address': '武警路与阿房三路交叉口南100米', 'province': '陕西省', 'city': '西安市', 'area': '未央区', 'street_id': '07f3c8b519495d606240a938', 'detail': 1, 'uid': '07f3c8b519495d606240a938', 'detail_info': {'tag': '医疗;诊所', 'navi_location': {'lng': 108.85015424191, 'lat': 34.284974233847}, 'type': 'hospital', 'detail_url': 'http://api.map.baidu.com/place/detail?uid=07f3c8b519495d606240a938&output=html&source=placeapi_v2', 'overall_rating': '0.0', 'image_num': '9', 'comment_num': '1', 'children': []}}"
"{'name': '西安市五一村卫生所', 'location': {'lat': 34.308392, 'lng': 108.848581}, 'address': '陕西省西安市未央区建章路173号附近', 'province': '陕西省', 'city': '西安市', 'area': '未央区', 'street_id': 'ec9e18e3f0e45dbd50e5c546', 'telephone': '13119158727', 'detail': 1, 'uid': 'ec9e18e3f0e45dbd50e5c546', 'detail_info': {'tag': '医疗;诊所', 'type': 'hospital', 'detail_url': 'http://api.map.baidu.com/place/detail?uid=ec9e18e3f0e45dbd50e5c546&output=html&source=placeapi_v2', 'overall_rating': '0.0', 'image_num': '13', 'children': []}}"
"{'name': '东张村卫生室', 'location': {'lat': 34.293942, 'lng': 108.892693}, 'address': '陕西省西安市未央区沣景园小区B区附近', 'province': '陕西省', 'city': '西安市', 'area': '未央区', 'telephone': '13384936697', 'detail': 1, 'uid': '64c63168a2b3ade36f20b986', 'detail_info': {'tag': '医疗;诊所', 'navi_location': {'lng': 108.8928254128, 'lat': 34.293876262273}, 'type': 'hospital', 'detail_url': 'http://api.map.baidu.com/place/detail?uid=64c63168a2b3ade36f20b986&output=html&source=placeapi_v2', 'overall_rating': '0.0', 'image_num': '10', 'comment_num': '1', 'children': []}}"
"{'name': '治疗区', 'location': {'lat': 34.280231, 'lng': 108.873291}, 'address': '丰盛路东150米', 'province': '陕西省', 'city': '西安市', 'area': '莲湖区', 'street_id': '229773ba6af5180eafcb66fb', 'detail': 1, 'uid': '229773ba6af5180eafcb66fb', 'detail_info': {'tag': '医疗;其他', 'type': 'hospital', 'detail_url': 'http://api.map.baidu.com/place/detail?uid=229773ba6af5180eafcb66fb&output=html&source=placeapi_v2', 'image_num': '1', 'children': []}}"
"{'name': '法士特汽车传动集团有限责任公司-门诊部', 'location': {'lat': 34.278131, 'lng': 108.866206}, 'address': '枣园街道大庆路西段809号', 'province': '陕西省', 'city': '西安市', 'area': '莲湖区', 'street_id': '3def50126fe753e2f6c59c10', 'detail': 1, 'uid': '3def50126fe753e2f6c59c10', 'detail_info': {'tag': '医疗;其他', 'type': 'hospital', 'detail_url': 'http://api.map.baidu.com/place/detail?uid=3def50126fe753e2f6c59c10&output=html&source=placeapi_v2', 'overall_rating': '3.2', 'image_num': '1', 'children': []}}"
"{'name': '朱传信中医诊所', 'location': {'lat': 34.305709, 'lng': 108.850517}, 'address': '陕西省西安市未央区西三环西安车辆厂生活小区北50米', 'province': '陕西省', 'city': '西安市', 'area': '未央区', 'telephone': '15829936119', 'detail': 1, 'uid': 'da014ef6c90c722d940319ca', 'detail_info': {'tag': '医疗;诊所', 'type': 'hospital', 'detail_url': 'http://api.map.baidu.com/place/detail?uid=da014ef6c90c722d940319ca&output=html&source=placeapi_v2', 'overall_rating': '0.0', 'image_num': '6', 'comment_num': '1', 'children': []}}"
"{'name': '车张村卫生室', 'location': {'lat': 34.293182, 'lng': 108.829291}, 'address': '陕西省西安市未央区疏导路99号东北80米', 'province': '陕西省', 'city': '西安市', 'area': '未央区', 'detail': 1, 'uid': 'ef3a9f515752b7d617948e49', 'detail_info': {'tag': '医疗;诊所', 'type': 'hospital', 'detail_url': 'http://api.map.baidu.com/place/detail?uid=ef3a9f515752b7d617948e49&output=html&source=placeapi_v2', 'overall_rating': '5.0', 'image_num': '10', 'comment_num': '3', 'children': []}}"
"{'name': '西安市莲湖区进丰村卫生所', 'location': {'lat': 34.291109, 'lng': 108.880152}, 'address': '大兴西路辅路附近', 'province': '陕西省', 'city': '西安市', 'area': '莲湖区', 'street_id': '91c054e4bb78f538f4b91642', 'detail': 1, 'uid': '91c054e4bb78f538f4b91642', 'detail_info': {'tag': '医疗;诊所', 'type': 'hospital', 'detail_url': 'http://api.map.baidu.com/place/detail?uid=91c054e4bb78f538f4b91642&output=html&source=placeapi_v2', 'overall_rating': '0.0', 'image_num': '11', 'comment_num': '1', 'children': []}}"
"{'name': '西安莲湖天康诊所', 'location': {'lat': 34.292175, 'lng': 108.880269}, 'address': '西安市莲湖区大兴西路与邓六路交叉路口往西约100米(邓家村小学)', 'province': '陕西省', 'city': '西安市', 'area': '莲湖区', 'street_id': 'b848ec00753aa3b2af04574c', 'detail': 1, 'uid': 'b848ec00753aa3b2af04574c', 'detail_info': {'tag': '医疗;诊所', 'type': 'hospital', 'detail_url': 'http://api.map.baidu.com/place/detail?uid=b848ec00753aa3b2af04574c&output=html&source=placeapi_v2', 'overall_rating': '0.0', 'image_num': '16', 'children': []}}"
"{'name': '西安儿童李想疗法研究所', 'location': {'lat': 34.282382, 'lng': 108.869479}, 'address': '枣园西路128号', 'province': '陕西省', 'city': '西安市', 'area': '莲湖区', 'detail': 1, 'uid': '8c44970d29491a0aab0dd8b5', 'detail_info': {'tag': '医疗;其他', 'type': 'hospital', 'detail_url': 'http://api.map.baidu.com/place/detail?uid=8c44970d29491a0aab0dd8b5&output=html&source=placeapi_v2', 'image_num': '1', 'children': []}}"
"{'name': '妙手古法草药竹筒治风伤', 'location': {'lat': 34.279328, 'lng': 108.858469}, 'address': '陕西省西安市未央区阿房二路2号附近', 'province': '陕西省', 'city': '西安市', 'area': '未央区', 'telephone': '18091598372', 'detail': 1, 'uid': '8f7691bbd123256a1b11d5ea', 'detail_info': {'tag': '医疗', 'type': 'hospital', 'detail_url': 'http://api.map.baidu.com/place/detail?uid=8f7691bbd123256a1b11d5ea&output=html&source=placeapi_v2', 'image_num': '6', 'children': []}}"
"{'name': '康宝儿童健康调理中心', 'location': {'lat': 34.291012, 'lng': 108.89236}, 'address': '陕西省西安市莲湖区大兴西路', 'province': '陕西省', 'city': '西安市', 'area': '莲湖区', 'detail': 1, 'uid': '657a4b5b4d6a0d64fbf0cbbc', 'detail_info': {'tag': '医疗;诊所', 'type': 'hospital', 'detail_url': 'http://api.map.baidu.com/place/detail?uid=657a4b5b4d6a0d64fbf0cbbc&output=html&source=placeapi_v2', 'image_num': '6', 'children': []}}"
"{'name': '明镜堂眼视光中心', 'location': {'lat': 34.295031, 'lng': 108.837932}, 'address': '双拥路1号附近', 'province': '陕西省', 'city': '西安市', 'area': '未央区', 'telephone': '18092633816', 'detail': 1, 'uid': '1b2e31a6eecebcc01d1d11eb', 'detail_info': {'tag': '医疗', 'type': 'hospital', 'detail_url': 'http://api.map.baidu.com/place/detail?uid=1b2e31a6eecebcc01d1d11eb&output=html&source=placeapi_v2', 'image_num': '7', 'children': []}}"
"{'name': '西安未央汤庆生诊所', 'location': {'lat': 34.288982, 'lng': 108.852905}, 'address': '阿房四路8号', 'province': '陕西省', 'city': '西安市', 'area': '未央区', 'street_id': '8924cc05cd06762538e4a61c', 'detail': 1, 'uid': '8924cc05cd06762538e4a61c', 'detail_info': {'tag': '医疗;诊所', 'type': 'hospital', 'detail_url': 'http://api.map.baidu.com/place/detail?uid=8924cc05cd06762538e4a61c&output=html&source=placeapi_v2', 'overall_rating': '0.0', 'image_num': '11', 'comment_num': '1', 'children': []}}"
"{'name': '陕西璜珑医疗器械有限公司', 'location': {'lat': 34.275578, 'lng': 108.891806}, 'address': '西安市莲湖区大庆路579号-9幢', 'province': '陕西省', 'city': '西安市', 'area': '莲湖区', 'street_id': '91c13f93657cf5fa21f0173a', 'telephone': '(029)84619553', 'detail': 1, 'uid': '91c13f93657cf5fa21f0173a', 'detail_info': {'tag': '医疗;医疗器械', 'navi_location': {'lng': 108.89178933284, 'lat': 34.275391443771}, 'type': 'enterprise', 'detail_url': 'http://api.map.baidu.com/place/detail?uid=91c13f93657cf5fa21f0173a&output=html&source=placeapi_v2', 'overall_rating': '0.0', 'children': []}}"
"{'name': '普天医药医院药品区', 'location': {'lat': 34.27856, 'lng': 108.882238}, 'address': '大庆路付24号旁', 'province': '陕西省', 'city': '西安市', 'area': '莲湖区', 'street_id': '6b8342453586f7a884154124', 'detail': 1, 'uid': '6b8342453586f7a884154124', 'detail_info': {'tag': '医疗;药店', 'navi_location': {'lng': 108.88191734738, 'lat': 34.27805933469}, 'type': 'hospital', 'detail_url': 'http://api.map.baidu.com/place/detail?uid=6b8342453586f7a884154124&output=html&source=placeapi_v2', 'overall_rating': '0.0', 'image_num': '5', 'comment_num': '1', 'children': []}}"
"{'name': '橙昌医药', 'location': {'lat': 34.287164, 'lng': 108.8663}, 'address': '陕西省西安市莲湖区枣园西路220号', 'province': '陕西省', 'city': '西安市', 'area': '莲湖区', 'detail': 1, 'uid': '3a12e3e470973e21c17da235', 'detail_info': {'tag': '医疗;药店', 'type': 'hospital', 'detail_url': 'http://api.map.baidu.com/place/detail?uid=3a12e3e470973e21c17da235&output=html&source=placeapi_v2', 'image_num': '5', 'children': []}}"
"{'name': '华康医疗器械有限责任公司', 'location': {'lat': 34.288866, 'lng': 108.870594}, 'address': '枣园西路90号', 'province': '陕西省', 'city': '西安市', 'area': '莲湖区', 'street_id': 'c80910a2b7e2435e21f0171b', 'detail': 1, 'uid': 'c80910a2b7e2435e21f0171b', 'detail_info': {'tag': '医疗;医疗器械', 'type': 'enterprise', 'detail_url': 'http://api.map.baidu.com/place/detail?uid=c80910a2b7e2435e21f0171b&output=html&source=placeapi_v2', 'overall_rating': '0.0', 'children': []}}"
"{'name': '陕西曼伦医疗器械有限公司', 'location': {'lat': 34.277712, 'lng': 108.878642}, 'address': '西安市莲湖区枣园街道汉城北路23号', 'province': '陕西省', 'city': '西安市', 'area': '莲湖区', 'detail': 1, 'uid': '3fb092778f0669d0c27da266', 'detail_info': {'tag': '医疗;医疗器械', 'type': 'hospital', 'detail_url': 'http://api.map.baidu.com/place/detail?uid=3fb092778f0669d0c27da266&output=html&source=placeapi_v2', 'image_num': '1', 'children': []}}"
"{'name': '怡康医药超市', 'location': {'lat': 34.261601, 'lng': 108.831368}, 'address': '陕西省西安市未央区四号路9号北60米', 'province': '陕西省', 'city': '西安市', 'area': '未央区', 'detail': 1, 'uid': 'b40079f3c3762df4f119372e', 'detail_info': {'tag': '医疗;药店', 'type': 'hospital', 'detail_url': 'http://api.map.baidu.com/place/detail?uid=b40079f3c3762df4f119372e&output=html&source=placeapi_v2', 'image_num': '7', 'children': []}}"
"{'name': '陕西卓尔惠医疗器械有限公司', 'location': {'lat': 34.288023, 'lng': 108.864763}, 'address': '枣园西路玩过酒店用品市场5号楼1层', 'province': '陕西省', 'city': '西安市', 'area': '莲湖区', 'street_id': 'f7476e1fe3539be783288ade', 'detail': 1, 'uid': 'f7476e1fe3539be783288ade', 'detail_info': {'tag': '医疗;医疗器械', 'type': 'enterprise', 'detail_url': 'http://api.map.baidu.com/place/detail?uid=f7476e1fe3539be783288ade&output=html&source=placeapi_v2', 'overall_rating': '0.0', 'children': []}}"
"{'name': '泰生医药(西咸大道店)', 'location': {'lat': 34.307955, 'lng': 108.819175}, 'address': '陕西省西安市未央区启航时代广场', 'province': '陕西省', 'city': '西安市', 'area': '未央区', 'street_id': 'bdf08924618bdf8fb5147fe8', 'telephone': '(029)89307605', 'detail': 1, 'uid': 'bdf08924618bdf8fb5147fe8', 'detail_info': {'tag': '医疗;药店', 'type': 'hospital', 'detail_url': 'http://api.map.baidu.com/place/detail?uid=bdf08924618bdf8fb5147fe8&output=html&source=placeapi_v2', 'price': '0.0', 'overall_rating': '0.0', 'image_num': '7', 'comment_num': '2', 'children': []}}"
"{'name': '泰生医药(阿房四路药店)', 'location': {'lat': 34.289148, 'lng': 108.854245}, 'address': '陕西省西安市未央区阿房四路3号附近', 'province': '陕西省', 'city': '西安市', 'area': '未央区', 'telephone': '(029)84529745', 'detail': 1, 'uid': 'c65294330af63adc3ce23105', 'detail_info': {'tag': '医疗;药店', 'type': 'hospital', 'detail_url': 'http://api.map.baidu.com/place/detail?uid=c65294330af63adc3ce23105&output=html&source=placeapi_v2', 'image_num': '8', 'children': []}}"
"{'name': '秦唐大药房(西安武警路店)', 'location': {'lat': 34.294464, 'lng': 108.838534}, 'address': '三桥武警路167号', 'province': '陕西省', 'city': '西安市', 'area': '未央区', 'street_id': 'fd007c5eff9b9411a8f7290f', 'telephone': '(029)84530980', 'detail': 1, 'uid': 'fd007c5eff9b9411a8f7290f', 'detail_info': {'tag': '医疗;药店', 'navi_location': {'lng': 108.83827328198, 'lat': 34.29455851248}, 'type': 'hospital', 'detail_url': 'http://api.map.baidu.com/place/detail?uid=fd007c5eff9b9411a8f7290f&output=html&source=placeapi_v2', 'overall_rating': '0.0', 'image_num': '14', 'comment_num': '1', 'children': []}}"
"{'name': '怡康医药超市(三桥老街店)', 'location': {'lat': 34.299229, 'lng': 108.839388}, 'address': '沣东新城三桥老街163号由南向北第四间门面房', 'province': '陕西省', 'city': '西安市', 'area': '未央区', 'telephone': '(029)84527203', 'detail': 1, 'uid': '2c9418128d2fe4a9f219374f', 'detail_info': {'tag': '医疗;药店', 'type': 'hospital', 'detail_url': 'http://api.map.baidu.com/place/detail?uid=2c9418128d2fe4a9f219374f&output=html&source=placeapi_v2', 'image_num': '5', 'children': []}}"
"{'name': '陕西光辉医疗器械保健品有限公司', 'location': {'lat': 34.287094, 'lng': 108.867245}, 'address': '西安市莲湖区枣园西路219号', 'province': '陕西省', 'city': '西安市', 'area': '莲湖区', 'street_id': 'ae1690fd2d8d469fcb213d0a', 'telephone': '(029)84616759,15109292963', 'detail': 1, 'uid': 'ae1690fd2d8d469fcb213d0a', 'detail_info': {'tag': '医疗;医疗器械', 'navi_location': {'lng': 108.86717356954, 'lat': 34.287132013201}, 'type': 'enterprise', 'detail_url': 'http://api.map.baidu.com/place/detail?uid=ae1690fd2d8d469fcb213d0a&output=html&source=placeapi_v2', 'overall_rating': '0.0', 'children': []}}"
"{'name': '妙应堂大药房(西咸路店)', 'location': {'lat': 34.30845, 'lng': 108.810049}, 'address': '世纪大道新店小区东门向里40米附近', 'province': '陕西省', 'city': '西安市', 'area': '未央区', 'telephone': '(029)89102689', 'detail': 1, 'uid': '45288f259d191ef84e2fdf28', 'detail_info': {'tag': '医疗;药店', 'type': 'hospital', 'detail_url': 'http://api.map.baidu.com/place/detail?uid=45288f259d191ef84e2fdf28&output=html&source=placeapi_v2', 'image_num': '5', 'children': []}}"
"{'name': '怡康医药超市', 'location': {'lat': 34.291936, 'lng': 108.863821}, 'address': '西安市莲湖区立信路与崇智路交叉路口东北侧(万科金色悦城)', 'province': '陕西省', 'city': '西安市', 'area': '莲湖区', 'street_id': '78e86af125e58e21e215f972', 'detail': 1, 'uid': '78e86af125e58e21e215f972', 'detail_info': {'tag': '医疗;药店', 'type': 'hospital', 'detail_url': 'http://api.map.baidu.com/place/detail?uid=78e86af125e58e21e215f972&output=html&source=placeapi_v2', 'image_num': '6', 'children': []}}"
"{'name': '怡康医药超市', 'location': {'lat': 34.304611, 'lng': 108.828886}, 'address': '陕西省西安市未央区后卫寨立交', 'province': '陕西省', 'city': '西安市', 'area': '未央区', 'detail': 1, 'uid': 'd313382008d77d3a343a7158', 'detail_info': {'tag': '医疗;药店', 'type': 'hospital', 'detail_url': 'http://api.map.baidu.com/place/detail?uid=d313382008d77d3a343a7158&output=html&source=placeapi_v2', 'image_num': '2', 'children': []}}"
"{'name': '好了笑大药房', 'location': {'lat': 34.280341, 'lng': 108.830341}, 'address': '天台五路1号联森医药隔壁', 'province': '陕西省', 'city': '西安市', 'area': '未央区', 'street_id': 'd139f0b6dd57888f5fbe86da', 'telephone': '18009289513', 'detail': 1, 'uid': 'd139f0b6dd57888f5fbe86da', 'detail_info': {'tag': '医疗;药店', 'type': 'hospital', 'detail_url': 'http://api.map.baidu.com/place/detail?uid=d139f0b6dd57888f5fbe86da&output=html&source=placeapi_v2', 'image_num': '4', 'children': []}}"
"{'name': '西安泰生医药连锁有限公司', 'location': {'lat': 34.284923, 'lng': 108.871504}, 'address': '陕西省西安市莲湖区枣园北路7号', 'province': '陕西省', 'city': '西安市', 'area': '莲湖区', 'street_id': '8d9b916745792d20b5f42f2e', 'detail': 1, 'uid': '8d9b916745792d20b5f42f2e', 'detail_info': {'tag': '医疗;药店', 'navi_location': {'lng': 108.87215120434, 'lat': 34.284680137916}, 'type': 'hospital', 'detail_url': 'http://api.map.baidu.com/place/detail?uid=8d9b916745792d20b5f42f2e&output=html&source=placeapi_v2', 'overall_rating': '5.0', 'image_num': '3', 'comment_num': '2', 'children': []}}"
"{'name': '怡康医药超市(建章路一店)', 'location': {'lat': 34.309736, 'lng': 108.848551}, 'address': '沣东新城建章路83号1楼83-1号(北至南第一间)', 'province': '陕西省', 'city': '西安市', 'area': '未央区', 'street_id': '5ff686f5aa646a9fc056ac76', 'detail': 1, 'uid': '5ff686f5aa646a9fc056ac76', 'detail_info': {'tag': '医疗;药店', 'type': 'hospital', 'detail_url': 'http://api.map.baidu.com/place/detail?uid=5ff686f5aa646a9fc056ac76&output=html&source=placeapi_v2', 'price': '0.0', 'overall_rating': '0.0', 'image_num': '13', 'comment_num': '1', 'children': []}}"
"{'name': '普生堂大药房(第九分公司)', 'location': {'lat': 34.279118, 'lng': 108.857569}, 'address': '陕西省西安市未央区阿房二路2号西南80米', 'province': '陕西省', 'city': '西安市', 'area': '未央区', 'telephone': '(029)89105561', 'detail': 1, 'uid': 'afef6f6ed4d19359c17da2e6', 'detail_info': {'tag': '医疗;药店', 'type': 'hospital', 'detail_url': 'http://api.map.baidu.com/place/detail?uid=afef6f6ed4d19359c17da2e6&output=html&source=placeapi_v2', 'image_num': '2', 'children': []}}"
"{'name': '群康平价大药房(蔺家村店)', 'location': {'lat': 34.284462, 'lng': 108.841331}, 'address': '陕西省西安市未央区武警路', 'province': '陕西省', 'city': '西安市', 'area': '未央区', 'street_id': '626395c09e486b52c9c3db08', 'detail': 1, 'uid': '626395c09e486b52c9c3db08', 'detail_info': {'tag': '医疗;药店', 'navi_location': {'lng': 108.84129534187, 'lat': 34.284346138604}, 'type': 'hospital', 'detail_url': 'http://api.map.baidu.com/place/detail?uid=626395c09e486b52c9c3db08&output=html&source=placeapi_v2', 'image_num': '10', 'children': []}}"
"{'name': '华康医药(一分店)', 'location': {'lat': 34.295993, 'lng': 108.829147}, 'address': '陕西省西安市未央区征和六路', 'province': '陕西省', 'city': '西安市', 'area': '未央区', 'detail': 1, 'uid': 'e47013cd77cd98dd82a12e86', 'detail_info': {'tag': '医疗;药店', 'type': 'hospital', 'detail_url': 'http://api.map.baidu.com/place/detail?uid=e47013cd77cd98dd82a12e86&output=html&source=placeapi_v2', 'image_num': '2', 'children': []}}"
"{'name': '兴旺大药房', 'location': {'lat': 34.283491, 'lng': 108.824291}, 'address': '天台七路与天台六路交叉口西50米', 'province': '陕西省', 'city': '西安市', 'area': '未央区', 'street_id': 'f97c81b597885cdea2a934f7', 'detail': 1, 'uid': 'f97c81b597885cdea2a934f7', 'detail_info': {'tag': '医疗;药店', 'type': 'hospital', 'detail_url': 'http://api.map.baidu.com/place/detail?uid=f97c81b597885cdea2a934f7&output=html&source=placeapi_v2', 'image_num': '5', 'children': []}}"
"{'name': '合心堂大药房', 'location': {'lat': 34.288656, 'lng': 108.844849}, 'address': '陕西省西安市未央区阿房四路9号附近', 'province': '陕西省', 'city': '西安市', 'area': '未央区', 'detail': 1, 'uid': '224fada43e4b7f78c7f025c4', 'detail_info': {'tag': '医疗;药店', 'type': 'hospital', 'detail_url': 'http://api.map.baidu.com/place/detail?uid=224fada43e4b7f78c7f025c4&output=html&source=placeapi_v2', 'image_num': '10', 'children': []}}"
"{'name': '广济大药房(枣园东路店)', 'location': {'lat': 34.280026, 'lng': 108.879811}, 'address': '枣园东路92号新都市酒店一楼', 'province': '陕西省', 'city': '西安市', 'area': '莲湖区', 'street_id': '3a009399530b08be223bf2ee', 'telephone': '(029)84214681', 'detail': 1, 'uid': '3a009399530b08be223bf2ee', 'detail_info': {'tag': '医疗;药店', 'type': 'hospital', 'detail_url': 'http://api.map.baidu.com/place/detail?uid=3a009399530b08be223bf2ee&output=html&source=placeapi_v2', 'overall_rating': '5.0', 'image_num': '9', 'comment_num': '1', 'children': []}}"
"{'name': '同一医药', 'location': {'lat': 34.297938, 'lng': 108.848748}, 'address': '三桥立交与西安高架快速干道交叉口北50米', 'province': '陕西省', 'city': '西安市', 'area': '未央区', 'detail': 1, 'uid': 'b75affe41ffbb22cabf0cd0f', 'detail_info': {'tag': '医疗;药店', 'type': 'hospital', 'detail_url': 'http://api.map.baidu.com/place/detail?uid=b75affe41ffbb22cabf0cd0f&output=html&source=placeapi_v2', 'image_num': '4', 'children': []}}"
"{'name': '西安药善堂医药', 'location': {'lat': 34.296495, 'lng': 108.839888}, 'address': '陕西省西安市沣东新城拥军路天玺国际一层', 'province': '陕西省', 'city': '西安市', 'area': '未央区', 'street_id': '5f096408dd6fffc4eb12e408', 'telephone': '(029)68892577', 'detail': 1, 'uid': '5f096408dd6fffc4eb12e408', 'detail_info': {'tag': '医疗;药店', 'type': 'hospital', 'detail_url': 'http://api.map.baidu.com/place/detail?uid=5f096408dd6fffc4eb12e408&output=html&source=placeapi_v2', 'overall_rating': '0.0', 'image_num': '6', 'comment_num': '1', 'children': []}}"
"{'name': '书香大药房(枣园西路店)', 'location': {'lat': 34.283875, 'lng': 108.86914}, 'address': '西安市莲湖区枣园西路128号', 'province': '陕西省', 'city': '西安市', 'area': '莲湖区', 'street_id': '3dc9befd64029968bea2400e', 'telephone': '(029)84357355', 'detail': 1, 'uid': '3dc9befd64029968bea2400e', 'detail_info': {'tag': '医疗;药店', 'type': 'hospital', 'detail_url': 'http://api.map.baidu.com/place/detail?uid=3dc9befd64029968bea2400e&output=html&source=placeapi_v2', 'overall_rating': '0.0', 'image_num': '14', 'comment_num': '1', 'children': []}}"
"{'name': '丰阳大药房', 'location': {'lat': 34.279484, 'lng': 108.854308}, 'address': '陕西省西安市未央区阿房二路警苑小区大门东侧', 'province': '陕西省', 'city': '西安市', 'area': '未央区', 'street_id': 'aa1ac0a0174cf474774ff1b2', 'telephone': '(029)82050876', 'detail': 1, 'uid': 'aa1ac0a0174cf474774ff1b2', 'detail_info': {'tag': '医疗;药店', 'type': 'hospital', 'detail_url': 'http://api.map.baidu.com/place/detail?uid=aa1ac0a0174cf474774ff1b2&output=html&source=placeapi_v2', 'overall_rating': '0.0', 'image_num': '17', 'children': []}}"
"{'name': '广仁堂医药', 'location': {'lat': 34.308577, 'lng': 108.82991}, 'address': '陕西省西安市未央区天章大道', 'province': '陕西省', 'city': '西安市', 'area': '未央区', 'detail': 1, 'uid': 'bca0b6b68b413ac6f7b91684', 'detail_info': {'tag': '医疗;药店', 'type': 'hospital', 'detail_url': 'http://api.map.baidu.com/place/detail?uid=bca0b6b68b413ac6f7b91684&output=html&source=placeapi_v2', 'image_num': '3', 'children': []}}"
"{'name': '妙应堂大药房(车辆厂花园店)', 'location': {'lat': 34.30543, 'lng': 108.848081}, 'address': '西安市车辆中学向北55米路西', 'province': '陕西省', 'city': '西安市', 'area': '未央区', 'street_id': '72755d7f06b14401a2d23059', 'telephone': '(029)89142662', 'detail': 1, 'uid': '72755d7f06b14401a2d23059', 'detail_info': {'tag': '医疗;药店', 'navi_location': {'lng': 108.84827466159, 'lat': 34.305429606917}, 'type': 'hospital', 'detail_url': 'http://api.map.baidu.com/place/detail?uid=72755d7f06b14401a2d23059&output=html&source=placeapi_v2', 'overall_rating': '0.0', 'image_num': '15', 'comment_num': '2', 'children': []}}"
"{'name': '药房蔺高连锁', 'location': {'lat': 34.28143, 'lng': 108.838399}, 'address': '西安市未央区水厂东路与南区路交叉路口往北约50米(蔺高新花园东北侧约50米)', 'province': '陕西省', 'city': '西安市', 'area': '未央区', 'detail': 1, 'uid': '9a18860c900a4fde3b221c6f', 'detail_info': {'tag': '医疗;药店', 'type': 'hospital', 'detail_url': 'http://api.map.baidu.com/place/detail?uid=9a18860c900a4fde3b221c6f&output=html&source=placeapi_v2', 'image_num': '2', 'children': []}}"
"{'name': '陕西广渤医疗器械有限公司', 'location': {'lat': 34.286918, 'lng': 108.866745}, 'address': '陕西省西安市莲湖区枣园西路220号', 'province': '陕西省', 'city': '西安市', 'area': '莲湖区', 'street_id': '990c07b2af4e948c8f55ec9c', 'telephone': '(029)84590088,13619280347', 'detail': 1, 'uid': '990c07b2af4e948c8f55ec9c', 'detail_info': {'tag': '医疗;医疗器械', 'type': 'enterprise', 'detail_url': 'http://api.map.baidu.com/place/detail?uid=990c07b2af4e948c8f55ec9c&output=html&source=placeapi_v2', 'overall_rating': '0.0', 'children': []}}"
"{'name': '泰生医药(康益店)', 'location': {'lat': 34.281378, 'lng': 108.853724}, 'address': '陕西省西安市西咸新区沣东新城三桥镇南何村小区98号', 'province': '陕西省', 'city': '西安市', 'area': '未央区', 'street_id': 'c56c514988dd197996ca07c0', 'telephone': '(029)84521815', 'detail': 1, 'uid': 'c56c514988dd197996ca07c0', 'detail_info': {'tag': '医疗;药店', 'type': 'hospital', 'detail_url': 'http://api.map.baidu.com/place/detail?uid=c56c514988dd197996ca07c0&output=html&source=placeapi_v2', 'image_num': '8', 'children': []}}"
"{'name': '仁安医药(双拥路店)', 'location': {'lat': 34.29257, 'lng': 108.838112}, 'address': '西安市未央区时代华城7号楼15号商铺', 'province': '陕西省', 'city': '西安市', 'area': '未央区', 'street_id': 'b8740e61eda0daaf9e82ea95', 'detail': 1, 'uid': 'b8740e61eda0daaf9e82ea95', 'detail_info': {'tag': '医疗;药店', 'navi_location': {'lng': 108.83827156172, 'lat': 34.292634584031}, 'type': 'hospital', 'detail_url': 'http://api.map.baidu.com/place/detail?uid=b8740e61eda0daaf9e82ea95&output=html&source=placeapi_v2', 'image_num': '12', 'children': []}}"
"{'name': '大齐兴药店', 'location': {'lat': 34.292138, 'lng': 108.881123}, 'address': '西安市莲湖区大兴西路与邓六路交叉路口西南侧(邓家村小学东侧)', 'province': '陕西省', 'city': '西安市', 'area': '莲湖区', 'street_id': 'cec0141ac4ff43389122e0dc', 'detail': 1, 'uid': 'cec0141ac4ff43389122e0dc', 'detail_info': {'tag': '医疗;药店', 'navi_location': {'lng': 108.8811832638, 'lat': 34.292129972286}, 'type': 'hospital', 'detail_url': 'http://api.map.baidu.com/place/detail?uid=cec0141ac4ff43389122e0dc&output=html&source=placeapi_v2', 'overall_rating': '1.0', 'image_num': '21', 'comment_num': '2', 'children': []}}"
"{'name': '泰生医药(世辉店)', 'location': {'lat': 34.301532, 'lng': 108.837698}, 'address': '西咸新区沣东新城高小村西安平义商贸有限责任公司2号门面', 'province': '陕西省', 'city': '西安市', 'area': '未央区', 'street_id': 'aed5ad41e49b76bd81288a08', 'telephone': '13772437658', 'detail': 1, 'uid': 'aed5ad41e49b76bd81288a08', 'detail_info': {'tag': '医疗;药店', 'type': 'hospital', 'detail_url': 'http://api.map.baidu.com/place/detail?uid=aed5ad41e49b76bd81288a08&output=html&source=placeapi_v2', 'image_num': '7', 'children': []}}"
"{'name': '鸿康大药房', 'location': {'lat': 34.283412, 'lng': 108.892937}, 'address': '丰收路双府世家花园42栋1层10号', 'province': '陕西省', 'city': '西安市', 'area': '莲湖区', 'detail': 1, 'uid': '700cc6064fb261d89fec2b70', 'detail_info': {'tag': '医疗;药店', 'type': 'hospital', 'detail_url': 'http://api.map.baidu.com/place/detail?uid=700cc6064fb261d89fec2b70&output=html&source=placeapi_v2', 'image_num': '2', 'children': []}}"
"{'name': '广仁堂医药', 'location': {'lat': 34.301375, 'lng': 108.83821}, 'address': '陕西省西安市未央区枫桥名邸(西安高架快速干道北)', 'province': '陕西省', 'city': '西安市', 'area': '未央区', 'street_id': 'd34ebdba3011d59c744ff173', 'telephone': '18629597289', 'detail': 1, 'uid': 'd34ebdba3011d59c744ff173', 'detail_info': {'tag': '医疗;药店', 'type': 'hospital', 'detail_url': 'http://api.map.baidu.com/place/detail?uid=d34ebdba3011d59c744ff173&output=html&source=placeapi_v2', 'image_num': '6', 'children': []}}"
"{'name': '怡康医药超市(枣园西路三店)', 'location': {'lat': 34.28419, 'lng': 108.869154}, 'address': '枣园西路160号爱菊佳园小区B座一层2-3号门面房一间', 'province': '陕西省', 'city': '西安市', 'area': '莲湖区', 'street_id': '10bd2a9d0b4852a345e274d3', 'telephone': '(029)84117796', 'detail': 1, 'uid': '10bd2a9d0b4852a345e274d3', 'detail_info': {'tag': '医疗;药店', 'navi_location': {'lng': 108.86886872054, 'lat': 34.284319311832}, 'type': 'hospital', 'detail_url': 'http://api.map.baidu.com/place/detail?uid=10bd2a9d0b4852a345e274d3&output=html&source=placeapi_v2', 'price': '0.0', 'overall_rating': '0.0', 'image_num': '11', 'children': []}}"
"{'name': '泰生医药(康杰店)', 'location': {'lat': 34.312789, 'lng': 108.848577}, 'address': '孙武路与建章路交汇向北140米', 'province': '陕西省', 'city': '西安市', 'area': '未央区', 'street_id': '0c403915888778bf725e8006', 'telephone': '(029)88628870', 'detail': 1, 'uid': '0c403915888778bf725e8006', 'detail_info': {'tag': '医疗;药店', 'type': 'hospital', 'detail_url': 'http://api.map.baidu.com/place/detail?uid=0c403915888778bf725e8006&output=html&source=placeapi_v2', 'overall_rating': '0.0', 'image_num': '12', 'children': []}}"
"{'name': '康益寿药房', 'location': {'lat': 34.303627, 'lng': 108.849951}, 'address': '陕西省西安市未央区花园东街', 'province': '陕西省', 'city': '西安市', 'area': '未央区', 'detail': 1, 'uid': '90684fa32126cfb0246e9810', 'detail_info': {'tag': '医疗;药店', 'type': 'hospital', 'detail_url': 'http://api.map.baidu.com/place/detail?uid=90684fa32126cfb0246e9810&output=html&source=placeapi_v2', 'image_num': '3', 'children': []}}"
"{'name': '合心堂大药房', 'location': {'lat': 34.285844, 'lng': 108.87789}, 'address': '西安市莲湖区汉城北路166号汉都故里', 'province': '陕西省', 'city': '西安市', 'area': '莲湖区', 'detail': 1, 'uid': 'df99f6d59105ec0bcac3db90', 'detail_info': {'tag': '医疗;药店', 'type': 'hospital', 'detail_url': 'http://api.map.baidu.com/place/detail?uid=df99f6d59105ec0bcac3db90&output=html&source=placeapi_v2', 'image_num': '3', 'children': []}}"
"{'name': '怡康医药', 'location': {'lat': 34.27844, 'lng': 108.882174}, 'address': '枣园东路城西客运站西侧商用楼一层', 'province': '陕西省', 'city': '西安市', 'area': '莲湖区', 'detail': 1, 'uid': 'cb03a4df44b455898bf15df3', 'detail_info': {'tag': '医疗;药店', 'type': 'hospital', 'detail_url': 'http://api.map.baidu.com/place/detail?uid=cb03a4df44b455898bf15df3&output=html&source=placeapi_v2', 'image_num': '4', 'children': []}}"
"{'name': '妙应堂大药房(拥军路店)', 'location': {'lat': 34.29899, 'lng': 108.838714},