"{'name': '甜橙金融', 'location': {'lat': 34.229711, 'lng': 108.887231}, 'address': '西安市雁塔区西安软件园太白阁501', 'province': '陕西省', 'city': '西安市', 'area': '雁塔区', 'street_id': 'b54910d7f5e0254aae080fa2', 'detail': 1, 'uid': 'b54910d7f5e0254aae080fa2', 'detail_info': {'tag': '金融;投资理财', 'type': 'life', 'detail_url': 'http://api.map.baidu.com/place/detail?uid=b54910d7f5e0254aae080fa2&output=html&source=placeapi_v2', 'overall_rating': '5.0', 'image_num': '2', 'comment_num': '1', 'children': []}}"
"{'name': '西安市交通事故快速理赔服务中心(新同方服务点)', 'location': {'lat': 34.243461, 'lng': 108.834442}, 'address': '陕西省西安市雁塔区富鱼路鱼化工业园甲字8号', 'province': '陕西省', 'city': '西安市', 'area': '雁塔区', 'street_id': '66fe19669f3ee18d6cc02c02', 'telephone': '(029)88236222', 'detail': 1, 'uid': '66fe19669f3ee18d6cc02c02', 'detail_info': {'tag': '金融;投资理财', 'navi_location': {'lng': 108.83416810934, 'lat': 34.243166638086}, 'type': 'life', 'detail_url': 'http://api.map.baidu.com/place/detail?uid=66fe19669f3ee18d6cc02c02&output=html&source=placeapi_v2', 'image_num': '2', 'children': []}}"
"{'name': '西安天安人寿中心', 'location': {'lat': 34.200222, 'lng': 108.886019}, 'address': '陕西省西安市雁塔区丈八二路与锦业路交叉口西北角', 'province': '陕西省', 'city': '西安市', 'area': '雁塔区', 'detail': 1, 'uid': '9bd85792dd87cecd9703197f', 'detail_info': {'tag': '金融;投资理财', 'type': 'life', 'detail_url': 'http://api.map.baidu.com/place/detail?uid=9bd85792dd87cecd9703197f&output=html&source=placeapi_v2', 'image_num': '1', 'children': []}}"
"{'name': '北京银行(西安分行)', 'location': {'lat': 34.230893, 'lng': 108.892825}, 'address': '陕西省西安市雁塔区沣惠南路16号', 'province': '陕西省', 'city': '西安市', 'area': '雁塔区', 'street_id': '3ba4417632d7e1940482c216', 'telephone': '(029)61828888', 'detail': 1, 'uid': '3ba4417632d7e1940482c216', 'detail_info': {'tag': '金融;银行', 'navi_location': {'lng': 108.89293300465, 'lat': 34.231044276381}, 'type': 'life', 'detail_url': 'http://api.map.baidu.com/place/detail?uid=3ba4417632d7e1940482c216&output=html&source=placeapi_v2', 'overall_rating': '3.8', 'image_num': '1', 'comment_num': '13', 'children': []}}"
"{'name': '招商银行(科技路支行)', 'location': {'lat': 34.242418, 'lng': 108.893497}, 'address': '陕西省西安市高新区沣惠南路2号', 'province': '陕西省', 'city': '西安市', 'area': '雁塔区', 'street_id': '5a09cca9f70fca9017c8f63c', 'telephone': '(029)88391378', 'detail': 1, 'uid': '5a09cca9f70fca9017c8f63c', 'detail_info': {'tag': '金融;银行', 'navi_location': {'lng': 108.8934833084, 'lat': 34.242575022415}, 'type': 'life', 'detail_url': 'http://api.map.baidu.com/place/detail?uid=5a09cca9f70fca9017c8f63c&output=html&source=placeapi_v2', 'overall_rating': '3.6', 'image_num': '12', 'comment_num': '25', 'children': []}}"
"{'name': '中国民生银行(锦业路支行)', 'location': {'lat': 34.202379, 'lng': 108.890749}, 'address': '西安市丈八一路绿地SOHOB座一层', 'province': '陕西省', 'city': '西安市', 'area': '雁塔区', 'street_id': 'e4c849dccfcfd7330f0e6beb', 'telephone': '(029)61814533', 'detail': 1, 'uid': 'e4c849dccfcfd7330f0e6beb', 'detail_info': {'tag': '金融;银行', 'navi_location': {'lng': 108.89090960742, 'lat': 34.202358073961}, 'type': 'life', 'detail_url': 'http://api.map.baidu.com/place/detail?uid=e4c849dccfcfd7330f0e6beb&output=html&source=placeapi_v2', 'overall_rating': '1.9', 'image_num': '13', 'comment_num': '12', 'children': []}}"
"{'name': '中国平安财产保险股份有限公司(陕西分公司)', 'location': {'lat': 34.2006, 'lng': 108.887169}, 'address': '丈八二路与锦业路交汇处西安绿地中心A座19-21层', 'province': '陕西省', 'city': '西安市', 'area': '雁塔区', 'street_id': '74165d32fdb015d4f7b916be', 'detail': 1, 'uid': '74165d32fdb015d4f7b916be', 'detail_info': {'tag': '金融;投资理财', 'type': 'life', 'detail_url': 'http://api.map.baidu.com/place/detail?uid=74165d32fdb015d4f7b916be&output=html&source=placeapi_v2', 'image_num': '1', 'children': []}}"
"{'name': '华泰证券西北分公司', 'location': {'lat': 34.233967, 'lng': 108.884931}, 'address': '陕西省西安市雁塔区科技一路万象汇3号楼14层', 'province': '陕西省', 'city': '西安市', 'area': '雁塔区', 'detail': 1, 'uid': '6a4625a4de22895b46572631', 'detail_info': {'tag': '金融;投资理财', 'type': 'life', 'detail_url': 'http://api.map.baidu.com/place/detail?uid=6a4625a4de22895b46572631&output=html&source=placeapi_v2', 'overall_rating': '0.0', 'image_num': '2', 'comment_num': '2', 'children': []}}"
"{'name': '交通银行(陕西自贸试验区西安锦业路支行)', 'location': {'lat': 34.19919, 'lng': 108.880286}, 'address': '陕西省西安市雁塔区粤汉国际锦业路38号', 'province': '陕西省', 'city': '西安市', 'area': '雁塔区', 'street_id': 'c08ddc1e63cc483397031984', 'telephone': '(029)88323795,(029)88323991', 'detail': 1, 'uid': 'c08ddc1e63cc483397031984', 'detail_info': {'tag': '金融;银行', 'navi_location': {'lng': 108.88012592048, 'lat': 34.19930940409}, 'type': 'life', 'detail_url': 'http://api.map.baidu.com/place/detail?uid=c08ddc1e63cc483397031984&output=html&source=placeapi_v2', 'overall_rating': '3.0', 'image_num': '9', 'comment_num': '4', 'children': []}}"
"{'name': '中国建设银行(西安高新自贸区支行)', 'location': {'lat': 34.200186, 'lng': 108.882627}, 'address': '丈八三路与锦业路交叉十字路口东北角', 'province': '陕西省', 'city': '西安市', 'area': '雁塔区', 'street_id': 'bccd6e6dce9f2f2607026fc9', 'telephone': '(029)68250596', 'detail': 1, 'uid': 'bccd6e6dce9f2f2607026fc9', 'detail_info': {'tag': '金融;银行', 'navi_location': {'lng': 108.88261911982, 'lat': 34.199830577087}, 'type': 'life', 'detail_url': 'http://api.map.baidu.com/place/detail?uid=bccd6e6dce9f2f2607026fc9&output=html&source=placeapi_v2', 'overall_rating': '3.6', 'image_num': '5', 'comment_num': '11', 'children': []}}"
"{'name': '中国工商银行(西安沣惠南路支行)', 'location': {'lat': 34.227565, 'lng': 108.893724}, 'address': '陕西省西安市雁塔区沣惠南路22号华晶广场A座10101、10203室', 'province': '陕西省', 'city': '西安市', 'area': '雁塔区', 'telephone': '(029)81298720', 'detail': 1, 'uid': 'e4a46396feb107bb2cb17e54', 'detail_info': {'tag': '金融;银行', 'navi_location': {'lng': 108.89419194838, 'lat': 34.228422977369}, 'type': 'life', 'detail_url': 'http://api.map.baidu.com/place/detail?uid=e4a46396feb107bb2cb17e54&output=html&source=placeapi_v2', 'overall_rating': '3.5', 'image_num': '1', 'comment_num': '3', 'children': []}}"
"{'name': '中国农业银行(丈八北路分理处)', 'location': {'lat': 34.248131, 'lng': 108.879091}, 'address': '陕西省西安市雁塔区丈八北路9号院农行丈八北路分理处(南风大厦)', 'province': '陕西省', 'city': '西安市', 'area': '雁塔区', 'street_id': '7fd72311aa72fa9f5cbe8643', 'telephone': '(029)84241593', 'detail': 1, 'uid': '7fd72311aa72fa9f5cbe8643', 'detail_info': {'tag': '金融;银行', 'navi_location': {'lng': 108.87884678464, 'lat': 34.248123296907}, 'type': 'life', 'detail_url': 'http://api.map.baidu.com/place/detail?uid=7fd72311aa72fa9f5cbe8643&output=html&source=placeapi_v2', 'overall_rating': '3.0', 'image_num': '14', 'comment_num': '15', 'children': []}}"
"{'name': '中国邮政储蓄银行(西安市高新支行)', 'location': {'lat': 34.202183, 'lng': 108.89054}, 'address': '陕西省西安市雁塔区丈八一路绿地SOHOB座', 'province': '陕西省', 'city': '西安市', 'area': '雁塔区', 'street_id': '2b4e6f3ca58ea54700ff2d81', 'telephone': '(029)65691368', 'detail': 1, 'uid': '2b4e6f3ca58ea54700ff2d81', 'detail_info': {'tag': '金融;银行', 'navi_location': {'lng': 108.89044553561, 'lat': 34.202122841493}, 'type': 'life', 'detail_url': 'http://api.map.baidu.com/place/detail?uid=2b4e6f3ca58ea54700ff2d81&output=html&source=placeapi_v2', 'overall_rating': '2.3', 'image_num': '3', 'comment_num': '7', 'children': []}}"
"{'name': '中国农业银行(西安丈八四路分理处)', 'location': {'lat': 34.207866, 'lng': 108.875403}, 'address': '陕西省西安市雁塔区丈八四路6号缤纷南郡10幢4单元', 'province': '陕西省', 'city': '西安市', 'area': '雁塔区', 'street_id': 'ebbb6659fc046a376e3e1b05', 'telephone': '(029)81102511', 'detail': 1, 'uid': '0d3c37559c78cf7ad12dd676', 'detail_info': {'tag': '金融;银行', 'navi_location': {'lng': 108.87570162841, 'lat': 34.207923244558}, 'type': 'life', 'detail_url': 'http://api.map.baidu.com/place/detail?uid=0d3c37559c78cf7ad12dd676&output=html&source=placeapi_v2', 'overall_rating': '1.8', 'image_num': '9', 'comment_num': '14', 'children': []}}"
"{'name': '渤海银行(西安分行营业部)', 'location': {'lat': 34.199315, 'lng': 108.881563}, 'address': '西安市雁塔区锦业路36号', 'province': '陕西省', 'city': '西安市', 'area': '雁塔区', 'street_id': '713cb6814e01c759354aaeab', 'telephone': '(029)65620800', 'detail': 1, 'uid': '713cb6814e01c759354aaeab', 'detail_info': {'tag': '金融;银行', 'navi_location': {'lng': 108.88182158802, 'lat': 34.19925451082}, 'type': 'life', 'detail_url': 'http://api.map.baidu.com/place/detail?uid=713cb6814e01c759354aaeab&output=html&source=placeapi_v2', 'overall_rating': '0.0', 'image_num': '16', 'comment_num': '1', 'children': []}}"
"{'name': '鼎和财产保险股份有限公司(陕西分公司)', 'location': {'lat': 34.220793, 'lng': 108.891645}, 'address': '西安市高新区沣惠南路34号摩尔中心B座4层', 'province': '陕西省', 'city': '西安市', 'area': '雁塔区', 'street_id': '10b5b1a2af4ce2d1bca8229a', 'detail': 1, 'uid': '10b5b1a2af4ce2d1bca8229a', 'detail_info': {'tag': '金融;投资理财', 'type': 'life', 'detail_url': 'http://api.map.baidu.com/place/detail?uid=10b5b1a2af4ce2d1bca8229a&output=html&source=placeapi_v2', 'overall_rating': '1.0', 'image_num': '1', 'comment_num': '1', 'children': []}}"
"{'name': '西安银行(科技路西段支行)', 'location': {'lat': 34.242944, 'lng': 108.885014}, 'address': '西安市雁塔区科技路西段70号梧桐朗座1楼', 'province': '陕西省', 'city': '西安市', 'area': '雁塔区', 'street_id': 'd1469ee758df3f1f84330434', 'telephone': '(029)62886872', 'detail': 1, 'uid': 'd1469ee758df3f1f84330434', 'detail_info': {'tag': '金融;银行', 'navi_location': {'lng': 108.88499965367, 'lat': 34.243072948576}, 'type': 'life', 'detail_url': 'http://api.map.baidu.com/place/detail?uid=d1469ee758df3f1f84330434&output=html&source=placeapi_v2', 'overall_rating': '2.0', 'image_num': '7', 'comment_num': '7', 'children': []}}"
"{'name': '中国邮政储蓄银行(丈八北路支行)', 'location': {'lat': 34.245321, 'lng': 108.879215}, 'address': '西安市雁塔区丈八北路489号', 'province': '陕西省', 'city': '西安市', 'area': '雁塔区', 'street_id': 'da8dbf338c959afa6ca3cc2e', 'detail': 1, 'uid': 'da8dbf338c959afa6ca3cc2e', 'detail_info': {'tag': '金融;银行', 'navi_location': {'lng': 108.87902948651, 'lat': 34.245046659421}, 'type': 'life', 'detail_url': 'http://api.map.baidu.com/place/detail?uid=da8dbf338c959afa6ca3cc2e&output=html&source=placeapi_v2', 'overall_rating': '3.7', 'image_num': '7', 'comment_num': '7', 'children': []}}"
"{'name': '中国工商银行(西安锦业路支行)', 'location': {'lat': 34.201061, 'lng': 108.893793}, 'address': '西安市雁塔区高新区锦业路1号都市之门B座1层', 'province': '陕西省', 'city': '西安市', 'area': '雁塔区', 'detail': 1, 'uid': '87494218450a26d7cae33c22', 'detail_info': {'tag': '金融;银行', 'type': 'life', 'detail_url': 'http://api.map.baidu.com/place/detail?uid=87494218450a26d7cae33c22&output=html&source=placeapi_v2', 'overall_rating': '2.9', 'image_num': '1', 'comment_num': '7', 'children': []}}"
"{'name': '华鑫证券(大寨路营业部)', 'location': {'lat': 34.25053, 'lng': 108.892405}, 'address': '大寨路中华世纪城小区F6号楼一二层', 'province': '陕西省', 'city': '西安市', 'area': '雁塔区', 'street_id': '46a4cbe82290959dc9e33c23', 'telephone': '(029)88354131', 'detail': 1, 'uid': '46a4cbe82290959dc9e33c23', 'detail_info': {'tag': '金融;投资理财', 'type': 'life', 'detail_url': 'http://api.map.baidu.com/place/detail?uid=46a4cbe82290959dc9e33c23&output=html&source=placeapi_v2', 'overall_rating': '0.0', 'image_num': '5', 'children': []}}"
"{'name': '长安银行(西安高新科技支行)', 'location': {'lat': 34.200271, 'lng': 108.866513}, 'address': '西安市高新区锦业路69号创业研发园C区A101室', 'province': '陕西省', 'city': '西安市', 'area': '雁塔区', 'street_id': '2ea1505dcf95f5a5bfa8225d', 'telephone': '(029)89199869', 'detail': 1, 'uid': '2ea1505dcf95f5a5bfa8225d', 'detail_info': {'tag': '金融;银行', 'navi_location': {'lng': 108.86650982417, 'lat': 34.200142313963}, 'type': 'life', 'detail_url': 'http://api.map.baidu.com/place/detail?uid=2ea1505dcf95f5a5bfa8225d&output=html&source=placeapi_v2', 'overall_rating': '4.0', 'image_num': '6', 'comment_num': '3', 'children': []}}"
"{'name': '西安银行(高新科技支行)', 'location': {'lat': 34.217958, 'lng': 108.894219}, 'address': '陕西省西安市雁塔区科技六路15号', 'province': '陕西省', 'city': '西安市', 'area': '雁塔区', 'street_id': '4859a115b3c5f4e825d2bb8f', 'telephone': '(029)88341925', 'detail': 1, 'uid': '4859a115b3c5f4e825d2bb8f', 'detail_info': {'tag': '金融;银行', 'navi_location': {'lng': 108.8942593689, 'lat': 34.217974741057}, 'type': 'life', 'detail_url': 'http://api.map.baidu.com/place/detail?uid=4859a115b3c5f4e825d2bb8f&output=html&source=placeapi_v2', 'overall_rating': '5.0', 'image_num': '5', 'comment_num': '3', 'children': []}}"
"{'name': '中国民生银行(西安分行营业部)', 'location': {'lat': 34.229982, 'lng': 108.89424}, 'address': '陕西省西安市雁塔区沣惠南路16号泰华金贸5号楼1楼', 'province': '陕西省', 'city': '西安市', 'area': '雁塔区', 'street_id': 'a39355cbd44b523a4f3a5914', 'telephone': '(029)61813027,(029)61812929', 'detail': 1, 'uid': 'a39355cbd44b523a4f3a5914', 'detail_info': {'tag': '金融;银行', 'navi_location': {'lng': 108.8945269301, 'lat': 34.229600193844}, 'type': 'life', 'detail_url': 'http://api.map.baidu.com/place/detail?uid=a39355cbd44b523a4f3a5914&output=html&source=placeapi_v2', 'overall_rating': '3.1', 'image_num': '6', 'comment_num': '17', 'children': []}}"
"{'name': '中国银行', 'location': {'lat': 34.243555, 'lng': 108.883692}, 'address': '陕西省西安市雁塔区高新六路北口北90米', 'province': '陕西省', 'city': '西安市', 'area': '雁塔区', 'detail': 1, 'uid': '411a8a2b2d01d39c4302453e', 'detail_info': {'tag': '金融;银行', 'type': 'life', 'detail_url': 'http://api.map.baidu.com/place/detail?uid=411a8a2b2d01d39c4302453e&output=html&source=placeapi_v2', 'overall_rating': '4.7', 'image_num': '3', 'comment_num': '9', 'children': []}}"
"{'name': '浙商银行(西安分行营业部)', 'location': {'lat': 34.230688, 'lng': 108.894094}, 'address': '西安市雁塔区沣惠南路16号泰华金贸国际', 'province': '陕西省', 'city': '西安市', 'area': '雁塔区', 'street_id': '68f67af3e3678d73f8dc8553', 'telephone': '(029)61830730', 'detail': 1, 'uid': '68f67af3e3678d73f8dc8553', 'detail_info': {'tag': '金融;银行', 'navi_location': {'lng': 108.89442889353, 'lat': 34.230539274272}, 'type': 'life', 'detail_url': 'http://api.map.baidu.com/place/detail?uid=68f67af3e3678d73f8dc8553&output=html&source=placeapi_v2', 'overall_rating': '3.8', 'image_num': '14', 'comment_num': '15', 'children': []}}"
"{'name': '湘财证券(沣惠南路营业部)', 'location': {'lat': 34.229236, 'lng': 108.894129}, 'address': '沣慧南路18号唐沣国际广场B座4楼', 'province': '陕西省', 'city': '西安市', 'area': '雁塔区', 'street_id': 'bbed68ef5aac6e6681288a9f', 'telephone': '(029)87201111', 'detail': 1, 'uid': 'bbed68ef5aac6e6681288a9f', 'detail_info': {'tag': '金融;投资理财', 'type': 'life', 'detail_url': 'http://api.map.baidu.com/place/detail?uid=bbed68ef5aac6e6681288a9f&output=html&source=placeapi_v2', 'overall_rating': '0.0', 'image_num': '7', 'comment_num': '2', 'children': []}}"
"{'name': '中国银行', 'location': {'lat': 34.217294, 'lng': 108.843964}, 'address': '云水一路与天谷七路交叉口东南150米西安环普科技产业园G1座附近', 'province': '陕西省', 'city': '西安市', 'area': '雁塔区', 'detail': 1, 'uid': '3ffa8a384107c0b8c909f061', 'detail_info': {'tag': '金融;银行', 'navi_location': {'lng': 108.84335132847, 'lat': 34.217352787127}, 'type': 'life', 'detail_url': 'http://api.map.baidu.com/place/detail?uid=3ffa8a384107c0b8c909f061&output=html&source=placeapi_v2', 'overall_rating': '1.0', 'image_num': '3', 'comment_num': '4', 'children': []}}"
"{'name': '小微金融服务中心', 'location': {'lat': 34.200198, 'lng': 108.892063}, 'address': '雁塔区电子城街道办公室地址陕西省西安市高新区丈八一路3号旺都国际b座', 'province': '陕西省', 'city': '西安市', 'area': '雁塔区', 'detail': 1, 'uid': '42f17495645846c117948ed9', 'detail_info': {'tag': '金融;投资理财', 'type': 'life', 'detail_url': 'http://api.map.baidu.com/place/detail?uid=42f17495645846c117948ed9&output=html&source=placeapi_v2', 'image_num': '1', 'children': []}}"
"{'name': '瑞泰人寿保险有限公司陕西分公司', 'location': {'lat': 34.218004, 'lng': 108.886448}, 'address': '科技六路31号华鼎国际1号楼902室', 'province': '陕西省', 'city': '西安市', 'area': '雁塔区', 'detail': 1, 'uid': '31e2c969a07277ace812e4fe', 'detail_info': {'tag': '金融;投资理财', 'type': 'life', 'detail_url': 'http://api.map.baidu.com/place/detail?uid=31e2c969a07277ace812e4fe&output=html&source=placeapi_v2', 'image_num': '1', 'children': []}}"
"{'name': '中国建设银行(西安科技二路支行)', 'location': {'lat': 34.231736, 'lng': 108.887015}, 'address': '西安市雁塔区科技二路孙思邈健康园国医馆一层', 'province': '陕西省', 'city': '西安市', 'area': '雁塔区', 'detail': 1, 'uid': '34bd8f0611da34c0f7eafce9', 'detail_info': {'tag': '金融;银行', 'navi_location': {'lng': 108.88701301475, 'lat': 34.23171308477}, 'type': 'life', 'detail_url': 'http://api.map.baidu.com/place/detail?uid=34bd8f0611da34c0f7eafce9&output=html&source=placeapi_v2', 'overall_rating': '4.6', 'image_num': '2', 'comment_num': '11', 'children': []}}"
"{'name': '中国工商银行(绿地世纪城支行)', 'location': {'lat': 34.200421, 'lng': 108.881796}, 'address': '丈八三路6号45幢1单元10101室', 'province': '陕西省', 'city': '西安市', 'area': '雁塔区', 'street_id': '8c08c091164a081d740269c2', 'telephone': '(029)81100031', 'detail': 1, 'uid': '8c08c091164a081d740269c2', 'detail_info': {'tag': '金融;银行', 'navi_location': {'lng': 108.8820347083, 'lat': 34.200338369214}, 'type': 'life', 'detail_url': 'http://api.map.baidu.com/place/detail?uid=8c08c091164a081d740269c2&output=html&source=placeapi_v2', 'overall_rating': '3.8', 'image_num': '13', 'comment_num': '11', 'children': []}}"
"{'name': '微贷网(陕西分公司)', 'location': {'lat': 34.227636, 'lng': 108.893833}, 'address': '陕西省西安市雁塔区丈八沟街道沣惠南路华晶广场b座', 'province': '陕西省', 'city': '西安市', 'area': '雁塔区', 'detail': 1, 'uid': 'a68cd6b3030b080c581093c4', 'detail_info': {'tag': '金融;投资理财', 'type': 'life', 'detail_url': 'http://api.map.baidu.com/place/detail?uid=a68cd6b3030b080c581093c4&output=html&source=placeapi_v2', 'image_num': '1', 'children': []}}"
"{'name': '韩亚银行(西安分行)', 'location': {'lat': 34.199283, 'lng': 108.879856}, 'address': '锦业路38号粤汉国际d座1楼', 'province': '陕西省', 'city': '西安市', 'area': '雁塔区', 'street_id': '9ce3add0087aff4042d63e86', 'telephone': '(029)81771111', 'detail': 1, 'uid': '9ce3add0087aff4042d63e86', 'detail_info': {'tag': '金融;银行', 'navi_location': {'lng': 108.87986056283, 'lat': 34.199480069154}, 'type': 'life', 'detail_url': 'http://api.map.baidu.com/place/detail?uid=9ce3add0087aff4042d63e86&output=html&source=placeapi_v2', 'overall_rating': '4.1', 'image_num': '14', 'comment_num': '7', 'children': []}}"
"{'name': '北京银行(西安丈八北路支行)', 'location': {'lat': 34.239035, 'lng': 108.879542}, 'address': '陕西省西安市雁塔区唐兴路21号', 'province': '陕西省', 'city': '西安市', 'area': '雁塔区', 'street_id': '6091f68641c30f0d354aaee4', 'telephone': '(029)68237522', 'detail': 1, 'uid': '6091f68641c30f0d354aaee4', 'detail_info': {'tag': '金融;银行', 'navi_location': {'lng': 108.87927855608, 'lat': 34.238946177223}, 'type': 'life', 'detail_url': 'http://api.map.baidu.com/place/detail?uid=6091f68641c30f0d354aaee4&output=html&source=placeapi_v2', 'overall_rating': '4.6', 'image_num': '7', 'comment_num': '6', 'children': []}}"
"{'name': '招商银行(陕西自贸试验区西安高新科技支行(原高新科技支行))', 'location': {'lat': 34.203507, 'lng': 108.891771}, 'address': '陕西省西安市雁塔区丈八一路1号体育训练中心南门对面汇鑫IBC-A座1层', 'province': '陕西省', 'city': '西安市', 'area': '雁塔区', 'street_id': '40c452b906142635343a7108', 'telephone': '(029)88825530,(029)88825382', 'detail': 1, 'uid': '40c452b906142635343a7108', 'detail_info': {'tag': '金融;银行', 'navi_location': {'lng': 108.89176716579, 'lat': 34.203640033919}, 'type': 'life', 'detail_url': 'http://api.map.baidu.com/place/detail?uid=40c452b906142635343a7108&output=html&source=placeapi_v2', 'overall_rating': '3.9', 'image_num': '17', 'comment_num': '15', 'children': []}}"
"{'name': '招商银行(西安绿地世纪城社区支行)', 'location': {'lat': 34.200319, 'lng': 108.880293}, 'address': '陕西省西安市雁塔区丈八三路绿地世纪城仕嘉公寓A区44号楼底商', 'province': '陕西省', 'city': '西安市', 'area': '雁塔区', 'street_id': '8087546179853669c91b95bf', 'telephone': '(029)68250532', 'detail': 1, 'uid': '8087546179853669c91b95bf', 'detail_info': {'tag': '金融;银行', 'navi_location': {'lng': 108.88023012841, 'lat': 34.200136096696}, 'type': 'life', 'detail_url': 'http://api.map.baidu.com/place/detail?uid=8087546179853669c91b95bf&output=html&source=placeapi_v2', 'overall_rating': '3.4', 'image_num': '8', 'comment_num': '9', 'children': []}}"
"{'name': '中融典当(大寨路)', 'location': {'lat': 34.251301, 'lng': 108.884962}, 'address': '西安市雁塔区响塘村路与大寨路交叉口北50米', 'province': '陕西省', 'city': '西安市', 'area': '雁塔区', 'detail': 1, 'uid': '7b3d92bc23c69bd56b49f3c0', 'detail_info': {'tag': '金融;典当行', 'type': 'life', 'detail_url': 'http://api.map.baidu.com/place/detail?uid=7b3d92bc23c69bd56b49f3c0&output=html&source=placeapi_v2', 'image_num': '1', 'children': []}}"
"{'name': '中国光大银行(丈八东路支行)', 'location': {'lat': 34.203523, 'lng': 108.892285}, 'address': '陕西省西安市雁塔区丈八东路汇鑫ibc-b座一楼', 'province': '陕西省', 'city': '西安市', 'area': '雁塔区', 'street_id': '4063503d6692643488db73a8', 'telephone': '(029)81026900', 'detail': 1, 'uid': '4063503d6692643488db73a8', 'detail_info': {'tag': '金融;银行', 'navi_location': {'lng': 108.89215373001, 'lat': 34.204146633282}, 'type': 'life', 'detail_url': 'http://api.map.baidu.com/place/detail?uid=4063503d6692643488db73a8&output=html&source=placeapi_v2', 'overall_rating': '4.6', 'image_num': '9', 'comment_num': '8', 'children': []}}"
"{'name': '西安银行(西安锦业路支行)', 'location': {'lat': 34.200864, 'lng': 108.875581}, 'address': '西安市高新区丈八四路20号5号楼一层', 'province': '陕西省', 'city': '西安市', 'area': '雁塔区', 'detail': 1, 'uid': 'd7cf34a3f66fd2b5a3acc405', 'detail_info': {'tag': '金融;银行', 'navi_location': {'lng': 108.87543738735, 'lat': 34.200989460545}, 'type': 'life', 'detail_url': 'http://api.map.baidu.com/place/detail?uid=d7cf34a3f66fd2b5a3acc405&output=html&source=placeapi_v2', 'overall_rating': '3.6', 'image_num': '3', 'comment_num': '8', 'children': []}}"
"{'name': '永诚财产保险股份有限公司(陕西分公司)', 'location': {'lat': 34.200428, 'lng': 108.874367}, 'address': '西安市雁塔区丈八沟街道丈八四路20号神州数码科技园4号楼6层', 'province': '陕西省', 'city': '西安市', 'area': '雁塔区', 'detail': 1, 'uid': '0e03f56665f4d7006fc02c2e', 'detail_info': {'tag': '金融;投资理财', 'type': 'life', 'detail_url': 'http://api.map.baidu.com/place/detail?uid=0e03f56665f4d7006fc02c2e&output=html&source=placeapi_v2', 'image_num': '1', 'children': []}}"
"{'name': '中国银行(西安锦业路支行)', 'location': {'lat': 34.201036, 'lng': 108.881732}, 'address': '西安市雁塔区锦业路1号', 'province': '陕西省', 'city': '西安市', 'area': '雁塔区', 'street_id': 'fbf67f15468409a3a8f0cd01', 'telephone': '(029)68591398', 'detail': 1, 'uid': 'fbf67f15468409a3a8f0cd01', 'detail_info': {'tag': '金融;银行', 'navi_location': {'lng': 108.88203835632, 'lat': 34.200995518386}, 'type': 'life', 'detail_url': 'http://api.map.baidu.com/place/detail?uid=fbf67f15468409a3a8f0cd01&output=html&source=placeapi_v2', 'overall_rating': '3.3', 'image_num': '22', 'comment_num': '20', 'children': []}}"
"{'name': '交通银行(西安大寨路支行)', 'location': {'lat': 34.251312, 'lng': 108.891709}, 'address': '陕西省西安市雁塔区大寨路1号', 'province': '陕西省', 'city': '西安市', 'area': '雁塔区', 'street_id': '61fa1e2fb52b235ce115f900', 'telephone': '(029)68942201,(029)68942210', 'detail': 1, 'uid': '61fa1e2fb52b235ce115f900', 'detail_info': {'tag': '金融;银行', 'navi_location': {'lng': 108.89175462275, 'lat': 34.250981225306}, 'type': 'life', 'detail_url': 'http://api.map.baidu.com/place/detail?uid=61fa1e2fb52b235ce115f900&output=html&source=placeapi_v2', 'overall_rating': '3.0', 'image_num': '12', 'comment_num': '5', 'children': []}}"
"{'name': '华夏银行(西安锦业路支行)', 'location': {'lat': 34.199378, 'lng': 108.879474}, 'address': '锦业路38号粤汉国际C座1层', 'province': '陕西省', 'city': '西安市', 'area': '雁塔区', 'street_id': 'd34fa16bed756848b05c6a76', 'telephone': '95577,(029)88749625,(029)88749701', 'detail': 1, 'uid': 'd34fa16bed756848b05c6a76', 'detail_info': {'tag': '金融;银行', 'navi_location': {'lng': 108.87968967368, 'lat': 34.199493937396}, 'type': 'life', 'detail_url': 'http://api.map.baidu.com/place/detail?uid=d34fa16bed756848b05c6a76&output=html&source=placeapi_v2', 'overall_rating': '4.2', 'image_num': '12', 'comment_num': '6', 'children': []}}"
"{'name': '中信银行(沣惠路支行)', 'location': {'lat': 34.229366, 'lng': 108.894239}, 'address': '雁塔区沣惠南路18号', 'province': '陕西省', 'city': '西安市', 'area': '雁塔区', 'street_id': '905fd97ebae516522cb96ddf', 'telephone': '95558,(029)89182657,(029)89181642', 'detail': 1, 'uid': '905fd97ebae516522cb96ddf', 'detail_info': {'tag': '金融;银行', 'navi_location': {'lng': 108.89442151395, 'lat': 34.22935023392}, 'type': 'life', 'detail_url': 'http://api.map.baidu.com/place/detail?uid=905fd97ebae516522cb96ddf&output=html&source=placeapi_v2', 'overall_rating': '3.0', 'image_num': '5', 'comment_num': '11', 'children': []}}"
"{'name': '平安银行(西安丈八北路支行)', 'location': {'lat': 34.242899, 'lng': 108.878272}, 'address': '陕西省西安市雁塔区丈八北路380号', 'province': '陕西省', 'city': '西安市', 'area': '雁塔区', 'street_id': 'ebbd1eaf4d3b1270c92915cd', 'telephone': '(029)89635506', 'detail': 1, 'uid': 'ebbd1eaf4d3b1270c92915cd', 'detail_info': {'tag': '金融;银行', 'navi_location': {'lng': 108.87702647363, 'lat': 34.243159964084}, 'type': 'life', 'detail_url': 'http://api.map.baidu.com/place/detail?uid=ebbd1eaf4d3b1270c92915cd&output=html&source=placeapi_v2', 'overall_rating': '4.4', 'image_num': '15', 'comment_num': '6', 'children': []}}"
"{'name': '中国民生银行(西安科技路支行)', 'location': {'lat': 34.242984, 'lng': 108.882109}, 'address': '西安市高新科技路76号唐南香榭商业楼一层', 'province': '陕西省', 'city': '西安市', 'area': '雁塔区', 'street_id': '3020e86e34c041cf3062124c', 'telephone': '(029)61814499', 'detail': 1, 'uid': '3020e86e34c041cf3062124c', 'detail_info': {'tag': '金融;银行', 'navi_location': {'lng': 108.88212633996, 'lat': 34.243050557241}, 'type': 'life', 'detail_url': 'http://api.map.baidu.com/place/detail?uid=3020e86e34c041cf3062124c&output=html&source=placeapi_v2', 'overall_rating': '3.3', 'image_num': '8', 'comment_num': '5', 'children': []}}"
"{'name': '中国建设银行(西安锦业一路支行)', 'location': {'lat': 34.19694, 'lng': 108.892037}, 'address': '锦业一路2号', 'province': '陕西省', 'city': '西安市', 'area': '雁塔区', 'street_id': '11484c6841de7b2d72455b73', 'telephone': '(029)89286206', 'detail': 1, 'uid': '11484c6841de7b2d72455b73', 'detail_info': {'tag': '金融;银行', 'navi_location': {'lng': 108.89204036295, 'lat': 34.197309325793}, 'type': 'life', 'detail_url': 'http://api.map.baidu.com/place/detail?uid=11484c6841de7b2d72455b73&output=html&source=placeapi_v2', 'overall_rating': '3.7', 'image_num': '7', 'comment_num': '5', 'children': []}}"
"{'name': '中国工商银行(西安丈八北路储蓄所)', 'location': {'lat': 34.225367, 'lng': 108.880305}, 'address': '西安市雁塔区丈八沟街道丈八北路229号九鼎城一楼', 'province': '陕西省', 'city': '西安市', 'area': '雁塔区', 'street_id': '719cb01371f1fdfee8e5824e', 'detail': 1, 'uid': '719cb01371f1fdfee8e5824e', 'detail_info': {'tag': '金融;银行', 'navi_location': {'lng': 108.88026722933, 'lat': 34.225505757415}, 'type': 'life', 'detail_url': 'http://api.map.baidu.com/place/detail?uid=719cb01371f1fdfee8e5824e&output=html&source=placeapi_v2', 'overall_rating': '4.0', 'image_num': '6', 'comment_num': '4', 'children': []}}"
"{'name': '兴业银行(西安丈八北路支行)', 'location': {'lat': 34.236468, 'lng': 108.878791}, 'address': '陕西省西安市雁塔区丈八北路256号', 'province': '陕西省', 'city': '西安市', 'area': '雁塔区', 'street_id': 'fc0ddd79cdbd6187c42ba194', 'telephone': '(029)65651707', 'detail': 1, 'uid': 'fc0ddd79cdbd6187c42ba194', 'detail_info': {'tag': '金融;银行', 'navi_location': {'lng': 108.87900253734, 'lat': 34.236660840378}, 'type': 'life', 'detail_url': 'http://api.map.baidu.com/place/detail?uid=fc0ddd79cdbd6187c42ba194&output=html&source=placeapi_v2', 'overall_rating': '4.2', 'image_num': '7', 'comment_num': '5', 'children': []}}"
"{'name': '中国光大银行(西安丈八北路支行)', 'location': {'lat': 34.237799, 'lng': 108.879654}, 'address': '高新区丈八北路与唐兴路交汇处东南角利君明天1栋一号楼1层10113号', 'province': '陕西省', 'city': '西安市', 'area': '雁塔区', 'street_id': '138210074a6b585e10293539', 'telephone': '(029)81873708', 'detail': 1, 'uid': '138210074a6b585e10293539', 'detail_info': {'tag': '金融;银行', 'navi_location': {'lng': 108.8795481214, 'lat': 34.237828690146}, 'type': 'life', 'detail_url': 'http://api.map.baidu.com/place/detail?uid=138210074a6b585e10293539&output=html&source=placeapi_v2', 'overall_rating': '3.4', 'image_num': '17', 'comment_num': '7', 'children': []}}"
"{'name': '华夏银行(西安高新技术开发区支行)', 'location': {'lat': 34.250123, 'lng': 108.888852}, 'address': '大寨路与团结南路交叉口东南角', 'province': '陕西省', 'city': '西安市', 'area': '雁塔区', 'street_id': '96d2a8e7563cfa36f9dc85e6', 'detail': 1, 'uid': '96d2a8e7563cfa36f9dc85e6', 'detail_info': {'tag': '金融;银行', 'navi_location': {'lng': 108.88845984924, 'lat': 34.250135007009}, 'type': 'life', 'detail_url': 'http://api.map.baidu.com/place/detail?uid=96d2a8e7563cfa36f9dc85e6&output=html&source=placeapi_v2', 'overall_rating': '4.2', 'image_num': '5', 'comment_num': '5', 'children': []}}"
"{'name': '永安期货股份有限公司(西安分公司)', 'location': {'lat': 34.230304, 'lng': 108.894301}, 'address': '陕西省西安市高新区沣惠南路16号泰华金贸国际6号楼中电彩虹大厦2302', 'province': '陕西省', 'city': '西安市', 'area': '雁塔区', 'detail': 1, 'uid': 'f8dbf645e7835b332ee67ba1', 'detail_info': {'tag': '金融;投资理财', 'type': 'life', 'detail_url': 'http://api.map.baidu.com/place/detail?uid=f8dbf645e7835b332ee67ba1&output=html&source=placeapi_v2', 'overall_rating': '5.0', 'image_num': '3', 'comment_num': '2', 'children': []}}"
"{'name': '中国工商银行(西安团结南路支行)', 'location': {'lat': 34.245273, 'lng': 108.888658}, 'address': '西安市团结南路中华世纪城社区第11幢1单元1层10109号', 'province': '陕西省', 'city': '西安市', 'area': '雁塔区', 'street_id': '5e39dbf8ae90ca4d21022019', 'telephone': '(029)84677164', 'detail': 1, 'uid': '5e39dbf8ae90ca4d21022019', 'detail_info': {'tag': '金融;银行', 'navi_location': {'lng': 108.8885138904, 'lat': 34.245268187825}, 'type': 'life', 'detail_url': 'http://api.map.baidu.com/place/detail?uid=5e39dbf8ae90ca4d21022019&output=html&source=placeapi_v2', 'overall_rating': '3.0', 'image_num': '6', 'comment_num': '3', 'children': []}}"
"{'name': '上海浦东发展银行(西安高新科技支行)', 'location': {'lat': 34.244426, 'lng': 108.888756}, 'address': '陕西省西安市雁塔区科技路239号中华世纪城一期C8楼', 'province': '陕西省', 'city': '西安市', 'area': '雁塔区', 'street_id': '40723616832ca85d9c82ea4a', 'detail': 1, 'uid': '40723616832ca85d9c82ea4a', 'detail_info': {'tag': '金融;银行', 'navi_location': {'lng': 108.88848815754, 'lat': 34.244428668855}, 'type': 'life', 'detail_url': 'http://api.map.baidu.com/place/detail?uid=40723616832ca85d9c82ea4a&output=html&source=placeapi_v2', 'overall_rating': '1.0', 'image_num': '14', 'comment_num': '7', 'children': []}}"
"{'name': '西安德鸿财行投资管理有限公司', 'location': {'lat': 34.201489, 'lng': 108.893807}, 'address': '陕西省西安市雁塔区锦业路1号', 'province': '陕西省', 'city': '西安市', 'area': '雁塔区', 'detail': 1, 'uid': '223eeb7ce536e35e336212cf', 'detail_info': {'tag': '金融;投资理财', 'type': 'life', 'detail_url': 'http://api.map.baidu.com/place/detail?uid=223eeb7ce536e35e336212cf&output=html&source=placeapi_v2', 'overall_rating': '5.0', 'image_num': '1', 'comment_num': '2', 'children': []}}"
"{'name': '阳光保险集团财产保险', 'location': {'lat': 34.227896, 'lng': 108.87813}, 'address': '丈八北路80号', 'province': '陕西省', 'city': '西安市', 'area': '雁塔区', 'detail': 1, 'uid': 'ab1a4a161fc2399f5bf6be40', 'detail_info': {'tag': '金融;投资理财', 'type': 'life', 'detail_url': 'http://api.map.baidu.com/place/detail?uid=ab1a4a161fc2399f5bf6be40&output=html&source=placeapi_v2', 'image_num': '1', 'children': []}}"
"{'name': '中国银行(西安锦业二路支行)', 'location': {'lat': 34.188391, 'lng': 108.865039}, 'address': '西安市雁塔区锦业二路86号', 'province': '陕西省', 'city': '西安市', 'area': '雁塔区', 'street_id': '3c0ea7c5e895ef9cfbf0cb6f', 'telephone': '(029)88472322', 'detail': 1, 'uid': '3c0ea7c5e895ef9cfbf0cb6f', 'detail_info': {'tag': '金融;银行', 'navi_location': {'lng': 108.86504723818, 'lat': 34.188559543792}, 'type': 'life', 'detail_url': 'http://api.map.baidu.com/place/detail?uid=3c0ea7c5e895ef9cfbf0cb6f&output=html&source=placeapi_v2', 'overall_rating': '1.4', 'image_num': '14', 'comment_num': '11', 'children': []}}"
"{'name': '中国银行(西安软件园支行)', 'location': {'lat': 34.23124, 'lng': 108.887436}, 'address': '西安市雁塔区科技二路72号', 'province': '陕西省', 'city': '西安市', 'area': '雁塔区', 'street_id': 'f696f3c2a34908eb1b11d56f', 'telephone': '(029)88350678', 'detail': 1, 'uid': 'f696f3c2a34908eb1b11d56f', 'detail_info': {'tag': '金融;银行', 'navi_location': {'lng': 108.8874338514, 'lat': 34.231373980443}, 'type': 'life', 'detail_url': 'http://api.map.baidu.com/place/detail?uid=f696f3c2a34908eb1b11d56f&output=html&source=placeapi_v2', 'overall_rating': '3.2', 'image_num': '7', 'comment_num': '20', 'children': []}}"
"{'name': '中国民生银行(西安绿地世纪城社区支行)', 'location': {'lat': 34.203837, 'lng': 108.881051}, 'address': '丈八三路绿地世纪城仕嘉公寓A区2号楼', 'province': '陕西省', 'city': '西安市', 'area': '雁塔区', 'street_id': '892a7f959f7a39dbc9c3db3a', 'telephone': '(029)62580496', 'detail': 1, 'uid': '892a7f959f7a39dbc9c3db3a', 'detail_info': {'tag': '金融;银行', 'navi_location': {'lng': 108.88102896635, 'lat': 34.203897038553}, 'type': 'life', 'detail_url': 'http://api.map.baidu.com/place/detail?uid=892a7f959f7a39dbc9c3db3a&output=html&source=placeapi_v2', 'image_num': '2', 'children': []}}"
"{'name': '中国建设银行(西安丈八六路支行)', 'location': {'lat': 34.208638, 'lng': 108.863084}, 'address': '西安市高新区丈八六路北段高新逸品4号楼1-2层', 'province': '陕西省', 'city': '西安市', 'area': '雁塔区', 'street_id': '6aacba459bbe3e525fd4fee5', 'telephone': '(029)81887470', 'detail': 1, 'uid': '6aacba459bbe3e525fd4fee5', 'detail_info': {'tag': '金融;银行', 'navi_location': {'lng': 108.86330128979, 'lat': 34.2086461204}, 'type': 'life', 'detail_url': 'http://api.map.baidu.com/place/detail?uid=6aacba459bbe3e525fd4fee5&output=html&source=placeapi_v2', 'overall_rating': '1.6', 'image_num': '8', 'comment_num': '6', 'children': []}}"
"{'name': '西安银行(软件园支行)', 'location': {'lat': 34.231056, 'lng': 108.890066}, 'address': '雁塔区科技二路68号', 'province': '陕西省', 'city': '西安市', 'area': '雁塔区', 'street_id': '4ea3f2f17c8de7aaaecb666e', 'detail': 1, 'uid': '4ea3f2f17c8de7aaaecb666e', 'detail_info': {'tag': '金融;银行', 'navi_location': {'lng': 108.88998081522, 'lat': 34.231321081831}, 'type': 'life', 'detail_url': 'http://api.map.baidu.com/place/detail?uid=4ea3f2f17c8de7aaaecb666e&output=html&source=placeapi_v2', 'overall_rating': '3.5', 'image_num': '9', 'comment_num': '4', 'children': []}}"
"{'name': '全惠典当', 'location': {'lat': 34.246108, 'lng': 108.883125}, 'address': '科技路259号枫韵蓝湾东门向北100米', 'province': '陕西省', 'city': '西安市', 'area': '雁塔区', 'street_id': '1a38f3957adef24d15c90512', 'telephone': '(029)89634886', 'detail': 1, 'uid': '1a38f3957adef24d15c90512', 'detail_info': {'tag': '金融;典当行', 'type': 'life', 'detail_url': 'http://api.map.baidu.com/place/detail?uid=1a38f3957adef24d15c90512&output=html&source=placeapi_v2', 'image_num': '7', 'children': []}}"
"{'name': '锦泰永昌保险销售', 'location': {'lat': 34.246091, 'lng': 108.886818}, 'address': '西安市雁塔区文兴巷与团结南路交叉路口往西约100米(紫薇臻品)', 'province': '陕西省', 'city': '西安市', 'area': '雁塔区', 'detail': 1, 'uid': '5e5b8a121834b1dfacee7a0e', 'detail_info': {'tag': '金融;投资理财', 'type': 'life', 'detail_url': 'http://api.map.baidu.com/place/detail?uid=5e5b8a121834b1dfacee7a0e&output=html&source=placeapi_v2', 'image_num': '5', 'children': []}}"
"{'name': '恒丰银行(西安高新支行)', 'location': {'lat': 34.202335, 'lng': 108.891584}, 'address': '西安市雁塔区汇鑫ibc-c座', 'province': '陕西省', 'city': '西安市', 'area': '雁塔区', 'street_id': '0ed9048db6f2057521026210', 'telephone': '(029)68529816', 'detail': 1, 'uid': '0ed9048db6f2057521026210', 'detail_info': {'tag': '金融;银行', 'navi_location': {'lng': 108.89167939775, 'lat': 34.20218261376}, 'type': 'life', 'detail_url': 'http://api.map.baidu.com/place/detail?uid=0ed9048db6f2057521026210&output=html&source=placeapi_v2', 'overall_rating': '4.0', 'image_num': '8', 'comment_num': '6', 'children': []}}"
"{'name': '中天大秦投资有限公司', 'location': {'lat': 34.228801, 'lng': 108.883458}, 'address': '西安市高新区高新六路42号中清大厦905室', 'province': '陕西省', 'city': '西安市', 'area': '雁塔区', 'street_id': '4fdb1493194975dfb42655a0', 'detail': 1, 'uid': '4fdb1493194975dfb42655a0', 'detail_info': {'tag': '金融;投资理财', 'type': 'life', 'detail_url': 'http://api.map.baidu.com/place/detail?uid=4fdb1493194975dfb42655a0&output=html&source=placeapi_v2', 'image_num': '1', 'children': []}}"
"{'name': '秦农银行(大寨路支行)', 'location': {'lat': 34.250773, 'lng': 108.886264}, 'address': '西安市雁塔区大寨路2号', 'province': '陕西省', 'city': '西安市', 'area': '雁塔区', 'street_id': 'b0a3e319dc97aff8ede4a59a', 'telephone': '(029)88335497', 'detail': 1, 'uid': 'b0a3e319dc97aff8ede4a59a', 'detail_info': {'tag': '金融;银行', 'navi_location': {'lng': 108.88628654598, 'lat': 34.25086807077}, 'type': 'life', 'detail_url': 'http://api.map.baidu.com/place/detail?uid=b0a3e319dc97aff8ede4a59a&output=html&source=placeapi_v2', 'overall_rating': '4.0', 'image_num': '10', 'comment_num': '1', 'children': []}}"
"{'name': '长安银行(高新军民融合支行)', 'location': {'lat': 34.232176, 'lng': 108.880936}, 'address': '西安市雁塔区科技二路与丈八北路交叉路口往东约100米(盛方科技园)', 'province': '陕西省', 'city': '西安市', 'area': '雁塔区', 'street_id': '4136c830122a9eb7601c670e', 'telephone': '(029)88811702', 'detail': 1, 'uid': '4136c830122a9eb7601c670e', 'detail_info': {'tag': '金融;银行', 'type': 'life', 'detail_url': 'http://api.map.baidu.com/place/detail?uid=4136c830122a9eb7601c670e&output=html&source=placeapi_v2', 'overall_rating': '1.0', 'image_num': '4', 'comment_num': '1', 'children': []}}"
"{'name': '西安盛开保险代理有限公司鱼化寨营业部', 'location': {'lat': 34.237784, 'lng': 108.855463}, 'address': '陕西省西安市雁塔区鱼斗路3号西70米', 'province': '陕西省', 'city': '西安市', 'area': '雁塔区', 'detail': 1, 'uid': '222a626c7914cfc4f503b8d8', 'detail_info': {'tag': '金融;投资理财', 'type': 'life', 'detail_url': 'http://api.map.baidu.com/place/detail?uid=222a626c7914cfc4f503b8d8&output=html&source=placeapi_v2', 'image_num': '1', 'children': []}}"
"{'name': '陕西鸿帆置业投资发展有限公司', 'location': {'lat': 34.245438, 'lng': 108.884976}, 'address': '西安市雁塔区文兴巷与高新六路交叉路口往东南约100米(响塘文苑)', 'province': '陕西省', 'city': '西安市', 'area': '雁塔区', 'telephone': '(029)88778693', 'detail': 1, 'uid': '25fa2deb84c686ddb13c812c', 'detail_info': {'tag': '金融;投资理财', 'type': 'life', 'detail_url': 'http://api.map.baidu.com/place/detail?uid=25fa2deb84c686ddb13c812c&output=html&source=placeapi_v2', 'image_num': '1', 'children': []}}"
"{'name': '秦农银行(南尧头支行)', 'location': {'lat': 34.225395, 'lng': 108.890999}, 'address': '西安市雁塔区南尧头东区35排', 'province': '陕西省', 'city': '西安市', 'area': '雁塔区', 'street_id': 'ba714896682332f088b98870', 'telephone': '(029)88329408', 'detail': 1, 'uid': 'ba714896682332f088b98870', 'detail_info': {'tag': '金融;银行', 'navi_location': {'lng': 108.89121949228, 'lat': 34.225468487448}, 'type': 'life', 'detail_url': 'http://api.map.baidu.com/place/detail?uid=ba714896682332f088b98870&output=html&source=placeapi_v2', 'image_num': '3', 'children': []}}"
"{'name': '中国民生银行(枫林意树社区支行)', 'location': {'lat': 34.216712, 'lng': 108.884418}, 'address': '西安市雁塔区科技六路200号', 'province': '陕西省', 'city': '西安市', 'area': '雁塔区', 'detail': 1, 'uid': '5e67501c26e364a29ee321b5', 'detail_info': {'tag': '金融;银行', 'type': 'life', 'detail_url': 'http://api.map.baidu.com/place/detail?uid=5e67501c26e364a29ee321b5&output=html&source=placeapi_v2', 'overall_rating': '5.0', 'image_num': '4', 'comment_num': '2', 'children': []}}"
"{'name': '西安中诚永泰财富投资管理有限公司', 'location': {'lat': 34.230998, 'lng': 108.881293}, 'address': '西安市雁塔区科技二路76号陕商投资大厦14F', 'province': '陕西省', 'city': '西安市', 'area': '雁塔区', 'detail': 1, 'uid': '52240703a4b67f4b04fef50c', 'detail_info': {'tag': '金融;投资理财', 'type': 'life', 'detail_url': 'http://api.map.baidu.com/place/detail?uid=52240703a4b67f4b04fef50c&output=html&source=placeapi_v2', 'image_num': '1', 'children': []}}"
"{'name': '中国进出口银行(陕西省分行)', 'location': {'lat': 34.196695, 'lng': 108.890341}, 'address': '西安市高新区锦业一路6号陕西永利国际金融中心副楼', 'province': '陕西省', 'city': '西安市', 'area': '雁塔区', 'street_id': 'dba41a7228ed61a696f08cd1', 'telephone': '(029)68681802', 'detail': 1, 'uid': 'dba41a7228ed61a696f08cd1', 'detail_info': {'tag': '金融;银行', 'navi_location': {'lng': 108.8902923817, 'lat': 34.197319312513}, 'type': 'life', 'detail_url': 'http://api.map.baidu.com/place/detail?uid=dba41a7228ed61a696f08cd1&output=html&source=placeapi_v2', 'overall_rating': '4.0', 'image_num': '7', 'comment_num': '2', 'children': []}}"
"{'name': '秦农银行(鱼丈路支行)', 'location': {'lat': 34.242582, 'lng': 108.878408}, 'address': '陕西省西安市雁塔区丈八北路380号', 'province': '陕西省', 'city': '西安市', 'area': '雁塔区', 'street_id': 'a4855e25c8f1422a8d772736', 'telephone': '(029)89540477', 'detail': 1, 'uid': 'a4855e25c8f1422a8d772736', 'detail_info': {'tag': '金融;银行', 'type': 'life', 'detail_url': 'http://api.map.baidu.com/place/detail?uid=a4855e25c8f1422a8d772736&output=html&source=placeapi_v2', 'overall_rating': '1.0', 'image_num': '7', 'comment_num': '1', 'children': []}}"
"{'name': '深圳市东方富海投资管理股份有限公司(西安分公司)', 'location': {'lat': 34.221827, 'lng': 108.893124}, 'address': '陕西省西安市雁塔区科技五路8号', 'province': '陕西省', 'city': '西安市', 'area': '雁塔区', 'street_id': 'e430a98770c3a8cb6240a96a', 'detail': 1, 'uid': 'e430a98770c3a8cb6240a96a', 'detail_info': {'tag': '金融;投资理财', 'type': 'life', 'detail_url': 'http://api.map.baidu.com/place/detail?uid=e430a98770c3a8cb6240a96a&output=html&source=placeapi_v2', 'image_num': '1', 'children': []}}"
"{'name': '陕西信德四川会馆投资管理有限公司', 'location': {'lat': 34.229143, 'lng': 108.892177}, 'address': '陕西省西安市雁塔区科技三路巨安大厦B座17F', 'province': '陕西省', 'city': '西安市', 'area': '雁塔区', 'detail': 1, 'uid': 'a28023c31b67d3b330169bac', 'detail_info': {'tag': '金融;投资理财', 'type': 'life', 'detail_url': 'http://api.map.baidu.com/place/detail?uid=a28023c31b67d3b330169bac&output=html&source=placeapi_v2', 'image_num': '1', 'children': []}}"
"{'name': '陕西天润通达投资有限公司', 'location': {'lat': 34.219795, 'lng': 108.892643}, 'address': '高新区沣惠南路34号新长安广场A座18层', 'province': '陕西省', 'city': '西安市', 'area': '雁塔区', 'street_id': '645324e6ae710cdbb75f1e37', 'detail': 1, 'uid': '645324e6ae710cdbb75f1e37', 'detail_info': {'tag': '金融;投资理财', 'type': 'life', 'detail_url': 'http://api.map.baidu.com/place/detail?uid=645324e6ae710cdbb75f1e37&output=html&source=placeapi_v2', 'image_num': '1', 'children': []}}"
"{'name': '华夏保险', 'location': {'lat': 34.22469, 'lng': 108.884608}, 'address': '陕西省西安市雁塔区国宾中央区11栋', 'province': '陕西省', 'city': '西安市', 'area': '雁塔区', 'detail': 1, 'uid': '3ec5b1f593df6b463586f467', 'detail_info': {'tag': '金融;投资理财', 'type': 'life', 'detail_url': 'http://api.map.baidu.com/place/detail?uid=3ec5b1f593df6b463586f467&output=html&source=placeapi_v2', 'image_num': '1', 'children': []}}"
"{'name': '中国农业银行(西安市高新科技产业开发区支行)', 'location': {'lat': 34.199148, 'lng': 108.890107}, 'address': '陕西省西安市雁塔区丈八沟街道高新路锦业路与丈八一路交汇处西南角中铁西安中心1楼', 'province': '陕西省', 'city': '西安市', 'area': '雁塔区', 'detail': 1, 'uid': 'b18a40e79bf54ff0d72ce242', 'detail_info': {'tag': '金融;银行', 'type': 'life', 'detail_url': 'http://api.map.baidu.com/place/detail?uid=b18a40e79bf54ff0d72ce242&output=html&source=placeapi_v2', 'overall_rating': '2.0', 'image_num': '6', 'comment_num': '4', 'children': []}}"
"{'name': '北京银行(西安锦业路支行)', 'location': {'lat': 34.201469, 'lng': 108.892072}, 'address': '陕西省西安市雁塔区丈八一路', 'province': '陕西省', 'city': '西安市', 'area': '雁塔区', 'detail': 1, 'uid': 'd2f508273fab9f962a02e11f', 'detail_info': {'tag': '金融;银行', 'type': 'life', 'detail_url': 'http://api.map.baidu.com/place/detail?uid=d2f508273fab9f962a02e11f&output=html&source=placeapi_v2', 'overall_rating': '0.0', 'image_num': '1', 'comment_num': '1', 'children': []}}"
"{'name': '北京银行(逸翠尚府社区支行)', 'location': {'lat': 34.187889, 'lng': 108.888282}, 'address': '西安市雁塔区锦业二路与唐延南路交叉路口往西约50米(逸翠·尚府南区)', 'province': '陕西省', 'city': '西安市', 'area': '雁塔区', 'street_id': 'f425e6f362048e96354aaea6', 'telephone': '(029)62390783', 'detail': 1, 'uid': 'f425e6f362048e96354aaea6', 'detail_info': {'tag': '金融;银行', 'type': 'life', 'detail_url': 'http://api.map.baidu.com/place/detail?uid=f425e6f362048e96354aaea6&output=html&source=placeapi_v2', 'overall_rating': '0.0', 'image_num': '5', 'comment_num': '1', 'children': []}}"
"{'name': '秦农银行(鱼斗路支行)', 'location': {'lat': 34.234395, 'lng': 108.858815}, 'address': '鱼斗路158号复地优尚国际社区', 'province': '陕西省', 'city': '西安市', 'area': '雁塔区', 'street_id': 'e128315dc55e44902806ce24', 'telephone': '(029)88694718', 'detail': 1, 'uid': 'e128315dc55e44902806ce24', 'detail_info': {'tag': '金融;银行', 'type': 'life', 'detail_url': 'http://api.map.baidu.com/place/detail?uid=e128315dc55e44902806ce24&output=html&source=placeapi_v2', 'image_num': '9', 'children': []}}"
"{'name': '高新科技支行', 'location': {'lat': 34.244442, 'lng': 108.888632}, 'address': '科技路239号中华世纪城1期C8楼', 'province': '陕西省', 'city': '西安市', 'area': '雁塔区', 'street_id': '0a0dcb45430ee053d2f49e5e', 'detail': 1, 'uid': '0a0dcb45430ee053d2f49e5e', 'detail_info': {'tag': '金融;银行', 'type': 'life', 'detail_url': 'http://api.map.baidu.com/place/detail?uid=0a0dcb45430ee053d2f49e5e&output=html&source=placeapi_v2', 'image_num': '1', 'children': []}}"
"{'name': '招商银行24小时自助银行服务(科技二路店)', 'location': {'lat': 34.232327, 'lng': 108.888021}, 'address': '科技二路69号', 'province': '陕西省', 'city': '西安市', 'area': '雁塔区', 'street_id': 'e25ba6af75be327e43e19286', 'detail': 1, 'uid': 'e25ba6af75be327e43e19286', 'detail_info': {'tag': '金融;atm', 'navi_location': {'lng': 108.88823254381, 'lat': 34.232010721148}, 'type': 'life', 'detail_url': 'http://api.map.baidu.com/place/detail?uid=e25ba6af75be327e43e19286&output=html&source=placeapi_v2', 'overall_rating': '4.0', 'image_num': '7', 'comment_num': '3', 'children': []}}"
"{'name': '陕西金开贷金融服务有限公司', 'location': {'lat': 34.200799, 'lng': 108.850478}, 'address': '陕西省西安市雁塔区锦业路125号西安半导体产业园203大楼西部金融大厦6层', 'province': '陕西省', 'city': '西安市', 'area': '雁塔区', 'street_id': 'ed74497c1e6dbc7c16a19013', 'detail': 1, 'uid': 'ed74497c1e6dbc7c16a19013', 'detail_info': {'tag': '公司企业;公司', 'type': 'enterprise', 'detail_url': 'http://api.map.baidu.com/place/detail?uid=ed74497c1e6dbc7c16a19013&output=html&source=placeapi_v2', 'children': []}}"
"{'name': '西安银行24小时自助银行(西安锦业路支行)', 'location': {'lat': 34.201047, 'lng': 108.875305}, 'address': '西安市高新区丈八四路20号5号楼一层', 'province': '陕西省', 'city': '西安市', 'area': '雁塔区', 'street_id': '7416ebeed5aa70d5283a9f95', 'detail': 1, 'uid': '7416ebeed5aa70d5283a9f95', 'detail_info': {'tag': '金融;atm', 'type': 'life', 'detail_url': 'http://api.map.baidu.com/place/detail?uid=7416ebeed5aa70d5283a9f95&output=html&source=placeapi_v2', 'overall_rating': '2.5', 'image_num': '3', 'comment_num': '3', 'children': []}}"
"{'name': '中国工商银行24小时自助银行(丈八六路店)', 'location': {'lat': 34.205093, 'lng': 108.862874}, 'address': '陕西省西安市雁塔区丈八六路8号', 'province': '陕西省', 'city': '西安市', 'area': '雁塔区', 'street_id': '643eca27497714807e29bd7a', 'detail': 1, 'uid': '643eca27497714807e29bd7a', 'detail_info': {'tag': '金融;atm', 'navi_location': {'lng': 108.86295636742, 'lat': 34.20511047045}, 'type': 'life', 'detail_url': 'http://api.map.baidu.com/place/detail?uid=643eca27497714807e29bd7a&output=html&source=placeapi_v2', 'overall_rating': '0.0', 'image_num': '4', 'comment_num': '1', 'children': []}}"
"{'name': '上海浦东发展银行ATM(锦业一路店)', 'location': {'lat': 34.197045, 'lng': 108.857762}, 'address': '西安市雁塔区锦业一路88号', 'province': '陕西省', 'city': '西安市', 'area': '雁塔区', 'street_id': '35debf29708dab39a6da390c', 'detail': 1, 'uid': '35debf29708dab39a6da390c', 'detail_info': {'tag': '金融;atm', 'navi_location': {'lng': 108.85772935403, 'lat': 34.197363168805}, 'type': 'life', 'detail_url': 'http://api.map.baidu.com/place/detail?uid=35debf29708dab39a6da390c&output=html&source=placeapi_v2', 'overall_rating': '0.0', 'image_num': '1', 'children': []}}"
"{'name': '上海浦东发展银行24小时自助银行上海浦东发展银行(西安高新科技支行)', 'location': {'lat': 34.244472, 'lng': 108.888713}, 'address': '科技路239号中华世纪城一期C8楼', 'province': '陕西省', 'city': '西安市', 'area': '雁塔区', 'street_id': '2d01a6b6654ccfdac4f50d7b', 'detail': 1, 'uid': '2d01a6b6654ccfdac4f50d7b', 'detail_info': {'tag': '金融;atm', 'navi_location': {'lng': 108.88848715953, 'lat': 34.244413684843}, 'type': 'life', 'detail_url': 'http://api.map.baidu.com/place/detail?uid=2d01a6b6654ccfdac4f50d7b&output=html&source=placeapi_v2', 'overall_rating': '2.3', 'image_num': '7', 'comment_num': '4', 'children': []}}"
"{'name': '中国邮政储蓄银行24小时自助银行(西安市高新支行)', 'location': {'lat': 34.202173, 'lng': 108.890083}, 'address': '丈八二路5号SOHO·B座1层', 'province': '陕西省', 'city': '西安市', 'area': '雁塔区', 'street_id': '3a5c45dff27bdcc0f5c59c01', 'detail': 1, 'uid': '397ea0e44e0229a0223bf23c', 'detail_info': {'tag': '金融;atm', 'navi_location': {'lng': 108.88987681839, 'lat': 34.202173690666}, 'type': 'life', 'detail_url': 'http://api.map.baidu.com/place/detail?uid=397ea0e44e0229a0223bf23c&output=html&source=placeapi_v2', 'overall_rating': '4.0', 'image_num': '4', 'comment_num': '2', 'children': []}}"
"{'name': '中国银行24小时自助银行(西安丈八北路支行)', 'location': {'lat': 34.241548, 'lng': 108.878613}, 'address': '西安市雁塔区丈八北路238号', 'province': '陕西省', 'city': '西安市', 'area': '雁塔区', 'street_id': '047770a11afb68a4deee8b92', 'detail': 1, 'uid': '047770a11afb68a4deee8b92', 'detail_info': {'tag': '金融;atm', 'type': 'life', 'detail_url': 'http://api.map.baidu.com/place/detail?uid=047770a11afb68a4deee8b92&output=html&source=placeapi_v2', 'overall_rating': '5.0', 'image_num': '9', 'comment_num': '1', 'children': []}}"
"{'name': '中国建设银行24小时自助银行(西安丈八北路支行)', 'location': {'lat': 34.228387, 'lng': 108.88008}, 'address': '陕西省西安市雁塔区丈八北路城市风景夏日景色小区8号楼1层', 'province': '陕西省', 'city': '西安市', 'area': '雁塔区', 'street_id': 'c3eefd1824a688f9250bd028', 'detail': 1, 'uid': 'c3eefd1824a688f9250bd028', 'detail_info': {'tag': '金融;atm', 'navi_location': {'lng': 108.88006828161, 'lat': 34.228385112357}, 'type': 'life', 'detail_url': 'http://api.map.baidu.com/place/detail?uid=c3eefd1824a688f9250bd028&output=html&source=placeapi_v2', 'overall_rating': '0.0', 'image_num': '3', 'children': []}}"
"{'name': '招商银行24小时自助银行', 'location': {'lat': 34.220551, 'lng': 108.892755}, 'address': '陕西省西安市雁塔区沣惠南路34号4楼北80米', 'province': '陕西省', 'city': '西安市', 'area': '雁塔区', 'detail': 1, 'uid': '8d45de9d95ed040cfbdc855a', 'detail_info': {'tag': '金融;atm', 'type': 'life', 'detail_url': 'http://api.map.baidu.com/place/detail?uid=8d45de9d95ed040cfbdc855a&output=html&source=placeapi_v2', 'overall_rating': '4.5', 'image_num': '2', 'comment_num': '2', 'children': []}}"
"{'name': '中国建设银行24小时自助银行服务(锦业路)', 'location': {'lat': 34.19872, 'lng': 108.891794}, 'address': '陕西省西安市雁塔区绿地·领海大厦B座10104', 'province': '陕西省', 'city': '西安市', 'area': '雁塔区', 'street_id': 'bb1fd99c66d69264bbbd63e3', 'detail': 1, 'uid': 'bb1fd99c66d69264bbbd63e3', 'detail_info': {'tag': '金融;atm', 'type': 'life', 'detail_url': 'http://api.map.baidu.com/place/detail?uid=bb1fd99c66d69264bbbd63e3&output=html&source=placeapi_v2', 'image_num': '3', 'children': []}}"
"{'name': '中国民生银行24小时自助银行(锦业路支行)', 'location': {'lat': 34.20228, 'lng': 108.890749}, 'address': '丈八二路5号SOHO·B座1层', 'province': '陕西省', 'city': '西安市', 'area': '雁塔区', 'street_id': 'a1e58305f604dee5f423102a', 'detail': 1, 'uid': 'a1e58305f604dee5f423102a', 'detail_info': {'tag': '金融;atm', 'navi_location': {'lng': 108.89103541511, 'lat': 34.202283292178}, 'type': 'life', 'detail_url': 'http://api.map.baidu.com/place/detail?uid=a1e58305f604dee5f423102a&output=html&source=placeapi_v2', 'image_num': '4', 'children': []}}"
"{'name': '招商银行24小时自助银行(西安绿地世纪城社区支行)', 'location': {'lat': 34.200326, 'lng': 108.880796}, 'address': '陕西省西安市雁塔区丈八三路绿地世纪城仕嘉公寓A区44号楼10112号', 'province': '陕西省', 'city': '西安市', 'area': '雁塔区', 'street_id': 'e9e0c035cf21282a16764341', 'detail': 1, 'uid': 'e9e0c035cf21282a16764341', 'detail_info': {'tag': '金融;atm', 'type': 'life', 'detail_url': 'http://api.map.baidu.com/place/detail?uid=e9e0c035cf21282a16764341&output=html&source=placeapi_v2', 'overall_rating': '0.0', 'image_num': '3', 'comment_num': '1', 'children': []}}"
"{'name': '西安银行24小时自助银行(科技路西段支行)', 'location': {'lat': 34.242837, 'lng': 108.885156}, 'address': '西安市科技路西段70号梧桐朗座', 'province': '陕西省', 'city': '西安市', 'area': '雁塔区', 'street_id': 'e116be5419881d7bc91b9543', 'detail': 1, 'uid': 'e116be5419881d7bc91b9543', 'detail_info': {'tag': '金融;atm', 'type': 'life', 'detail_url': 'http://api.map.baidu.com/place/detail?uid=e116be5419881d7bc91b9543&output=html&source=placeapi_v2', 'overall_rating': '4.0', 'image_num': '8', 'comment_num': '5', 'children': []}}"
"{'name': '西安银行ATM(锦业二路店)', 'location': {'lat': 34.188846, 'lng': 108.865099}, 'address': '锦业二路附71号', 'province': '陕西省', 'city': '西安市', 'area': '雁塔区', 'street_id': '7fe0148e9be95b50a1a934e6', 'detail': 1, 'uid': '7fe0148e9be95b50a1a934e6', 'detail_info': {'tag': '金融;atm', 'navi_location': {'lng': 108.8650996022, 'lat': 34.188777849001}, 'type': 'life', 'detail_url': 'http://api.map.baidu.com/place/detail?uid=7fe0148e9be95b50a1a934e6&output=html&source=placeapi_v2', 'overall_rating': '0.0', 'image_num': '8', 'comment_num': '4', 'children': []}}"
"{'name': '平安综合金融服务有限公司西安分公司', 'location': {'lat': 34.229257, 'lng': 108.892455}, 'address': '陕西省西安市雁塔区科技三路55号北90米', 'province': '陕西省', 'city': '西安市', 'area': '雁塔区', 'detail': 1, 'uid': 'a94db934c07f624803ff2d3d', 'detail_info': {'tag': '公司企业;公司', 'type': 'enterprise', 'detail_url': 'http://api.map.baidu.com/place/detail?uid=a94db934c07f624803ff2d3d&output=html&source=placeapi_v2', 'children': []}}"
"{'name': '中国建设银行24小时自助银行(西安锦业路支行)', 'location': {'lat': 34.200203, 'lng': 108.882949}, 'address': '锦业路与丈八三路交口向东135米路北', 'province': '陕西省', 'city': '西安市', 'area': '雁塔区', 'street_id': '23e5f33b4bba5ed8b4265500', 'detail': 1, 'uid': '23e5f33b4bba5ed8b4265500', 'detail_info': {'tag': '金融;atm', 'navi_location': {'lng': 108.88294154232, 'lat': 34.199825906039}, 'type': 'life', 'detail_url': 'http://api.map.baidu.com/place/detail?uid=23e5f33b4bba5ed8b4265500&output=html&source=placeapi_v2', 'image_num': '7', 'children': []}}"
"{'name': '中国工商银行24小时自助银行(蟠龙东路店)', 'location': {'lat': 34.236504, 'lng': 108.877035}, 'address': '西安市雁塔区鱼斗路18号西安外事学院南校区内', 'province': '陕西省', 'city': '西安市', 'area': '雁塔区', 'detail': 1, 'uid': 'b4d470a6a81b81579222e0f1', 'detail_info': {'tag': '金融;atm', 'type': 'life', 'detail_url': 'http://api.map.baidu.com/place/detail?uid=b4d470a6a81b81579222e0f1&output=html&source=placeapi_v2', 'image_num': '1', 'children': []}}"
"{'name': '交通银行24小时自助银行(蟠龙东路)', 'location': {'lat': 34.235106, 'lng': 108.876813}, 'address': '丈八北路408号', 'province': '陕西省', 'city': '西安市', 'area': '雁塔区', 'detail': 1, 'uid': 'fced23f521877b460c0e6b5a', 'detail_info': {'tag': '金融;atm', 'type': 'life', 'detail_url': 'http://api.map.baidu.com/place/detail?uid=fced23f521877b460c0e6b5a&output=html&source=placeapi_v2', 'overall_rating': '0.0', 'image_num': '2', 'comment_num': '1', 'children': []}}"
"{'name': '中国工商银行离行式自助银行(营业部高新技术开发区支行西安外事学院南校区)', 'location': {'lat': 34.237119, 'lng': 108.876048}, 'address': '西安外事学院南校区', 'province': '陕西省', 'city': '西安市', 'area': '雁塔区', 'detail': 1, 'uid': 'a3396e4daadb177f79dbd2ce', 'detail_info': {'tag': '金融;atm', 'type': 'life', 'detail_url': 'http://api.map.baidu.com/place/detail?uid=a3396e4daadb177f79dbd2ce&output=html&source=placeapi_v2', 'image_num': '1', 'children': []}}"
"{'name': '中国工商银行24小时自助银行', 'location': {'lat': 34.189329, 'lng': 108.89086}, 'address': '西安市雁塔区唐延南路与锦业二路交叉路口往东北约100米(逸翠园·西安)', 'province': '陕西省', 'city': '西安市', 'area': '雁塔区', 'detail': 1, 'uid': '1806b85e3b55eebd10293529', 'detail_info': {'tag': '金融;atm', 'type': 'life', 'detail_url': 'http://api.map.baidu.com/place/detail?uid=1806b85e3b55eebd10293529&output=html&source=placeapi_v2', 'image_num': '3', 'children': []}}"
"{'name': '中国光大银行24小时自助银行(西安丈八北路支行)', 'location': {'lat': 34.237944, 'lng': 108.879732}, 'address': '丈八北路20号', 'province': '陕西省', 'city': '西安市', 'area': '雁塔区', 'street_id': '198c06993047a92a3fe23121', 'detail': 1, 'uid': '198c06993047a92a3fe23121', 'detail_info': {'tag': '金融;atm', 'navi_location': {'lng': 108.8793058493, 'lat': 34.237737767436}, 'type': 'life', 'detail_url': 'http://api.map.baidu.com/place/detail?uid=198c06993047a92a3fe23121&output=html&source=placeapi_v2', 'overall_rating': '0.0', 'image_num': '7', 'comment_num': '2', 'children': []}}"
"{'name': '交通银行24小时自助银行(西安大寨路支行)', 'location': {'lat': 34.251238, 'lng': 108.892255}, 'address': '西安市雁塔区大寨路1号华府.新桃园', 'province': '陕西省', 'city': '西安市', 'area': '雁塔区', 'street_id': '1dccf10602c937d60f0a7087', 'detail': 1, 'uid': '1dccf10602c937d60f0a7087', 'detail_info': {'tag': '金融;atm', 'type': 'life', 'detail_url': 'http://api.map.baidu.com/place/detail?uid=1dccf10602c937d60f0a7087&output=html&source=placeapi_v2', 'overall_rating': '0.0', 'image_num': '5', 'comment_num': '3', 'children': []}}"
"{'name': '中国建设银行24小时自助银行(西安高新六路支行)', 'location': {'lat': 34.242816, 'lng': 108.884435}, 'address': '科技路70号', 'province': '陕西省', 'city': '西安市', 'area': '雁塔区', 'street_id': 'cde9e2c7e6857ab4e81e9743', 'detail': 1, 'uid': 'cde9e2c7e6857ab4e81e9743', 'detail_info': {'tag': '金融;atm', 'navi_location': {'lng': 108.88454744668, 'lat': 34.243100941988}, 'type': 'life', 'detail_url': 'http://api.map.baidu.com/place/detail?uid=cde9e2c7e6857ab4e81e9743&output=html&source=placeapi_v2', 'overall_rating': '4.5', 'image_num': '5', 'comment_num': '3', 'children': []}}"
"{'name': '中国农业银行24小时自助银行(西安大寨路分理处)', 'location': {'lat': 34.250588, 'lng': 108.891882}, 'address': '陕西省西安市雁塔区中华世纪城商住楼(大寨路南)', 'province': '陕西省', 'city': '西安市', 'area': '雁塔区', 'street_id': '6ef241670e32ac6a970319cd', 'detail': 1, 'uid': '6ef241670e32ac6a970319cd', 'detail_info': {'tag': '金融;atm', 'type': 'life', 'detail_url': 'http://api.map.baidu.com/place/detail?uid=6ef241670e32ac6a970319cd&output=html&source=placeapi_v2', 'overall_rating': '0.0', 'image_num': '7', 'comment_num': '3', 'children': []}}"
"{'name': '北京银行24小时自助银行服务(西安分行锦业路自助银行)', 'location': {'lat': 34.197651, 'lng': 108.88324}, 'address': '锦业一路11号', 'province': '陕西省', 'city': '西安市', 'area': '雁塔区', 'street_id': '5a0d20ef269b0efb2e47330e', 'detail': 1, 'uid': '5a0d20ef269b0efb2e47330e', 'detail_info': {'tag': '金融;atm', 'navi_location': {'lng': 108.88323622696, 'lat': 34.197546110861}, 'type': 'life', 'detail_url': 'http://api.map.baidu.com/place/detail?uid=5a0d20ef269b0efb2e47330e&output=html&source=placeapi_v2', 'overall_rating': '4.5', 'image_num': '8', 'comment_num': '4', 'children': []}}"
"{'name': '浙商银行24小时自助银行服务(西安高新开发区支行)', 'location': {'lat': 34.243598, 'lng': 108.881517}, 'address': '科技路西口259号', 'province': '陕西省', 'city': '西安市', 'area': '雁塔区', 'street_id': 'c6d66b4a079430a4f4eafc59', 'detail': 1, 'uid': 'c6d66b4a079430a4f4eafc59', 'detail_info': {'tag': '金融;atm', 'navi_location': {'lng': 108.88191304719, 'lat': 34.243435215157}, 'type': 'life', 'detail_url': 'http://api.map.baidu.com/place/detail?uid=c6d66b4a079430a4f4eafc59&output=html&source=placeapi_v2', 'overall_rating': '0.0', 'image_num': '8', 'comment_num': '2', 'children': []}}"
"{'name': '交通银行24小时自助银行服务(西安丈八北路支行)', 'location': {'lat': 34.229404, 'lng': 108.879111}, 'address': '陕西省西安市雁塔区丈八北路89号', 'province': '陕西省', 'city': '西安市', 'area': '雁塔区', 'street_id': 'ed643a53c82b76d71d580044', 'detail': 1, 'uid': 'ed643a53c82b76d71d580044', 'detail_info': {'tag': '金融;atm', 'type': 'life', 'detail_url': 'http://api.map.baidu.com/place/detail?uid=ed643a53c82b76d71d580044&output=html&source=placeapi_v2', 'overall_rating': '5.0', 'image_num': '5', 'comment_num': '1', 'children': []}}"
"{'name': '中国邮政储蓄银行24小时自助(银行西安市大寨路营业所)', 'location': {'lat': 34.2506, 'lng': 108.888937}, 'address': '大寨路与团结南路东南角群贤汇楼盘3-20101号', 'province': '陕西省', 'city': '西安市', 'area': '雁塔区', 'street_id': 'd174ef97b9a4bcbfc61e51a3', 'detail': 1, 'uid': 'd174ef97b9a4bcbfc61e51a3', 'detail_info': {'tag': '金融;atm', 'navi_location': {'lng': 108.88843765391, 'lat': 34.250643227935}, 'type': 'life', 'detail_url': 'http://api.map.baidu.com/place/detail?uid=d174ef97b9a4bcbfc61e51a3&output=html&source=placeapi_v2', 'overall_rating': '0.0', 'image_num': '8', 'comment_num': '3', 'children': []}}"
"{'name': '中信银行24小时自助银行(晶鑫商业广场店)', 'location': {'lat': 34.251269, 'lng': 108.884221}, 'address': '西安市雁塔区大寨路与高新六路交叉路口西侧(晶鑫商业广场)', 'province': '陕西省', 'city': '西安市', 'area': '雁塔区', 'street_id': '96ab550140388fab61180947', 'detail': 1, 'uid': '96ab550140388fab61180947', 'detail_info': {'tag': '金融;atm', 'type': 'life', 'detail_url': 'http://api.map.baidu.com/place/detail?uid=96ab550140388fab61180947&output=html&source=placeapi_v2', 'image_num': '2', 'children': []}}"
"{'name': '中国银行24小时自助银行服务', 'location': {'lat': 34.217317, 'lng': 108.843883}, 'address': '云水一路与天谷七路交叉口东南150米西安环普科技产业园G1座附近', 'province': '陕西省', 'city': '西安市', 'area': '雁塔区', 'detail': 1, 'uid': 'dfde31619219b1d2e5e965a5', 'detail_info': {'tag': '金融;atm', 'type': 'life', 'detail_url': 'http://api.map.baidu.com/place/detail?uid=dfde31619219b1d2e5e965a5&output=html&source=placeapi_v2', 'overall_rating': '0.0', 'image_num': '3', 'comment_num': '1', 'children': []}}"
"{'name': '中国民生银行24小时自助银行(西安科技路支行)', 'location': {'lat': 34.242985, 'lng': 108.881865}, 'address': '科技路76号唐南香榭1层', 'province': '陕西省', 'city': '西安市', 'area': '雁塔区', 'street_id': '5ea9be730e80e5d0d4851f0c', 'detail': 1, 'uid': '5ea9be730e80e5d0d4851f0c', 'detail_info': {'tag': '金融;atm', 'type': 'life', 'detail_url': 'http://api.map.baidu.com/place/detail?uid=5ea9be730e80e5d0d4851f0c&output=html&source=placeapi_v2', 'overall_rating': '0.0', 'image_num': '15', 'comment_num': '5', 'children': []}}"
"{'name': '华夏银行24小时自助银行(西安高新技术开发区支行)', 'location': {'lat': 34.25012, 'lng': 108.888668}, 'address': '陕西省西安市雁塔区团结南路18号附近', 'province': '陕西省', 'city': '西安市', 'area': '雁塔区', 'street_id': 'a6491a1c4260a68dcae33c13', 'detail': 1, 'uid': 'a6491a1c4260a68dcae33c13', 'detail_info': {'tag': '金融;atm', 'navi_location': {'lng': 108.88842068747, 'lat': 34.250122552213}, 'type': 'life', 'detail_url': 'http://api.map.baidu.com/place/detail?uid=a6491a1c4260a68dcae33c13&output=html&source=placeapi_v2', 'image_num': '3', 'children': []}}"
"{'name': '中国民生银行24小时自助银行(丈八四路店)', 'location': {'lat': 34.20918, 'lng': 108.875249}, 'address': '陕西省西安市雁塔区丈八四路6号(近缤纷南郡)', 'province': '陕西省', 'city': '西安市', 'area': '雁塔区', 'street_id': '7a69e8b56b8a6ae740e19216', 'detail': 1, 'uid': '7a69e8b56b8a6ae740e19216', 'detail_info': {'tag': '金融;atm', 'type': 'life', 'detail_url': 'http://api.map.baidu.com/place/detail?uid=7a69e8b56b8a6ae740e19216&output=html&source=placeapi_v2', 'overall_rating': '0.0', 'image_num': '7', 'comment_num': '1', 'children': []}}"
"{'name': '中国建设银行24小时自助银行服务(西安锦业一路支行)', 'location': {'lat': 34.197019, 'lng': 108.89193}, 'address': '陕西省西安市雁塔区锦业一路2号正东方向10米', 'province': '陕西省', 'city': '西安市', 'area': '雁塔区', 'street_id': 'f498f0e16c3f2b5caecb6607', 'detail': 1, 'uid': 'f498f0e16c3f2b5caecb6607', 'detail_info': {'tag': '金融;atm', 'type': 'life', 'detail_url': 'http://api.map.baidu.com/place/detail?uid=f498f0e16c3f2b5caecb6607&output=html&source=placeapi_v2', 'overall_rating': '0.0', 'image_num': '3', 'comment_num': '1', 'children': []}}"
"{'name': '长安银行24小时自助银行(西安高新科技支行)', 'location': {'lat': 34.200492, 'lng': 108.866414}, 'address': '创业研发园锦业路69号', 'province': '陕西省', 'city': '西安市', 'area': '雁塔区', 'street_id': '41b91acf7ba1a445bea2409b', 'detail': 1, 'uid': '41b91acf7ba1a445bea2409b', 'detail_info': {'tag': '金融;atm', 'navi_location': {'lng': 108.86660562206, 'lat': 34.200216089003}, 'type': 'life', 'detail_url': 'http://api.map.baidu.com/place/detail?uid=41b91acf7ba1a445bea2409b&output=html&source=placeapi_v2', 'overall_rating': '0.0', 'image_num': '5', 'comment_num': '3', 'children': []}}"
"{'name': '渤海银行24小时自助银行(西安分行营业部)', 'location': {'lat': 34.199276, 'lng': 108.881321}, 'address': '锦业路36号1-2层、14-17层', 'province': '陕西省', 'city': '西安市', 'area': '雁塔区', 'street_id': 'fe0ec0bafaf22444a4c7569a', 'detail': 1, 'uid': 'fe0ec0bafaf22444a4c7569a', 'detail_info': {'tag': '金融;atm', 'type': 'life', 'detail_url': 'http://api.map.baidu.com/place/detail?uid=fe0ec0bafaf22444a4c7569a&output=html&source=placeapi_v2', 'overall_rating': '4.6', 'image_num': '1', 'comment_num': '5', 'children': []}}"
"{'name': '中国工商银行24小时自助银行(西安鸿基新城社区)', 'location': {'lat': 34.224553, 'lng': 108.871242}, 'address': '陕西省西安市雁塔区科技四路南200米', 'province': '陕西省', 'city': '西安市', 'area': '雁塔区', 'detail': 1, 'uid': 'e0739036f1ccab04740269d6', 'detail_info': {'tag': '金融;atm', 'type': 'life', 'detail_url': 'http://api.map.baidu.com/place/detail?uid=e0739036f1ccab04740269d6&output=html&source=placeapi_v2', 'image_num': '2', 'children': []}}"
"{'name': '北京银行24小时自助银行(西安丈八北路支行)', 'location': {'lat': 34.239004, 'lng': 108.879542}, 'address': '陕西省西安市雁塔区唐兴路21号', 'province': '陕西省', 'city': '西安市', 'area': '雁塔区', 'street_id': '0e16a4ede2c3b35f2fb96d3a', 'detail': 1, 'uid': '0e16a4ede2c3b35f2fb96d3a', 'detail_info': {'tag': '金融;atm', 'type': 'life', 'detail_url': 'http://api.map.baidu.com/place/detail?uid=0e16a4ede2c3b35f2fb96d3a&output=html&source=placeapi_v2', 'image_num': '8', 'children': []}}"
"{'name': '秦农银行24小时自助银行(丈八北路分社)', 'location': {'lat': 34.227955, 'lng': 108.878269}, 'address': '丈八北路-科技三路口西南150米', 'province': '陕西省', 'city': '西安市', 'area': '雁塔区', 'street_id': 'f49c8296e671da2a047ce81b', 'detail': 1, 'uid': 'f49c8296e671da2a047ce81b', 'detail_info': {'tag': '金融;atm', 'type': 'life', 'detail_url': 'http://api.map.baidu.com/place/detail?uid=f49c8296e671da2a047ce81b&output=html&source=placeapi_v2', 'image_num': '1', 'children': []}}"
"{'name': '秦农银行24小时自助银行服务(大寨路支行)', 'location': {'lat': 34.250508, 'lng': 108.886217}, 'address': '大寨路2号附近', 'province': '陕西省', 'city': '西安市', 'area': '雁塔区', 'street_id': '417b8a24cd50566fb2077d7a', 'detail': 1, 'uid': '417b8a24cd50566fb2077d7a', 'detail_info': {'tag': '金融;atm', 'type': 'life', 'detail_url': 'http://api.map.baidu.com/place/detail?uid=417b8a24cd50566fb2077d7a&output=html&source=placeapi_v2', 'image_num': '2', 'children': []}}"
"{'name': '中国工商银行24小时自助银行(丈八三路店)', 'location': {'lat': 34.200421, 'lng': 108.881796}, 'address': '西安市高新区丈八三路6号45幢1单元10101室', 'province': '陕西省', 'city': '西安市', 'area': '雁塔区', 'street_id': 'c72ea019c1f9041dcae33c86', 'detail': 1, 'uid': 'c72ea019c1f9041dcae33c86', 'detail_info': {'tag': '金融;atm', 'type': 'life', 'detail_url': 'http://api.map.baidu.com/place/detail?uid=c72ea019c1f9041dcae33c86&output=html&source=placeapi_v2', 'overall_rating': '0.0', 'image_num': '1', 'children': []}}"
"{'name': '中建投资开发有限公司', 'location': {'lat': 34.248184, 'lng': 108.887832}, 'address': '陕西省西安市雁塔区团结南路国熙台9号楼14层', 'province': '陕西省', 'city': '西安市', 'area': '雁塔区', 'detail': 1, 'uid': 'ba81c640350ea67433621222', 'detail_info': {'tag': '公司企业;公司', 'type': 'enterprise', 'detail_url': 'http://api.map.baidu.com/place/detail?uid=ba81c640350ea67433621222&output=html&source=placeapi_v2', 'overall_rating': '0.0', 'children': []}}"
"{'name': '兴业银行ATM(丈八二路店)', 'location': {'lat': 34.188685, 'lng': 108.886943}, 'address': '丈八二路与锦业二路交叉口东北100米', 'province': '陕西省', 'city': '西安市', 'area': '雁塔区', 'street_id': '75db633c49e3c1c8b5147f0c', 'detail': 1, 'uid': '75db633c49e3c1c8b5147f0c', 'detail_info': {'tag': '金融;atm', 'type': 'life', 'detail_url': 'http://api.map.baidu.com/place/detail?uid=75db633c49e3c1c8b5147f0c&output=html&source=placeapi_v2', 'image_num': '1', 'children': []}}"
"{'name': '齐商银行24小时自助银行服务(西安分行)', 'location': {'lat': 34.200123, 'lng': 108.892262}, 'address': '西安市雁塔区锦业路与丈八一路交叉路口往东北约50米(旺都)', 'province': '陕西省', 'city': '西安市', 'area': '雁塔区', 'detail': 1, 'uid': 'fccb3d728dcda7a9a1a93495', 'detail_info': {'tag': '金融;atm', 'type': 'life', 'detail_url': 'http://api.map.baidu.com/place/detail?uid=fccb3d728dcda7a9a1a93495&output=html&source=placeapi_v2', 'image_num': '3', 'children': []}}"
"{'name': '重庆银行24小时自助银行(科技六路店)', 'location': {'lat': 34.217162, 'lng': 108.886747}, 'address': '陕西省西安市雁塔区天地源·枫林意树(科技六路南)', 'province': '陕西省', 'city': '西安市', 'area': '雁塔区', 'street_id': '405a67a4094902ba76e5b636', 'detail': 1, 'uid': '405a67a4094902ba76e5b636', 'detail_info': {'tag': '金融;atm', 'type': 'life', 'detail_url': 'http://api.map.baidu.com/place/detail?uid=405a67a4094902ba76e5b636&output=html&source=placeapi_v2', 'image_num': '1', 'children': []}}"
"{'name': '秦农银行24小时自助银行(鱼丈路支行)', 'location': {'lat': 34.242779, 'lng': 108.878335}, 'address': '陕西省西安市雁塔区丈八北路380号', 'province': '陕西省', 'city': '西安市', 'area': '雁塔区', 'street_id': '0b4635651601fa7176e5b658', 'detail': 1, 'uid': '0b4635651601fa7176e5b658', 'detail_info': {'tag': '金融;atm', 'type': 'life', 'detail_url': 'http://api.map.baidu.com/place/detail?uid=0b4635651601fa7176e5b658&output=html&source=placeapi_v2', 'image_num': '3', 'children': []}}"
"{'name': '招商银行(枣园西路支行)', 'location': {'lat': 34.286333, 'lng': 108.867809}, 'address': '陕西省西安市莲湖区枣园西路217号', 'province': '陕西省', 'city': '西安市', 'area': '莲湖区', 'street_id': 'eb89be120ddaa072c6effb33', 'telephone': '(029)88510105', 'detail': 1, 'uid': 'eb89be120ddaa072c6effb33', 'detail_info': {'tag': '金融;银行', 'navi_location': {'lng': 108.86793621654, 'lat': 34.286084478553}, 'type': 'life', 'detail_url': 'http://api.map.baidu.com/place/detail?uid=eb89be120ddaa072c6effb33&output=html&source=placeapi_v2', 'overall_rating': '4.2', 'image_num': '8', 'comment_num': '6', 'children': []}}"
"{'name': '新华保险(太和时代广场兴永职场)', 'location': {'lat': 34.252924, 'lng': 108.893198}, 'address': '陕西省西安市雁塔区沣惠南路', 'province': '陕西省', 'city': '西安市', 'area': '雁塔区', 'detail': 1, 'uid': '67e2e606ebb92d06ca1b9505', 'detail_info': {'tag': '金融;投资理财', 'type': 'life', 'detail_url': 'http://api.map.baidu.com/place/detail?uid=67e2e606ebb92d06ca1b9505&output=html&source=placeapi_v2', 'overall_rating': '0.0', 'image_num': '1', 'comment_num': '3', 'children': []}}"
"{'name': '中国建设银行(西安三桥二十四城支行)', 'location': {'lat': 34.297143, 'lng': 108.832134}, 'address': '未央区三桥新街华润二十四城小区6号楼1层', 'province': '陕西省', 'city': '西安市', 'area': '未央区', 'street_id': '6df6b46df660709622022097', 'telephone': '(029)84519141', 'detail': 1, 'uid': '6df6b46df660709622022097', 'detail_info': {'tag': '金融;银行', 'navi_location': {'lng': 108.8321683591, 'lat': 34.297203914276}, 'type': 'life', 'detail_url': 'http://api.map.baidu.com/place/detail?uid=6df6b46df660709622022097&output=html&source=placeapi_v2', 'overall_rating': '4.4', 'image_num': '9', 'comment_num': '12', 'children': []}}"
"{'name': '中国银行(西安阿房路支行)', 'location': {'lat': 34.28022, 'lng': 108.853785}, 'address': '陕西省西安市未央区阿房二路警苑小区西侧门面房', 'province': '陕西省', 'city': '西安市', 'area': '未央区', 'street_id': 'de42a1e3e194fb23b320a8b4', 'detail': 1, 'uid': 'de42a1e3e194fb23b320a8b4', 'detail_info': {'tag': '金融;银行', 'navi_location': {'lng': 108.85359845752, 'lat': 34.280058038488}, 'type': 'life', 'detail_url': 'http://api.map.baidu.com/place/detail?uid=de42a1e3e194fb23b320a8b4&output=html&source=placeapi_v2', 'overall_rating': '2.4', 'image_num': '9', 'comment_num': '16', 'children': []}}"
"{'name': '中国农业银行(西安沣东新城支行)', 'location': {'lat': 34.30118, 'lng': 108.832015}, 'address': '三桥街道西大明宫建材家居城一楼', 'province': '陕西省', 'city': '西安市', 'area': '未央区', 'street_id': '16dadc97dfca840288fc067a', 'telephone': '(029)89503828', 'detail': 1, 'uid': '16dadc97dfca840288fc067a', 'detail_info': {'tag': '金融;银行', 'navi_location': {'lng': 108.8318953964, 'lat': 34.301151741321}, 'type': 'life', 'detail_url': 'http://api.map.baidu.com/place/detail?uid=16dadc97dfca840288fc067a&output=html&source=placeapi_v2', 'overall_rating': '0.0', 'image_num': '10', 'comment_num': '2', 'children': []}}"
"{'name': '西京快速理赔', 'location': {'lat': 34.285731, 'lng': 108.87073}, 'address': '枣园北路5号', 'province': '陕西省', 'city': '西安市', 'area': '莲湖区', 'telephone': '(029)84611025', 'detail': 1, 'uid': 'e90b95b3a9852668715e8014', 'detail_info': {'tag': '金融;投资理财', 'navi_location': {'lng': 108.87052537377, 'lat': 34.285510655093}, 'type': 'life', 'detail_url': 'http://api.map.baidu.com/place/detail?uid=e90b95b3a9852668715e8014&output=html&source=placeapi_v2', 'image_num': '1', 'children': []}}"
"{'name': '中国人寿保险', 'location': {'lat': 34.289789, 'lng': 108.861584}, 'address': '陕西省西安市莲湖区枣园西路320号东北100米', 'province': '陕西省', 'city': '西安市', 'area': '莲湖区', 'detail': 1, 'uid': '05473842f6197c2e744ff1d9', 'detail_info': {'tag': '金融;投资理财', 'navi_location': {'lng': 108.86141325552, 'lat': 34.289879216304}, 'type': 'life', 'detail_url': 'http://api.map.baidu.com/place/detail?uid=05473842f6197c2e744ff1d9&output=html&source=placeapi_v2', 'image_num': '4', 'children': []}}"
"{'name': '中国建设银行(西安枣园西路支行)', 'location': {'lat': 34.291837, 'lng': 108.8657}, 'address': '陕西省西安市莲湖区枣园西路万科金色悦城A15号商铺一层', 'province': '陕西省', 'city': '西安市', 'area': '莲湖区', 'street_id': 'eaf0f736d74c53110f0e6b98', 'telephone': '(029)88621448', 'detail': 1, 'uid': 'eaf0f736d74c53110f0e6b98', 'detail_info': {'tag': '金融;银行', 'navi_location': {'lng': 108.86569965591, 'lat': 34.291726115192}, 'type': 'life', 'detail_url': 'http://api.map.baidu.com/place/detail?uid=eaf0f736d74c53110f0e6b98&output=html&source=placeapi_v2', 'overall_rating': '3.3', 'image_num': '5', 'comment_num': '3', 'children': []}}"
"{'name': '招商银行(汉城南路支行)', 'location': {'lat': 34.267564, 'lng': 108.877949}, 'address': '陕西省西安市莲湖区汉城南路100号旭景新港8号楼', 'province': '陕西省', 'city': '西安市', 'area': '莲湖区', 'street_id': 'bdf817a7007f9bd0da2f2831', 'telephone': '(029)84595251', 'detail': 1, 'uid': 'bdf817a7007f9bd0da2f2831', 'detail_info': {'tag': '金融;银行', 'navi_location': {'lng': 108.87854440153, 'lat': 34.26789448247}, 'type': 'life', 'detail_url': 'http://api.map.baidu.com/place/detail?uid=bdf817a7007f9bd0da2f2831&output=html&source=placeapi_v2', 'overall_rating': '5.0', 'image_num': '12', 'comment_num': '5', 'children': []}}"
"{'name': '中国银行(陕西省分行)', 'location': {'lat': 34.254503, 'lng': 108.894307}, 'address': '西安市雁塔区唐延路北段18号', 'province': '陕西省', 'city': '西安市', 'area': '雁塔区', 'street_id': 'd76936732b18214bb05c6afc', 'telephone': '(029)89593000', 'detail': 1, 'uid': 'd76936732b18214bb05c6afc', 'detail_info': {'tag': '金融;银行', 'navi_location': {'lng': 108.89437299736, 'lat': 34.254520311447}, 'type': 'life', 'detail_url': 'http://api.map.baidu.com/place/detail?uid=d76936732b18214bb05c6afc&output=html&source=placeapi_v2', 'overall_rating': '4.1', 'image_num': '16', 'comment_num': '33', 'children': []}}"
"{'name': '西安银行(城西支行)', 'location': {'lat': 34.257825, 'lng': 108.885533}, 'address': '陕西省西安市雁塔区昆明路128号', 'province': '陕西省', 'city': '西安市', 'area': '雁塔区', 'street_id': '830fa5fff1d14b3379dbd269', 'detail': 1, 'uid': '830fa5fff1d14b3379dbd269', 'detail_info': {'tag': '金融;银行', 'navi_location': {'lng': 108.88555531671, 'lat': 34.257961136816}, 'type': 'life', 'detail_url': 'http://api.map.baidu.com/place/detail?uid=830fa5fff1d14b3379dbd269&output=html&source=placeapi_v2', 'overall_rating': '5.0', 'image_num': '12', 'comment_num': '5', 'children': []}}"
"{'name': '个人信用报告查询网点', 'location': {'lat': 34.298643, 'lng': 108.833678}, 'address': '陕西省西安市未央区三桥新街236号(秦农银行沣东支行)', 'province': '陕西省', 'city': '西安市', 'area': '未央区', 'detail': 1, 'uid': '20e3bb0249d2936fae080f1a', 'detail_info': {'tag': '金融;其他', 'type': 'life', 'detail_url': 'http://api.map.baidu.com/place/detail?uid=20e3bb0249d2936fae080f1a&output=html&source=placeapi_v2', 'image_num': '1', 'children': []}}"
"{'name': '招商证券(西咸新区证券营业部)', 'location': {'lat': 34.296687, 'lng': 108.831475}, 'address': '陕西省西安市未央区华润二十四城7号楼10104', 'province': '陕西省', 'city': '西安市', 'area': '未央区', 'street_id': '6e49c068ccc91d02220220cf', 'telephone': '(029)89506511', 'detail': 1, 'uid': '6e49c068ccc91d02220220cf', 'detail_info': {'tag': '金融;投资理财', 'type': 'life', 'detail_url': 'http://api.map.baidu.com/place/detail?uid=6e49c068ccc91d02220220cf&output=html&source=placeapi_v2', 'overall_rating': '0.0', 'image_num': '7', 'comment_num': '0', 'children': []}}"
"{'name': '中国农业银行(西安昆明路支行)', 'location': {'lat': 34.257945, 'lng': 108.883704}, 'address': '昆明路128号', 'province': '陕西省', 'city': '西安市', 'area': '雁塔区', 'street_id': 'e5edda2035675e039b68b4be', 'telephone': '(029)84242430', 'detail': 1, 'uid': 'e5edda2035675e039b68b4be', 'detail_info': {'tag': '金融;银行', 'navi_location': {'lng': 108.88349621454, 'lat': 34.258027145082}, 'type': 'life', 'detail_url': 'http://api.map.baidu.com/place/detail?uid=e5edda2035675e039b68b4be&output=html&source=placeapi_v2', 'overall_rating': '1.9', 'image_num': '6', 'comment_num': '7', 'children': []}}"
"{'name': '和盛金融', 'location': {'lat': 34.301369, 'lng': 108.823508}, 'address': '西部车城内小吃城黄楼三楼', 'province': '陕西省', 'city': '西安市', 'area': '未央区', 'detail': 1, 'uid': '123164da91cdeed24afc8d87', 'detail_info': {'tag': '金融;投资理财', 'type': 'life', 'detail_url': 'http://api.map.baidu.com/place/detail?uid=123164da91cdeed24afc8d87&output=html&source=placeapi_v2', 'image_num': '1', 'children': []}}"
"{'name': '中国工商银行(西安枣园支行)', 'location': {'lat': 34.280739, 'lng': 108.876316}, 'address': '西安市枣园西路38号', 'province': '陕西省', 'city': '西安市', 'area': '莲湖区', 'street_id': 'd24e48eb37d99eb4afee7a63', 'telephone': '(029)84629520', 'detail': 1, 'uid': 'd24e48eb37d99eb4afee7a63', 'detail_info': {'tag': '金融;银行', 'navi_location': {'lng': 108.87632974877, 'lat': 34.28088847447}, 'type': 'life', 'detail_url': 'http://api.map.baidu.com/place/detail?uid=d24e48eb37d99eb4afee7a63&output=html&source=placeapi_v2', 'overall_rating': '3.7', 'image_num': '14', 'comment_num': '7', 'children': []}}"
"{'name': '秦农银行(天台路支行)', 'location': {'lat': 34.280778, 'lng': 108.831644}, 'address': '陕西省西安市未央区天台路58号', 'province': '陕西省', 'city': '西安市', 'area': '未央区', 'street_id': 'e9204cfc47d922d53517dc42', 'telephone': '(029)89101532', 'detail': 1, 'uid': 'e9204cfc47d922d53517dc42', 'detail_info': {'tag': '金融;银行', 'navi_location': {'lng': 108.83175674474, 'lat': 34.280894829642}, 'type': 'life', 'detail_url': 'http://api.map.baidu.com/place/detail?uid=e9204cfc47d922d53517dc42&output=html&source=placeapi_v2', 'overall_rating': '1.0', 'image_num': '9', 'comment_num': '4', 'children': []}}"
"{'name': '中国农业银行(西安昆明路西段支行)', 'location': {'lat': 34.259697, 'lng': 108.841319}, 'address': '陕西省西安市未央区昆明路561号昆明时光三区东侧D39', 'province': '陕西省', 'city': '西安市', 'area': '未央区', 'telephone': '(029)84255446', 'detail': 1, 'uid': '025d3707affc9da7e5e965f2', 'detail_info': {'tag': '金融;银行', 'type': 'life', 'detail_url': 'http://api.map.baidu.com/place/detail?uid=025d3707affc9da7e5e965f2&output=html&source=placeapi_v2', 'overall_rating': '5.0', 'image_num': '4', 'comment_num': '5', 'children': []}}"
"{'name': '中国人民保险', 'location': {'lat': 34.265754, 'lng': 108.81763}, 'address': '西宝公路北50米', 'province': '陕西省', 'city': '西安市', 'area': '长安区', 'street_id': '20319bdff24634cfd13ce3ee', 'detail': 1, 'uid': '20319bdff24634cfd13ce3ee', 'detail_info': {'tag': '金融;投资理财', 'navi_location': {'lng': 108.81754307494, 'lat': 34.265663237966}, 'type': 'life', 'detail_url': 'http://api.map.baidu.com/place/detail?uid=20319bdff24634cfd13ce3ee&output=html&source=placeapi_v2', 'image_num': '8', 'children': []}}"
"{'name': '秦农银行(沣东支行)', 'location': {'lat': 34.298693, 'lng': 108.833799}, 'address': '三桥正街236号嘉宝国际星城一层', 'province': '陕西省', 'city': '西安市', 'area': '未央区', 'street_id': '688cc761ec0411a41b11d5b7', 'telephone': '(029)89106090', 'detail': 1, 'uid': '688cc761ec0411a41b11d5b7', 'detail_info': {'tag': '金融;银行', 'navi_location': {'lng': 108.83399415966, 'lat': 34.298761069104}, 'type': 'life', 'detail_url': 'http://api.map.baidu.com/place/detail?uid=688cc761ec0411a41b11d5b7&output=html&source=placeapi_v2', 'overall_rating': '2.7', 'image_num': '6', 'comment_num': '4', 'children': []}}"
"{'name': '秦农银行(天台路支行)', 'location': {'lat': 34.280778, 'lng': 108.831644}, 'address': '陕西省西安市未央区天台路58号', 'province': '陕西省', 'city': '西安市', 'area': '未央区', 'street_id': 'e9204cfc47d922d53517dc42', 'telephone': '(029)89101532', 'detail': 1, 'uid': 'e9204cfc47d922d53517dc42', 'detail_info': {'tag': '金融;银行', 'navi_location': {'lng': 108.83175674474, 'lat': 34.280894829642}, 'type': 'life', 'detail_url': 'http://api.map.baidu.com/place/detail?uid=e9204cfc47d922d53517dc42&output=html&source=placeapi_v2', 'overall_rating': '1.0', 'image_num': '9', 'comment_num': '4', 'children': []}}"
"{'name': '兴业银行(旭景新港社区支行)', 'location': {'lat': 34.267818, 'lng': 108.877613}, 'address': '土门街道汉城南路华东万锦城北侧一层(旭景新港东门口)', 'province': '陕西省', 'city': '西安市', 'area': '莲湖区', 'street_id': '6b6ccceae944d4ccb6147f30', 'telephone': '95561', 'detail': 1, 'uid': '6b6ccceae944d4ccb6147f30', 'detail_info': {'tag': '金融;银行', 'navi_location': {'lng': 108.87782162582, 'lat': 34.26743108627}, 'type': 'life', 'detail_url': 'http://api.map.baidu.com/place/detail?uid=6b6ccceae944d4ccb6147f30&output=html&source=placeapi_v2', 'overall_rating': '4.0', 'image_num': '10', 'comment_num': '1', 'children': []}}"
"{'name': '西安银行(汉城路支行)', 'location': {'lat': 34.272389, 'lng': 108.878776}, 'address': '汉城南路163号庆安建材市场A2排前7-8号', 'province': '陕西省', 'city': '西安市', 'area': '莲湖区', 'street_id': '3e40b467887bda51bd4842df', 'detail': 1, 'uid': '3e40b467887bda51bd4842df', 'detail_info': {'tag': '金融;银行', 'navi_location': {'lng': 108.87856778083, 'lat': 34.272392834489}, 'type': 'life', 'detail_url': 'http://api.map.baidu.com/place/detail?uid=3e40b467887bda51bd4842df&output=html&source=placeapi_v2', 'overall_rating': '3.0', 'image_num': '14', 'comment_num': '7', 'children': []}}"
"{'name': '中国建设银行(西安天台路支行)', 'location': {'lat': 34.262402, 'lng': 108.83123}, 'address': '西安市沣东新城天台路南段和平春天小区1层商铺', 'province': '陕西省', 'city': '西安市', 'area': '未央区', 'street_id': '4a04f91c50b576277069d3aa', 'detail': 1, 'uid': '4a04f91c50b576277069d3aa', 'detail_info': {'tag': '金融;银行', 'navi_location': {'lng': 108.83157372757, 'lat': 34.26226284574}, 'type': 'life', 'detail_url': 'http://api.map.baidu.com/place/detail?uid=4a04f91c50b576277069d3aa&output=html&source=placeapi_v2', 'overall_rating': '3.0', 'image_num': '2', 'comment_num': '3', 'children': []}}"
"{'name': '中国农业银行(王寺分理处)', 'location': {'lat': 34.265616, 'lng': 108.81101}, 'address': '西安市长安区沣东大道与西户公路交叉路口往东约100米(西安长安儿童康复医院南侧约100米)', 'province': '陕西省', 'city': '西安市', 'area': '长安区', 'street_id': 'c8e8f633e5cda36fab0dd83b', 'telephone': '(029)85808073', 'detail': 1, 'uid': 'c8e8f633e5cda36fab0dd83b', 'detail_info': {'tag': '金融;银行', 'navi_location': {'lng': 108.81107240608, 'lat': 34.265470166884}, 'type': 'life', 'detail_url': 'http://api.map.baidu.com/place/detail?uid=c8e8f633e5cda36fab0dd83b&output=html&source=placeapi_v2', 'overall_rating': '3.5', 'image_num': '17', 'comment_num': '7', 'children': []}}"
"{'name': '中国民生银行(华东·万锦城购物中心)', 'location': {'lat': 34.266395, 'lng': 108.877899}, 'address': '西安市莲湖区汉城南路100号华东·万锦城购物中心F1', 'province': '陕西省', 'city': '西安市', 'area': '莲湖区', 'street_id': '4f1f346dddc05747a1046475', 'telephone': '(029)61815099', 'detail': 1, 'uid': '4f1f346dddc05747a1046475', 'detail_info': {'tag': '金融;银行', 'navi_location': {'lng': 108.87848341737, 'lat': 34.266148292167}, 'indoor_floor': 'F1', 'type': 'life', 'detail_url': 'http://api.map.baidu.com/place/detail?uid=4f1f346dddc05747a1046475&output=html&source=placeapi_v2', 'overall_rating': '4.6', 'image_num': '12', 'comment_num': '5', 'children': []}}"
"{'name': '中国建设银行(西安大庆路支行)', 'location': {'lat': 34.27511, 'lng': 108.878938}, 'address': '西安市莲湖区大庆路705号', 'province': '陕西省', 'city': '西安市', 'area': '莲湖区', 'street_id': '7d3f17f77e6a3a82c4f0253d', 'telephone': '(029)84622497', 'detail': 1, 'uid': '7d3f17f77e6a3a82c4f0253d', 'detail_info': {'tag': '金融;银行', 'navi_location': {'lng': 108.87926304594, 'lat': 34.274979541003}, 'type': 'life', 'detail_url': 'http://api.map.baidu.com/place/detail?uid=7d3f17f77e6a3a82c4f0253d&output=html&source=placeapi_v2', 'overall_rating': '3.5', 'image_num': '16', 'comment_num': '8', 'children': []}}"
"{'name': '中国农业银行(西安阿房宫支行)', 'location': {'lat': 34.297128, 'lng': 108.847169}, 'address': '西安市建章路27号', 'province': '陕西省', 'city': '西安市', 'area': '未央区', 'street_id': '75036835dc2602af5e0d0263', 'telephone': '(029)84511145', 'detail': 1, 'uid': '75036835dc2602af5e0d0263', 'detail_info': {'tag': '金融;银行', 'navi_location': {'lng': 108.84705879341, 'lat': 34.29728980875}, 'type': 'life', 'detail_url': 'http://api.map.baidu.com/place/detail?uid=75036835dc2602af5e0d0263&output=html&source=placeapi_v2', 'overall_rating': '3.5', 'image_num': '9', 'comment_num': '9', 'children': []}}"
"{'name': '长安银行(沣东新城支行)', 'location': {'lat': 34.301129, 'lng': 108.832187}, 'address': '陕西省西安市未央区后围寨立交大明宫家居城1层', 'province': '陕西省', 'city': '西安市', 'area': '未央区', 'street_id': 'd22d64f86bdf4c5df5c59c14', 'detail': 1, 'uid': 'd22d64f86bdf4c5df5c59c14', 'detail_info': {'tag': '金融;银行', 'type': 'life', 'detail_url': 'http://api.map.baidu.com/place/detail?uid=d22d64f86bdf4c5df5c59c14&output=html&source=placeapi_v2', 'overall_rating': '3.0', 'image_num': '7', 'comment_num': '4', 'children': []}}"
"{'name': '中国建设银行(西安武警路支行)', 'location': {'lat': 34.287822, 'lng': 108.841337}, 'address': '西安市武警路西安武警工程大学东侧临街一、二层门面房', 'province': '陕西省', 'city': '西安市', 'area': '未央区', 'street_id': 'a44055f61a187ba9b7147f7a', 'telephone': '(029)84516031', 'detail': 1, 'uid': 'a44055f61a187ba9b7147f7a', 'detail_info': {'tag': '金融;银行', 'navi_location': {'lng': 108.84146637179, 'lat': 34.28770736272}, 'type': 'life', 'detail_url': 'http://api.map.baidu.com/place/detail?uid=a44055f61a187ba9b7147f7a&output=html&source=placeapi_v2', 'overall_rating': '3.0', 'image_num': '8', 'comment_num': '4', 'children': []}}"
"{'name': '中国工商银行(西安和平工业园分理处)', 'location': {'lat': 34.260732, 'lng': 108.83212}, 'address': '未央区和平工业园区四号路与西宝疏导线交汇向南30米', 'province': '陕西省', 'city': '西安市', 'area': '未央区', 'street_id': 'f9f581abb2c5fe6fd813181a', 'telephone': '(029)89106177', 'detail': 1, 'uid': 'f9f581abb2c5fe6fd813181a', 'detail_info': {'tag': '金融;银行', 'navi_location': {'lng': 108.83195372427, 'lat': 34.260807804104}, 'type': 'life', 'detail_url': 'http://api.map.baidu.com/place/detail?uid=f9f581abb2c5fe6fd813181a&output=html&source=placeapi_v2', 'overall_rating': '2.5', 'image_num': '10', 'comment_num': '9', 'children': []}}"
"{'name': '秦农银行(枣园西路支行)', 'location': {'lat': 34.281552, 'lng': 108.876871}, 'address': '西安市莲湖区枣园西路雅卓盛世1号', 'province': '陕西省', 'city': '西安市', 'area': '莲湖区', 'street_id': '29c9b9078abecf302cb96dc5', 'telephone': '(029)84614003', 'detail': 1, 'uid': '29c9b9078abecf302cb96dc5', 'detail_info': {'tag': '金融;银行', 'navi_location': {'lng': 108.87659285886, 'lat': 34.281549263233}, 'type': 'life', 'detail_url': 'http://api.map.baidu.com/place/detail?uid=29c9b9078abecf302cb96dc5&output=html&source=placeapi_v2', 'image_num': '10', 'children': []}}"
"{'name': '中国工商银行(陕西自贸区西安沣东支行营业室)', 'location': {'lat': 34.307253, 'lng': 108.819659}, 'address': '西安市未央区世纪大道启航时代广场A区', 'province': '陕西省', 'city': '西安市', 'area': '未央区', 'street_id': '7376b6ac97084171d3ff23d7', 'telephone': '(029)89505255', 'detail': 1, 'uid': '7376b6ac97084171d3ff23d7', 'detail_info': {'tag': '金融;银行', 'navi_location': {'lng': 108.81862075769, 'lat': 34.307480865312}, 'type': 'life', 'detail_url': 'http://api.map.baidu.com/place/detail?uid=7376b6ac97084171d3ff23d7&output=html&source=placeapi_v2', 'overall_rating': '3.7', 'image_num': '3', 'comment_num': '4', 'children': []}}"
"{'name': '中国农业银行(西安团结二路支行)', 'location': {'lat': 34.271143, 'lng': 108.889297}, 'address': '陕西省西安市莲湖区团结中路72号', 'province': '陕西省', 'city': '西安市', 'area': '莲湖区', 'street_id': '6c980d161bc2440cd2f49e90', 'telephone': '(029)84256242', 'detail': 1, 'uid': '6c980d161bc2440cd2f49e90', 'detail_info': {'tag': '金融;银行', 'navi_location': {'lng': 108.88911745738, 'lat': 34.271056730412}, 'type': 'life', 'detail_url': 'http://api.map.baidu.com/place/detail?uid=6c980d161bc2440cd2f49e90&output=html&source=placeapi_v2', 'overall_rating': '3.0', 'image_num': '4', 'comment_num': '6', 'children': []}}"
"{'name': '中国工商银行(西安丰镐路西口支行)', 'location': {'lat': 34.265483, 'lng': 108.879521}, 'address': '丰镐西路185号', 'province': '陕西省', 'city': '西安市', 'area': '莲湖区', 'street_id': '5508504d059210cbc7f02563', 'telephone': '(029)84236507', 'detail': 1, 'uid': '5508504d059210cbc7f02563', 'detail_info': {'tag': '金融;银行', 'type': 'life', 'detail_url': 'http://api.map.baidu.com/place/detail?uid=5508504d059210cbc7f02563&output=html&source=placeapi_v2', 'overall_rating': '0.0', 'image_num': '29', 'comment_num': '3', 'children': []}}"
"{'name': '百年人寿', 'location': {'lat': 34.253007, 'lng': 108.893679}, 'address': '陕西省西安市雁塔区丈八沟街道唐延路北段20号太和时代广场11楼', 'province': '陕西省', 'city': '西安市', 'area': '雁塔区', 'detail': 1, 'uid': 'bdfde939fb664c43c03644b5', 'detail_info': {'tag': '金融;投资理财', 'type': 'life', 'detail_url': 'http://api.map.baidu.com/place/detail?uid=bdfde939fb664c43c03644b5&output=html&source=placeapi_v2', 'image_num': '1', 'children': []}}"
"{'name': '中国工商银行(西安昆明路支行)', 'location': {'lat': 34.258009, 'lng': 108.879843}, 'address': '西安市雁塔区昆明路258号', 'province': '陕西省', 'city': '西安市', 'area': '雁塔区', 'street_id': '0058610867902da546e27463', 'telephone': '(029)84242459', 'detail': 1, 'uid': '0058610867902da546e27463', 'detail_info': {'tag': '金融;银行', 'type': 'life', 'detail_url': 'http://api.map.baidu.com/place/detail?uid=0058610867902da546e27463&output=html&source=placeapi_v2', 'overall_rating': '4.5', 'image_num': '8', 'comment_num': '5', 'children': []}}"
"{'name': '中国国际文化创意产业园招商部', 'location': {'lat': 34.269661, 'lng': 108.877204}, 'address': '汉城南路153号', 'province': '陕西省', 'city': '西安市', 'area': '莲湖区', 'street_id': '68996dcd79728687095cb323', 'detail': 1, 'uid': '68996dcd79728687095cb323', 'detail_info': {'tag': '金融;投资理财', 'type': 'life', 'detail_url': 'http://api.map.baidu.com/place/detail?uid=68996dcd79728687095cb323&output=html&source=placeapi_v2', 'overall_rating': '0.0', 'image_num': '8', 'comment_num': '1', 'children': []}}"
"{'name': '西安银行(三桥支行)', 'location': {'lat': 34.294925, 'lng': 108.835611}, 'address': '三桥地铁站B口三斗路凤凰城售楼部院内', 'province': '陕西省', 'city': '西安市', 'area': '未央区', 'street_id': 'a73b24e6f2892f76b64f54a3', 'telephone': '(029)84521473', 'detail': 1, 'uid': 'a73b24e6f2892f76b64f54a3', 'detail_info': {'tag': '金融;银行', 'navi_location': {'lng': 108.83592818717, 'lat': 34.294656727987}, 'type': 'life', 'detail_url': 'http://api.map.baidu.com/place/detail?uid=a73b24e6f2892f76b64f54a3&output=html&source=placeapi_v2', 'overall_rating': '5.0', 'image_num': '6', 'comment_num': '5', 'children': []}}"
"{'name': '中国建设银行(西安融侨城支行)', 'location': {'lat': 34.251794, 'lng': 108.888762}, 'address': '西安市雁塔区团结南路与大寨路交叉路口往东北约50米(融侨城2期)', 'province': '陕西省', 'city': '西安市', 'area': '雁塔区', 'street_id': 'd043bc3537317391c7f02590', 'telephone': '(029)84354811', 'detail': 1, 'uid': 'd043bc3537317391c7f02590', 'detail_info': {'tag': '金融;银行', 'navi_location': {'lng': 108.88841549451, 'lat': 34.251779237283}, 'type': 'life', 'detail_url': 'http://api.map.baidu.com/place/detail?uid=d043bc3537317391c7f02590&output=html&source=placeapi_v2', 'overall_rating': '4.0', 'image_num': '4', 'comment_num': '5', 'children': []}}"
"{'name': '中国农业银行(西安沣镐西路支行)', 'location': {'lat': 34.265025, 'lng': 108.880673}, 'address': '陕西省西安市莲湖区沣镐西路346号', 'province': '陕西省', 'city': '西安市', 'area': '莲湖区', 'street_id': '14076dee95a6bbf502294f31', 'telephone': '(029)84263004', 'detail': 1, 'uid': '14076dee95a6bbf502294f31', 'detail_info': {'tag': '金融;银行', 'navi_location': {'lng': 108.88062847031, 'lat': 34.265276587357}, 'type': 'life', 'detail_url': 'http://api.map.baidu.com/place/detail?uid=14076dee95a6bbf502294f31&output=html&source=placeapi_v2', 'overall_rating': '4.5', 'image_num': '21', 'comment_num': '5', 'children': []}}"
"{'name': '中国农业银行(西安国亨市场支行)', 'location': {'lat': 34.294225, 'lng': 108.881286}, 'address': '大兴西路301号', 'province': '陕西省', 'city': '西安市', 'area': '未央区', 'street_id': 'acfd9849df795d95d618b7b5', 'telephone': '(029)84429394', 'detail': 1, 'uid': 'acfd9849df795d95d618b7b5', 'detail_info': {'tag': '金融;银行', 'navi_location': {'lng': 108.88130756233, 'lat': 34.294506791058}, 'type': 'life', 'detail_url': 'http://api.map.baidu.com/place/detail?uid=acfd9849df795d95d618b7b5&output=html&source=placeapi_v2', 'overall_rating': '4.3', 'image_num': '9', 'comment_num': '3', 'children': []}}"
"{'name': '陕西和意保险代理有限公司(西安三桥营业部)', 'location': {'lat': 34.296162, 'lng': 108.820634}, 'address': '天台八路付一路东50米', 'province': '陕西省', 'city': '西安市', 'area': '未央区', 'street_id': '5dd614484cbf9289e115f9fd', 'detail': 1, 'uid': '5dd614484cbf9289e115f9fd', 'detail_info': {'tag': '金融;投资理财', 'type': 'life', 'detail_url': 'http://api.map.baidu.com/place/detail?uid=5dd614484cbf9289e115f9fd&output=html&source=placeapi_v2', 'image_num': '1', 'children': []}}"
"{'name': '中国工商银行(西安车辆厂支行)', 'location': {'lat': 34.304041, 'lng': 108.848703}, 'address': '建章路中国建设银行北侧', 'province': '陕西省', 'city': '西安市', 'area': '未央区', 'street_id': '1a3cc975ee72207b15c90511', 'telephone': '(029)84515163', 'detail': 1, 'uid': 'bb1d38e4b1b6f74d0c0a7063', 'detail_info': {'tag': '金融;银行', 'navi_location': {'lng': 108.84850814287, 'lat': 34.303873980875}, 'type': 'life', 'detail_url': 'http://api.map.baidu.com/place/detail?uid=bb1d38e4b1b6f74d0c0a7063&output=html&source=placeapi_v2', 'overall_rating': '2.8', 'image_num': '17', 'comment_num': '7', 'children': []}}"
"{'name': '中国银行(西安汉城路支行)', 'location': {'lat': 34.271613, 'lng': 108.878874}, 'address': '西安市莲湖区汉城南路163号', 'province': '陕西省', 'city': '西安市', 'area': '莲湖区', 'street_id': '2cc3c8e8709473d54d2fdf3b', 'telephone': '(029)84618348', 'detail': 1, 'uid': '2cc3c8e8709473d54d2fdf3b', 'detail_info': {'tag': '金融;银行', 'navi_location': {'lng': 108.87905643298, 'lat': 34.271729168378}, 'type': 'life', 'detail_url': 'http://api.map.baidu.com/place/detail?uid=2cc3c8e8709473d54d2fdf3b&output=html&source=placeapi_v2', 'overall_rating': '1.0', 'image_num': '20', 'comment_num': '13', 'children': []}}"
"{'name': '中国建设银行(西安枣园南路支行)', 'location': {'lat': 34.278682, 'lng': 108.866268}, 'address': '陕西省西安市莲湖区大庆路西段法士特家园附近', 'province': '陕西省', 'city': '西安市', 'area': '莲湖区', 'street_id': '6835e3a7c3925c4ee3110363', 'telephone': '(029)84614321', 'detail': 1, 'uid': '6835e3a7c3925c4ee3110363', 'detail_info': {'tag': '金融;银行', 'navi_location': {'lng': 108.86603410583, 'lat': 34.278683559761}, 'type': 'life', 'detail_url': 'http://api.map.baidu.com/place/detail?uid=6835e3a7c3925c4ee3110363&output=html&source=placeapi_v2', 'overall_rating': '2.3', 'image_num': '9', 'comment_num': '5', 'children': []}}"
"{'name': '中国建设银行(西安枫林华府支行)', 'location': {'lat': 34.253671, 'lng': 108.883317}, 'address': '西安市雁塔区民洁路枫林华府小区14号楼1层', 'province': '陕西省', 'city': '西安市', 'area': '雁塔区', 'street_id': '38e480370d6bdb37373a7101', 'telephone': '(029)88490934,(029)81334355', 'detail': 1, 'uid': '38e480370d6bdb37373a7101', 'detail_info': {'tag': '金融;银行', 'navi_location': {'lng': 108.88318145098, 'lat': 34.253572435628}, 'type': 'life', 'detail_url': 'http://api.map.baidu.com/place/detail?uid=38e480370d6bdb37373a7101&output=html&source=placeapi_v2', 'overall_rating': '2.4', 'image_num': '20', 'comment_num': '9', 'children': []}}"
"{'name': '中航安盟财产保险有限公司陕西省分公司指定服务点', 'location': {'lat': 34.270966, 'lng': 108.864352}, 'address': '陕西省西安市莲湖区团结西路38号附近', 'province': '陕西省', 'city': '西安市', 'area': '莲湖区', 'detail': 1, 'uid': '0c83e86e4163c98c8e772767', 'detail_info': {'tag': '金融;投资理财', 'type': 'life', 'detail_url': 'http://api.map.baidu.com/place/detail?uid=0c83e86e4163c98c8e772767&output=html&source=placeapi_v2', 'image_num': '1', 'children': []}}"
"{'name': '西安银行(西安莱茵小城社区支行)', 'location': {'lat': 34.259048, 'lng': 108.871214}, 'address': '昆明路10号桥莱茵小城南门', 'province': '陕西省', 'city': '西安市', 'area': '莲湖区', 'street_id': '79c87c41c335a0b79d9d68ca', 'telephone': '(029)68621318', 'detail': 1, 'uid': '79c87c41c335a0b79d9d68ca', 'detail_info': {'tag': '金融;银行', 'navi_location': {'lng': 108.87125420017, 'lat': 34.258954462028}, 'type': 'life', 'detail_url': 'http://api.map.baidu.com/place/detail?uid=79c87c41c335a0b79d9d68ca&output=html&source=placeapi_v2', 'image_num': '7', 'children': []}}"
"{'name': '中国工商银行', 'location': {'lat': 34.275335, 'lng': 108.863813}, 'address': '陕西省西安市莲湖区大庆路993', 'province': '陕西省', 'city': '西安市', 'area': '莲湖区', 'street_id': '3b745ef21dcc18c81811d5fe', 'detail': 1, 'uid': '3b745ef21dcc18c81811d5fe', 'detail_info': {'tag': '金融;银行', 'navi_location': {'lng': 108.86381531544, 'lat': 34.275149650575}, 'type': 'life', 'detail_url': 'http://api.map.baidu.com/place/detail?uid=3b745ef21dcc18c81811d5fe&output=html&source=placeapi_v2', 'overall_rating': '3.0', 'image_num': '10', 'comment_num': '2', 'children': []}}"
"{'name': '中国邮政储蓄银行(武警学院邮电所中国邮政储蓄银行)', 'location': {'lat': 34.293303, 'lng': 108.838708}, 'address': '陕西省西安市未央区三桥地铁口双拥路400米', 'province': '陕西省', 'city': '西安市', 'area': '未央区', 'street_id': '0811c3ae662b49a8c909f0cf', 'telephone': '(029)84530590', 'detail': 1, 'uid': '0811c3ae662b49a8c909f0cf', 'detail_info': {'tag': '金融;银行', 'navi_location': {'lng': 108.83832232676, 'lat': 34.293332904557}, 'type': 'life', 'detail_url': 'http://api.map.baidu.com/place/detail?uid=0811c3ae662b49a8c909f0cf&output=html&source=placeapi_v2', 'overall_rating': '4.5', 'image_num': '5', 'comment_num': '5', 'children': []}}"
"{'name': '华泰保险', 'location': {'lat': 34.301165, 'lng': 108.822682}, 'address': '陕西省西安市未央区天台九路东段西70米', 'province': '陕西省', 'city': '西安市', 'area': '未央区', 'detail': 1, 'uid': 'bd5d6ce24418b435c16c14d6', 'detail_info': {'tag': '金融;投资理财', 'type': 'life', 'detail_url': 'http://api.map.baidu.com/place/detail?uid=bd5d6ce24418b435c16c14d6&output=html&source=placeapi_v2', 'image_num': '3', 'children': []}}"
"{'name': '北京银行(大寨路支行)', 'location': {'lat': 34.251775, 'lng': 108.862109}, 'address': '大寨路铭城国际社区一号楼一层', 'province': '陕西省', 'city': '西安市', 'area': '雁塔区', 'telephone': '(029)63389554', 'detail': 1, 'uid': '342a2149808a63f117948e0e', 'detail_info': {'tag': '金融;银行', 'navi_location': {'lng': 108.8621232258, 'lat': 34.251578748927}, 'type': 'life', 'detail_url': 'http://api.map.baidu.com/place/detail?uid=342a2149808a63f117948e0e&output=html&source=placeapi_v2', 'overall_rating': '3.3', 'image_num': '1', 'comment_num': '4', 'children': []}}"
"{'name': '锦泰永昌保险销售(王寺营业部)', 'location': {'lat': 34.260861, 'lng': 108.805117}, 'address': '陕西省西安市长安区王寺南街69号附近', 'province': '陕西省', 'city': '西安市', 'area': '长安区', 'detail': 1, 'uid': '4c1d2a963e814f4280a00caf', 'detail_info': {'tag': '金融;投资理财', 'type': 'life', 'detail_url': 'http://api.map.baidu.com/place/detail?uid=4c1d2a963e814f4280a00caf&output=html&source=placeapi_v2', 'image_num': '5', 'children': []}}"
"{'name': '中国建设银行(西安车辆厂支行)', 'location': {'lat': 34.303988, 'lng': 108.848499}, 'address': '西安市建章路新华商住楼一层', 'province': '陕西省', 'city': '西安市', 'area': '未央区', 'street_id': 'bb1d38e495b213330c0a701a', 'telephone': '(029)84512316', 'detail': 1, 'uid': 'bb1d38e495b213330c0a701a', 'detail_info': {'tag': '金融;银行', 'navi_location': {'lng': 108.8488015061, 'lat': 34.303783418948}, 'type': 'life', 'detail_url': 'http://api.map.baidu.com/place/detail?uid=bb1d38e495b213330c0a701a&output=html&source=placeapi_v2', 'overall_rating': '3.4', 'image_num': '9', 'comment_num': '7', 'children': []}}"
"{'name': '中国工商银行(西安大庆路西口支行)', 'location': {'lat': 34.274696, 'lng': 108.876052}, 'address': '大庆路714号', 'province': '陕西省', 'city': '西安市', 'area': '莲湖区', 'street_id': '925c550fa05e2fb15a3ac83b', 'telephone': '(029)84610948', 'detail': 1, 'uid': '925c550fa05e2fb15a3ac83b', 'detail_info': {'tag': '金融;银行', 'navi_location': {'lng': 108.87589323607, 'lat': 34.274896508203}, 'type': 'life', 'detail_url': 'http://api.map.baidu.com/place/detail?uid=925c550fa05e2fb15a3ac83b&output=html&source=placeapi_v2', 'overall_rating': '2.0', 'image_num': '15', 'comment_num': '3', 'children': []}}"
"{'name': '平安创展保险销售', 'location': {'lat': 34.265508, 'lng': 108.807111}, 'address': '陕西省西安市长安区王寺西街29号附近', 'province': '陕西省', 'city': '西安市', 'area': '长安区', 'detail': 1, 'uid': '1cbbf78b17ca0f579222e0a8', 'detail_info': {'tag': '金融;投资理财', 'type': 'life', 'detail_url': 'http://api.map.baidu.com/place/detail?uid=1cbbf78b17ca0f579222e0a8&output=html&source=placeapi_v2', 'image_num': '5', 'children': []}}"
"{'name': '陕西新泰保险代理', 'location': {'lat': 34.301989, 'lng': 108.822726}, 'address': '西安市未央区曦源温泉小区3号楼1单元201', 'province': '陕西省', 'city': '西安市', 'area': '未央区', 'detail': 1, 'uid': 'caf4bdd701c3d3f1c7f50d70', 'detail_info': {'tag': '金融;投资理财', 'type': 'life', 'detail_url': 'http://api.map.baidu.com/place/detail?uid=caf4bdd701c3d3f1c7f50d70&output=html&source=placeapi_v2', 'image_num': '1', 'children': []}}"
"{'name': '中国邮政储蓄银行(昆明花园支行)', 'location': {'lat': 34.257951, 'lng': 108.883697}, 'address': '昆明路128号', 'province': '陕西省', 'city': '西安市', 'area': '雁塔区', 'street_id': '4b5cdceb21baa44c14948e16', 'telephone': '(029)84513392', 'detail': 1, 'uid': '4b5cdceb21baa44c14948e16', 'detail_info': {'tag': '金融;银行', 'navi_location': {'lng': 108.88369520987, 'lat': 34.258021987374}, 'type': 'life', 'detail_url': 'http://api.map.baidu.com/place/detail?uid=4b5cdceb21baa44c14948e16&output=html&source=placeapi_v2', 'overall_rating': '4.0', 'image_num': '12', 'comment_num': '2', 'children': []}}"
"{'name': '中国民生银行(天朗莱茵小城支行)', 'location': {'lat': 34.258737, 'lng': 108.871196},