"{'name': '岳旗寨足球场', 'location': {'lat': 34.24256183910474, 'lng': 108.81252047398826}, 'address': '陕西省西安市雁塔区鱼跃路', 'province': '陕西省', 'city': '西安市', 'area': '雁塔区', 'telephone': '13572993621', 'detail': 1, 'uid': 'e0787d4c5359bbefc27da273', 'detail_info': {'tag': '运动健身;体育场馆', 'type': 'life', 'detail_url': 'http://api.map.baidu.com/place/detail?uid=e0787d4c5359bbefc27da273&output=html&source=placeapi_v2', 'overall_rating': '0.0', 'image_num': '2', 'comment_num': '1', 'children': [], 'lat': 34.24256183910474, 'lng': 108.81252047398826}}"
"{'name': '陕西青年职业学院城市科技教学部', 'location': {'lat': 34.23671158643767, 'lng': 108.81642860825787}, 'address': '陕西省西安市雁塔区西宝疏导线', 'province': '陕西省', 'city': '西安市', 'area': '雁塔区', 'detail': 1, 'uid': '4253546f1bb0c0798f1a8978', 'detail_info': {'tag': '教育培训;其他', 'type': 'education', 'detail_url': 'http://api.map.baidu.com/place/detail?uid=4253546f1bb0c0798f1a8978&output=html&source=placeapi_v2', 'children': [], 'lat': 34.23671158643767, 'lng': 108.81642860825787}}"
"{'name': '蓝悦健身俱乐部', 'location': {'lat': 34.27025915734997, 'lng': 108.7735435895158}, 'address': '沣东新城王寺街办芊域溪源B区13号楼', 'province': '陕西省', 'city': '西安市', 'area': '长安区', 'telephone': '(029)84512440', 'detail': 1, 'uid': 'd3ed039225cd7cb958f6be32', 'detail_info': {'tag': '运动健身;健身中心', 'type': 'life', 'detail_url': 'http://api.map.baidu.com/place/detail?uid=d3ed039225cd7cb958f6be32&output=html&source=placeapi_v2', 'overall_rating': '4.5', 'image_num': '1', 'comment_num': '2', 'children': [], 'lat': 34.27025915734997, 'lng': 108.7735435895158}}"
"{'name': '伯乐健身(和平村店)', 'location': {'lat': 34.26069277368246, 'lng': 108.81948849573945}, 'address': '未央区三桥街道和平村十字西南角人人乐六楼', 'province': '陕西省', 'city': '西安市', 'area': '未央区', 'street_id': '332eef2d1aaf741f75e5b6a9', 'telephone': '(029)88771123', 'detail': 1, 'uid': '332eef2d1aaf741f75e5b6a9', 'detail_info': {'tag': '运动健身;健身中心', 'type': 'life', 'detail_url': 'http://api.map.baidu.com/place/detail?uid=332eef2d1aaf741f75e5b6a9&output=html&source=placeapi_v2', 'overall_rating': '5.0', 'image_num': '2', 'comment_num': '1', 'children': [], 'lat': 34.26069277368246, 'lng': 108.81948849573945}}"
"{'name': '圣心瑜伽(和平春天店)', 'location': {'lat': 34.25637876862573, 'lng': 108.81833995861922}, 'address': '陕西省西安市未央区四号路8号', 'province': '陕西省', 'city': '西安市', 'area': '未央区', 'telephone': '(029)84411416', 'detail': 1, 'uid': '2ddfeed42ff60902631c6728', 'detail_info': {'tag': '运动健身;健身中心', 'type': 'life', 'detail_url': 'http://api.map.baidu.com/place/detail?uid=2ddfeed42ff60902631c6728&output=html&source=placeapi_v2', 'price': '2792', 'overall_rating': '5.0', 'image_num': '16', 'comment_num': '1', 'children': [], 'lat': 34.25637876862573, 'lng': 108.81833995861922}}"
"{'name': '杰仕健身游泳', 'location': {'lat': 34.25993460965633, 'lng': 108.82107456739183}, 'address': '西安市未央区西宝疏导线与沣东大道交叉路口往南约50米(土门制药厂)', 'province': '陕西省', 'city': '西安市', 'area': '未央区', 'detail': 1, 'uid': 'a2aca2f20055fd833362128f', 'detail_info': {'tag': '运动健身;健身中心', 'type': 'life', 'detail_url': 'http://api.map.baidu.com/place/detail?uid=a2aca2f20055fd833362128f&output=html&source=placeapi_v2', 'image_num': '1', 'children': [], 'lat': 34.25993460965633, 'lng': 108.82107456739183}}"
"{'name': '千水莲瑜伽(西咸吾悦广场店)', 'location': {'lat': 34.25477262889423, 'lng': 108.81767058650215}, 'address': '西咸新区沣东新城昆明路与天台路交汇处西北角西咸吾悦广场7楼', 'province': '陕西省', 'city': '西安市', 'area': '未央区', 'telephone': '(029)89501549', 'detail': 1, 'uid': 'ee57b7b4509975d8f8f0cb61', 'detail_info': {'tag': '运动健身;健身中心', 'type': 'life', 'detail_url': 'http://api.map.baidu.com/place/detail?uid=ee57b7b4509975d8f8f0cb61&output=html&source=placeapi_v2', 'overall_rating': '0.0', 'image_num': '1', 'comment_num': '1', 'children': [], 'lat': 34.25477262889423, 'lng': 108.81767058650215}}"
"{'name': '舞欣级舞蹈工作室', 'location': {'lat': 34.26079850453571, 'lng': 108.8161597463848}, 'address': '红光路和平小学向西200米夏伟理发店二楼', 'province': '陕西省', 'city': '西安市', 'area': '未央区', 'detail': 1, 'uid': '16eb893b14cd9de726e0a0b6', 'detail_info': {'tag': '运动健身;健身中心', 'type': 'life', 'detail_url': 'http://api.map.baidu.com/place/detail?uid=16eb893b14cd9de726e0a0b6&output=html&source=placeapi_v2', 'image_num': '1', 'children': [], 'lat': 34.26079850453571, 'lng': 108.8161597463848}}"
"{'name': '星牌桌球俱乐部贡建斌台球联盟', 'location': {'lat': 34.27563590941129, 'lng': 108.8205729371042}, 'address': '陕西省西安市未央区天台五路54号3层', 'province': '陕西省', 'city': '西安市', 'area': '未央区', 'street_id': '16ac65f581eeb0e321f017ef', 'detail': 1, 'uid': '16ac65f581eeb0e321f017ef', 'detail_info': {'tag': '运动健身;体育场馆', 'type': 'life', 'detail_url': 'http://api.map.baidu.com/place/detail?uid=16ac65f581eeb0e321f017ef&output=html&source=placeapi_v2', 'price': '45', 'overall_rating': '5.0', 'image_num': '21', 'comment_num': '5', 'children': [], 'lat': 34.27563590941129, 'lng': 108.8205729371042}}"
"{'name': '盛卡丁车俱乐部', 'location': {'lat': 34.251725265618965, 'lng': 108.7861089217471}, 'address': '沣东新城阿房宫互助立交西南', 'province': '陕西省', 'city': '西安市', 'area': '长安区', 'detail': 1, 'uid': '2c803870cc2c11592fb908c4', 'detail_info': {'tag': '休闲娱乐;游戏场所', 'type': 'life', 'detail_url': 'http://api.map.baidu.com/place/detail?uid=2c803870cc2c11592fb908c4&output=html&source=placeapi_v2', 'overall_rating': '0.0', 'image_num': '10', 'comment_num': '1', 'children': [], 'lat': 34.251725265618965, 'lng': 108.7861089217471}}"
"{'name': '汉唐体育中心', 'location': {'lat': 34.25793819726711, 'lng': 108.81352227974611}, 'address': '陕西省西安市未央区沣东新城西环路1号汉唐体育中心', 'province': '陕西省', 'city': '西安市', 'area': '未央区', 'detail': 1, 'uid': 'f8d11a267f2f452109b93aa5', 'detail_info': {'tag': '运动健身;体育场馆', 'type': 'life', 'detail_url': 'http://api.map.baidu.com/place/detail?uid=f8d11a267f2f452109b93aa5&output=html&source=placeapi_v2', 'image_num': '1', 'children': [], 'lat': 34.25793819726711, 'lng': 108.81352227974611}}"
"{'name': 'gt健身房', 'location': {'lat': 34.302442549885996, 'lng': 108.80941644817831}, 'address': '陕西省西安市未央区启航时代广场c座gt健身房', 'province': '陕西省', 'city': '西安市', 'area': '未央区', 'detail': 1, 'uid': '170878bb592f99eb08f5ebd2', 'detail_info': {'tag': '运动健身;健身中心', 'type': 'life', 'detail_url': 'http://api.map.baidu.com/place/detail?uid=170878bb592f99eb08f5ebd2&output=html&source=placeapi_v2', 'overall_rating': '3.2', 'image_num': '1', 'comment_num': '7', 'children': [], 'lat': 34.302442549885996, 'lng': 108.80941644817831}}"
"{'name': '尖叫舞蹈工作室(三桥店)', 'location': {'lat': 34.302975020239316, 'lng': 108.8114902015565}, 'address': '陕西省西安市未央区后卫寨启航佳苑B区西门北3楼', 'province': '陕西省', 'city': '西安市', 'area': '未央区', 'telephone': '(029)89309302', 'detail': 1, 'uid': '0464a0ae00aa5e212b3a9f9b', 'detail_info': {'tag': '运动健身;健身中心', 'type': 'life', 'detail_url': 'http://api.map.baidu.com/place/detail?uid=0464a0ae00aa5e212b3a9f9b&output=html&source=placeapi_v2', 'overall_rating': '5.0', 'image_num': '4', 'comment_num': '1', 'children': [], 'lat': 34.302975020239316, 'lng': 108.8114902015565}}"
"{'name': 'VPOWER健身定制工作室', 'location': {'lat': 34.29132993765786, 'lng': 108.81963854842041}, 'address': '陕西省西安市征和六路华润二十四城四期38-10203号', 'province': '陕西省', 'city': '西安市', 'area': '未央区', 'telephone': '15029285595', 'detail': 1, 'uid': '7c03208a9460ba615fbe8678', 'detail_info': {'tag': '运动健身;健身中心', 'type': 'life', 'detail_url': 'http://api.map.baidu.com/place/detail?uid=7c03208a9460ba615fbe8678&output=html&source=placeapi_v2', 'overall_rating': '0.0', 'image_num': '1', 'comment_num': '1', 'children': [], 'lat': 34.29132993765786, 'lng': 108.81963854842041}}"
"{'name': '汉唐体育运动中心', 'location': {'lat': 34.30923703477391, 'lng': 108.80880611034819}, 'address': '孙围墙工业园西环路1号', 'province': '陕西省', 'city': '西安市', 'area': '未央区', 'telephone': '(029)84533700', 'detail': 1, 'uid': '1ee1d10698f734997ab55c49', 'detail_info': {'tag': '运动健身;体育场馆', 'type': 'life', 'detail_url': 'http://api.map.baidu.com/place/detail?uid=1ee1d10698f734997ab55c49&output=html&source=placeapi_v2', 'overall_rating': '5.0', 'image_num': '3', 'comment_num': '1', 'children': [], 'lat': 34.30923703477391, 'lng': 108.80880611034819}}"
"{'name': '汉唐体育中心羽毛球中心', 'location': {'lat': 34.30895113089566, 'lng': 108.80881341046859}, 'address': '陕西省西安市未央区孙武路', 'province': '陕西省', 'city': '西安市', 'area': '未央区', 'detail': 1, 'uid': '611a95d2ce2b5fc02afc4814', 'detail_info': {'tag': '运动健身;体育场馆', 'type': 'life', 'detail_url': 'http://api.map.baidu.com/place/detail?uid=611a95d2ce2b5fc02afc4814&output=html&source=placeapi_v2', 'overall_rating': '0.0', 'image_num': '2', 'children': [], 'lat': 34.30895113089566, 'lng': 108.80881341046859}}"
"{'name': '浪潮三桥天空球场', 'location': {'lat': 34.297077426485004, 'lng': 108.82088009349765}, 'address': '陕西省西安市未央区大明宫建材家居城三桥店7楼', 'province': '陕西省', 'city': '西安市', 'area': '未央区', 'street_id': 'd7ad9f35e1bfbe7ae5e965ea', 'detail': 1, 'uid': 'd7ad9f35e1bfbe7ae5e965ea', 'detail_info': {'tag': '运动健身;体育场馆', 'type': 'life', 'detail_url': 'http://api.map.baidu.com/place/detail?uid=d7ad9f35e1bfbe7ae5e965ea&output=html&source=placeapi_v2', 'overall_rating': '5.0', 'image_num': '1', 'comment_num': '1', 'children': [], 'lat': 34.297077426485004, 'lng': 108.82088009349765}}"
"{'name': '汉唐足球场', 'location': {'lat': 34.30931202688255, 'lng': 108.80880302314269}, 'address': '陕西省西安市未央区孙武路', 'province': '陕西省', 'city': '西安市', 'area': '未央区', 'telephone': '(029)84533700', 'detail': 1, 'uid': '191b2ce6415e5f729222e09a', 'detail_info': {'tag': '运动健身;体育场馆', 'type': 'life', 'detail_url': 'http://api.map.baidu.com/place/detail?uid=191b2ce6415e5f729222e09a&output=html&source=placeapi_v2', 'image_num': '1', 'children': [], 'lat': 34.30931202688255, 'lng': 108.80880302314269}}"
"{'name': '尊豪台球厂', 'location': {'lat': 34.302680777309654, 'lng': 108.80945858746175}, 'address': '陕西省西安市未央区G312(西咸大道)启航时代广场C座7楼', 'province': '陕西省', 'city': '西安市', 'area': '未央区', 'street_id': '894164726f91f556a8f0cd45', 'telephone': '13384997623', 'detail': 1, 'uid': '894164726f91f556a8f0cd45', 'detail_info': {'tag': '购物;商铺', 'type': 'shopping', 'detail_url': 'http://api.map.baidu.com/place/detail?uid=894164726f91f556a8f0cd45&output=html&source=placeapi_v2', 'children': [], 'lat': 34.302680777309654, 'lng': 108.80945858746175}}"
"{'name': '陕西浪潮足球俱乐部', 'location': {'lat': 34.29625809371594, 'lng': 108.82168868950006}, 'address': '陕西省西安市未央区三桥路157附近', 'province': '陕西省', 'city': '西安市', 'area': '未央区', 'detail': 1, 'uid': '25e68a37b8b4bdb40bccdd89', 'detail_info': {'tag': '运动健身;体育场馆', 'type': 'life', 'detail_url': 'http://api.map.baidu.com/place/detail?uid=25e68a37b8b4bdb40bccdd89&output=html&source=placeapi_v2', 'image_num': '5', 'children': [], 'lat': 34.29625809371594, 'lng': 108.82168868950006}}"
"{'name': '中航健身服务有限公司', 'location': {'lat': 34.302361688651374, 'lng': 108.80914060605579}, 'address': '陕西省西安市未央区后围寨启航时代广场C座3F', 'province': '陕西省', 'city': '西安市', 'area': '未央区', 'street_id': 'c4bec9c5283211740ab93a27', 'detail': 1, 'uid': 'c4bec9c5283211740ab93a27', 'detail_info': {'tag': '公司企业;公司', 'type': 'life', 'detail_url': 'http://api.map.baidu.com/place/detail?uid=c4bec9c5283211740ab93a27&output=html&source=placeapi_v2', 'overall_rating': '3.3', 'image_num': '1', 'comment_num': '15', 'children': [], 'lat': 34.302361688651374, 'lng': 108.80914060605579}}"
"{'name': '动点桌球俱乐部', 'location': {'lat': 34.334651571235455, 'lng': 108.823513233739}, 'address': '陕西省西安市未央区丰产路73号北50米', 'province': '陕西省', 'city': '西安市', 'area': '未央区', 'telephone': '18729581041', 'detail': 1, 'uid': '480e103897a799f7b6f42f52', 'detail_info': {'tag': '运动健身;体育场馆', 'type': 'life', 'detail_url': 'http://api.map.baidu.com/place/detail?uid=480e103897a799f7b6f42f52&output=html&source=placeapi_v2', 'image_num': '5', 'children': [], 'lat': 34.334651571235455, 'lng': 108.823513233739}}"
"{'name': '舞精灵舞蹈班', 'location': {'lat': 34.37633554651572, 'lng': 108.77952120998677}, 'address': '陕西省咸阳市渭城区X101', 'province': '陕西省', 'city': '咸阳市', 'area': '渭城区', 'street_id': '6263dbecae17d9cd4c6d465b', 'detail': 1, 'uid': '6263dbecae17d9cd4c6d465b', 'detail_info': {'tag': '运动健身;健身中心', 'type': 'life', 'detail_url': 'http://api.map.baidu.com/place/detail?uid=6263dbecae17d9cd4c6d465b&output=html&source=placeapi_v2', 'image_num': '3', 'children': [], 'lat': 34.37633554651572, 'lng': 108.77952120998677}}"
"{'name': '青少年网球训练中心', 'location': {'lat': 34.37507019707272, 'lng': 108.79046767129829}, 'address': '陕西省咸阳市渭城区金旭路秦汉新城服务中心院内', 'province': '陕西省', 'city': '咸阳市', 'area': '渭城区', 'detail': 1, 'uid': '802ebb4e458caacf75e5b6d6', 'detail_info': {'tag': '运动健身;体育场馆', 'type': 'life', 'detail_url': 'http://api.map.baidu.com/place/detail?uid=802ebb4e458caacf75e5b6d6&output=html&source=placeapi_v2', 'overall_rating': '0.0', 'image_num': '1', 'comment_num': '1', 'children': [], 'lat': 34.37507019707272, 'lng': 108.79046767129829}}"
"{'name': '猎鱼俱乐部', 'location': {'lat': 34.37291897535115, 'lng': 108.76980550853858}, 'address': '长陵路北50米', 'province': '陕西省', 'city': '咸阳市', 'area': '渭城区', 'detail': 1, 'uid': 'fdd45c420284cc559603192b', 'detail_info': {'tag': '运动健身;体育场馆', 'type': 'life', 'detail_url': 'http://api.map.baidu.com/place/detail?uid=fdd45c420284cc559603192b&output=html&source=placeapi_v2', 'image_num': '1', 'children': [], 'lat': 34.37291897535115, 'lng': 108.76980550853858}}"
"{'name': '星瀚云动健身', 'location': {'lat': 34.19187842153592, 'lng': 108.86751867513084}, 'address': '高新区锦业一路56号3幢1单元10000室西安研祥城市广场3-02号', 'province': '陕西省', 'city': '西安市', 'area': '雁塔区', 'telephone': '(029)88899935', 'detail': 1, 'uid': '7a85cd0d9998e273d91318fd', 'detail_info': {'tag': '运动健身;健身中心', 'type': 'life', 'detail_url': 'http://api.map.baidu.com/place/detail?uid=7a85cd0d9998e273d91318fd&output=html&source=placeapi_v2', 'overall_rating': '4.9', 'image_num': '44', 'comment_num': '34', 'children': [], 'lat': 34.19187842153592, 'lng': 108.86751867513084}}"
"{'name': '良得健身', 'location': {'lat': 34.21292897178478, 'lng': 108.87655904279391}, 'address': '科技六路枫林意树9号楼', 'province': '陕西省', 'city': '西安市', 'area': '雁塔区', 'telephone': '15209264420', 'detail': 1, 'uid': 'c91d8361667d3453f4eafc1a', 'detail_info': {'tag': '运动健身;健身中心', 'navi_location': {'lng': 108.8879511029, 'lat': 34.216936971859}, 'type': 'life', 'detail_url': 'http://api.map.baidu.com/place/detail?uid=c91d8361667d3453f4eafc1a&output=html&source=placeapi_v2', 'overall_rating': '4.4', 'image_num': '15', 'comment_num': '45', 'children': [], 'lat': 34.21292897178478, 'lng': 108.87655904279391}}"
"{'name': '启力健身', 'location': {'lat': 34.18365128660762, 'lng': 108.85068706629025}, 'address': '陕西省西安市雁塔区锦业二路73号', 'province': '陕西省', 'city': '西安市', 'area': '雁塔区', 'street_id': 'c87be9adf6be00cbfe0eb067', 'detail': 1, 'uid': 'c87be9adf6be00cbfe0eb067', 'detail_info': {'tag': '运动健身;健身中心', 'type': 'life', 'detail_url': 'http://api.map.baidu.com/place/detail?uid=c87be9adf6be00cbfe0eb067&output=html&source=placeapi_v2', 'overall_rating': '4.0', 'image_num': '24', 'comment_num': '4', 'children': [], 'lat': 34.18365128660762, 'lng': 108.85068706629025}}"
"{'name': '美格菲健身中心(锦业铂金店)', 'location': {'lat': 34.194890221584096, 'lng': 108.87287950204548}, 'address': '陕西省西安市雁塔区高新锦业路东段32号锦业时代B1F4层', 'province': '陕西省', 'city': '西安市', 'area': '雁塔区', 'street_id': '4a0a4e371f67c60e3686f416', 'telephone': '(029)81106688', 'detail': 1, 'uid': '4a0a4e371f67c60e3686f416', 'detail_info': {'tag': '运动健身;健身中心', 'navi_location': {'lng': 108.88405101431, 'lat': 34.199683056929}, 'type': 'life', 'detail_url': 'http://api.map.baidu.com/place/detail?uid=4a0a4e371f67c60e3686f416&output=html&source=placeapi_v2', 'overall_rating': '4.7', 'image_num': '12', 'comment_num': '25', 'children': [], 'lat': 34.194890221584096, 'lng': 108.87287950204548}}"
"{'name': '欧迈健身', 'location': {'lat': 34.18448164693853, 'lng': 108.87679207848862}, 'address': '锦业二路逸翠尚府北区商业街区70104', 'province': '陕西省', 'city': '西安市', 'area': '雁塔区', 'detail': 1, 'uid': '5033bdc85d1f4f23c036441e', 'detail_info': {'tag': '运动健身;健身中心', 'type': 'life', 'detail_url': 'http://api.map.baidu.com/place/detail?uid=5033bdc85d1f4f23c036441e&output=html&source=placeapi_v2', 'overall_rating': '5.0', 'image_num': '3', 'comment_num': '3', 'children': [], 'lat': 34.18448164693853, 'lng': 108.87679207848862}}"
"{'name': '快快智能健身(逸翠园店)', 'location': {'lat': 34.18315040181959, 'lng': 108.87581697475842}, 'address': '高新区丈八二路逸翠尚府南区逸翠园3B期1幢7单元70101号', 'province': '陕西省', 'city': '西安市', 'area': '雁塔区', 'street_id': 'b4b629c78158773681288aeb', 'detail': 1, 'uid': 'b4b629c78158773681288aeb', 'detail_info': {'tag': '运动健身;健身中心', 'type': 'life', 'detail_url': 'http://api.map.baidu.com/place/detail?uid=b4b629c78158773681288aeb&output=html&source=placeapi_v2', 'overall_rating': '4.8', 'image_num': '5', 'comment_num': '26', 'children': [], 'lat': 34.18315040181959, 'lng': 108.87581697475842}}"
"{'name': '高科朗山运动健身会所', 'location': {'lat': 34.20876537569882, 'lng': 108.8760262830086}, 'address': '科技七路与团结南路交叉口高科朗山商铺', 'province': '陕西省', 'city': '西安市', 'area': '雁塔区', 'detail': 1, 'uid': '42a7df33a03b0c3338221c77', 'detail_info': {'tag': '运动健身;健身中心', 'type': 'life', 'detail_url': 'http://api.map.baidu.com/place/detail?uid=42a7df33a03b0c3338221c77&output=html&source=placeapi_v2', 'overall_rating': '4.4', 'image_num': '1', 'comment_num': '5', 'children': [], 'lat': 34.20876537569882, 'lng': 108.8760262830086}}"
"{'name': '泛运动游泳健身综合馆', 'location': {'lat': 34.19795706015801, 'lng': 108.85958719107394}, 'address': '丈八五路高科尚都·one商城B座', 'province': '陕西省', 'city': '西安市', 'area': '雁塔区', 'telephone': '(029)62316000', 'detail': 1, 'uid': 'af69a83d6c83235d82a12e71', 'detail_info': {'tag': '运动健身;健身中心', 'type': 'life', 'detail_url': 'http://api.map.baidu.com/place/detail?uid=af69a83d6c83235d82a12e71&output=html&source=placeapi_v2', 'overall_rating': '4.7', 'image_num': '4', 'comment_num': '11', 'children': [], 'lat': 34.19795706015801, 'lng': 108.85958719107394}}"
"{'name': '橙月健身', 'location': {'lat': 34.21222846679312, 'lng': 108.86904656855336}, 'address': '西安市雁塔区丈八北路与科技六路交叉路口往南约50米(茶张馨苑)', 'province': '陕西省', 'city': '西安市', 'area': '雁塔区', 'detail': 1, 'uid': 'a93c4b6fb48d0c056268589d', 'detail_info': {'tag': '运动健身;健身中心', 'type': 'life', 'detail_url': 'http://api.map.baidu.com/place/detail?uid=a93c4b6fb48d0c056268589d&output=html&source=placeapi_v2', 'overall_rating': '1.0', 'image_num': '6', 'comment_num': '4', 'children': [], 'lat': 34.21222846679312, 'lng': 108.86904656855336}}"
"{'name': 'UP GOING少儿体适能运动馆', 'location': {'lat': 34.21221128914779, 'lng': 108.88120419544993}, 'address': '高新区科技六路橡树街区E座6-20103号', 'province': '陕西省', 'city': '西安市', 'area': '雁塔区', 'telephone': '(029)88896622', 'detail': 1, 'uid': '23ae912934eb5173ae080fc4', 'detail_info': {'tag': '运动健身;健身中心', 'type': 'life', 'detail_url': 'http://api.map.baidu.com/place/detail?uid=23ae912934eb5173ae080fc4&output=html&source=placeapi_v2', 'overall_rating': '5.0', 'image_num': '6', 'comment_num': '8', 'children': [], 'lat': 34.21221128914779, 'lng': 108.88120419544993}}"
"{'name': '北京红舞鞋少儿芭蕾形体舞蹈(高新绿地校区)', 'location': {'lat': 34.1959727616951, 'lng': 108.87011873585946}, 'address': '陕西省西安市雁塔区锦业路绿地国际俱乐部二层', 'province': '陕西省', 'city': '西安市', 'area': '雁塔区', 'telephone': '(029)88889780,15353658843', 'detail': 1, 'uid': 'bf6ffa0e9a49e89c882fb5b0', 'detail_info': {'tag': '运动健身;健身中心', 'type': 'life', 'detail_url': 'http://api.map.baidu.com/place/detail?uid=bf6ffa0e9a49e89c882fb5b0&output=html&source=placeapi_v2', 'overall_rating': '4.0', 'image_num': '4', 'comment_num': '1', 'children': [], 'lat': 34.1959727616951, 'lng': 108.87011873585946}}"
"{'name': 'S+健身工作室', 'location': {'lat': 34.18358376285909, 'lng': 108.87289323328234}, 'address': '陕西省西安市雁塔区锦业二路辅路', 'province': '陕西省', 'city': '西安市', 'area': '雁塔区', 'telephone': '17782963636', 'detail': 1, 'uid': '54fdd636403910a175e5b625', 'detail_info': {'tag': '运动健身;健身中心', 'type': 'life', 'detail_url': 'http://api.map.baidu.com/place/detail?uid=54fdd636403910a175e5b625&output=html&source=placeapi_v2', 'overall_rating': '5.0', 'image_num': '4', 'comment_num': '1', 'children': [], 'lat': 34.18358376285909, 'lng': 108.87289323328234}}"
"{'name': '辉力搏击健身中心', 'location': {'lat': 34.19863306772449, 'lng': 108.84778157407736}, 'address': '丈八西路袁旗寨51排2号辉力搏击', 'province': '陕西省', 'city': '西安市', 'area': '雁塔区', 'telephone': '13389247434', 'detail': 1, 'uid': '3851329df2129f66081cc71f', 'detail_info': {'tag': '运动健身;健身中心', 'type': 'life', 'detail_url': 'http://api.map.baidu.com/place/detail?uid=3851329df2129f66081cc71f&output=html&source=placeapi_v2', 'overall_rating': '3.0', 'image_num': '7', 'comment_num': '1', 'children': [], 'lat': 34.19863306772449, 'lng': 108.84778157407736}}"
"{'name': '懒虫健身(西安中投国际店)', 'location': {'lat': 34.192516974307, 'lng': 108.87731418695765}, 'address': '陕西省西安市雁塔区锦业一路中投国际B座1001室', 'province': '陕西省', 'city': '西安市', 'area': '雁塔区', 'detail': 1, 'uid': '8186ac71b35f0c2f901fc913', 'detail_info': {'tag': '运动健身;健身中心', 'type': 'life', 'detail_url': 'http://api.map.baidu.com/place/detail?uid=8186ac71b35f0c2f901fc913&output=html&source=placeapi_v2', 'overall_rating': '4.8', 'image_num': '1', 'comment_num': '39', 'children': [], 'lat': 34.192516974307, 'lng': 108.87731418695765}}"
"{'name': 'TNT健身', 'location': {'lat': 34.209567326665685, 'lng': 108.86696563853559}, 'address': '丈八街办科技七路国宾中央区底商19号楼三楼302室', 'province': '陕西省', 'city': '西安市', 'area': '雁塔区', 'detail': 1, 'uid': 'ed40e9380ac0fcec260bd01b', 'detail_info': {'tag': '运动健身;健身中心', 'type': 'life', 'detail_url': 'http://api.map.baidu.com/place/detail?uid=ed40e9380ac0fcec260bd01b&output=html&source=placeapi_v2', 'image_num': '1', 'children': [], 'lat': 34.209567326665685, 'lng': 108.86696563853559}}"
"{'name': 'v爱瑜伽', 'location': {'lat': 34.193788113996604, 'lng': 108.87057291367987}, 'address': '西安市雁塔区高新区丈八三路十字西南角旗远锦樾1号楼3单元32层3204室', 'province': '陕西省', 'city': '西安市', 'area': '雁塔区', 'street_id': '2efe990042da7a695e17c35e', 'telephone': '13759889683', 'detail': 1, 'uid': '2efe990042da7a695e17c35e', 'detail_info': {'tag': '运动健身;健身中心', 'type': 'life', 'detail_url': 'http://api.map.baidu.com/place/detail?uid=2efe990042da7a695e17c35e&output=html&source=placeapi_v2', 'overall_rating': '5.0', 'image_num': '13', 'comment_num': '31', 'children': [], 'lat': 34.193788113996604, 'lng': 108.87057291367987}}"
"{'name': '西安绿地假日酒店-健身中心', 'location': {'lat': 34.19612890589891, 'lng': 108.87893625170358}, 'address': '锦业路5号西安绿地假日酒店4楼', 'province': '陕西省', 'city': '西安市', 'area': '雁塔区', 'telephone': '(029)68689999', 'detail': 1, 'uid': '19c1f55dfa200f7f990050ce', 'detail_info': {'tag': '运动健身;健身中心', 'type': 'life', 'detail_url': 'http://api.map.baidu.com/place/detail?uid=19c1f55dfa200f7f990050ce&output=html&source=placeapi_v2', 'overall_rating': '4.5', 'image_num': '1', 'comment_num': '2', 'children': [], 'lat': 34.19612890589891, 'lng': 108.87893625170358}}"
"{'name': '爱健身·私人健身会所', 'location': {'lat': 34.18391706672733, 'lng': 108.86908214955112}, 'address': '西安市雁塔区锦业二路与傅西巷交叉路口往东约50米(逸翠园·西安4期御峰)', 'province': '陕西省', 'city': '西安市', 'area': '雁塔区', 'detail': 1, 'uid': 'cd25a66935eb5c194354d774', 'detail_info': {'tag': '运动健身;健身中心', 'type': 'life', 'detail_url': 'http://api.map.baidu.com/place/detail?uid=cd25a66935eb5c194354d774&output=html&source=placeapi_v2', 'overall_rating': '4.7', 'image_num': '1', 'comment_num': '25', 'children': [], 'lat': 34.18391706672733, 'lng': 108.86908214955112}}"
"{'name': '梵之音瑜伽', 'location': {'lat': 34.185175528841675, 'lng': 108.87707544043379}, 'address': '唐延南路与锦业二路十字西北角逸翠尚府北区8号楼2单元1201室(咖啡陪你)', 'province': '陕西省', 'city': '西安市', 'area': '雁塔区', 'street_id': '1015c3a362fbacb6764ff1ab', 'detail': 1, 'uid': '1015c3a362fbacb6764ff1ab', 'detail_info': {'tag': '运动健身;健身中心', 'type': 'life', 'detail_url': 'http://api.map.baidu.com/place/detail?uid=1015c3a362fbacb6764ff1ab&output=html&source=placeapi_v2', 'price': '152', 'overall_rating': '5.0', 'image_num': '1', 'comment_num': '2', 'children': [], 'lat': 34.185175528841675, 'lng': 108.87707544043379}}"
"{'name': '青苗瑜伽东方舞', 'location': {'lat': 34.205074546146214, 'lng': 108.85076317012732}, 'address': '西安市雁塔区高新区科技八路与丈八六路什字西南角盛泽万家灯火小区3号楼18层1802室', 'province': '陕西省', 'city': '西安市', 'area': '雁塔区', 'telephone': '15902936445,15229056589', 'detail': 1, 'uid': '2d097d6831223ab0b35c6af8', 'detail_info': {'tag': '运动健身;健身中心', 'type': 'life', 'detail_url': 'http://api.map.baidu.com/place/detail?uid=2d097d6831223ab0b35c6af8&output=html&source=placeapi_v2', 'overall_rating': '5.0', 'image_num': '1', 'comment_num': '2', 'children': [], 'lat': 34.205074546146214, 'lng': 108.85076317012732}}"
"{'name': '陕西网球中心', 'location': {'lat': 34.20177041351306, 'lng': 108.88297522057783}, 'address': '陕西省西安市雁塔区丈八东路303号', 'province': '陕西省', 'city': '西安市', 'area': '雁塔区', 'street_id': '6fddd7fd759011663417dcb5', 'telephone': '(029)88587777', 'detail': 1, 'uid': '6fddd7fd759011663417dcb5', 'detail_info': {'tag': '运动健身;体育场馆', 'navi_location': {'lng': 108.89399974334, 'lat': 34.205353603367}, 'type': 'life', 'detail_url': 'http://api.map.baidu.com/place/detail?uid=6fddd7fd759011663417dcb5&output=html&source=placeapi_v2', 'price': '50', 'overall_rating': '4.4', 'image_num': '21', 'comment_num': '29', 'children': [], 'lat': 34.20177041351306, 'lng': 108.88297522057783}}"
"{'name': '陕西省体育训练中心', 'location': {'lat': 34.20379741265635, 'lng': 108.88055011386868}, 'address': '陕西省西安市丈八东路303号', 'province': '陕西省', 'city': '西安市', 'area': '雁塔区', 'street_id': '5e6e03365aaa62676140a943', 'telephone': '(029)88587205', 'detail': 1, 'uid': '5e6e03365aaa62676140a943', 'detail_info': {'tag': '运动健身;体育场馆', 'navi_location': {'lng': 108.89562479328, 'lat': 34.204355270456}, 'type': 'education', 'detail_url': 'http://api.map.baidu.com/place/detail?uid=5e6e03365aaa62676140a943&output=html&source=placeapi_v2', 'overall_rating': '2.5', 'children': [], 'lat': 34.20379741265635, 'lng': 108.88055011386868}}"
"{'name': '励进海升酒店-健身中心', 'location': {'lat': 34.21438841347484, 'lng': 108.88036016496542}, 'address': '西安市高新区沣惠南路34号励进海升酒店4层', 'province': '陕西省', 'city': '西安市', 'area': '雁塔区', 'street_id': '7f38f29abf32b34dad31e5c7', 'telephone': '(029)83266666', 'detail': 1, 'uid': '7f38f29abf32b34dad31e5c7', 'detail_info': {'tag': '运动健身;健身中心', 'type': 'life', 'detail_url': 'http://api.map.baidu.com/place/detail?uid=7f38f29abf32b34dad31e5c7&output=html&source=placeapi_v2', 'overall_rating': '0.0', 'image_num': '1', 'children': [], 'lat': 34.21438841347484, 'lng': 108.88036016496542}}"
"{'name': '图腾羽毛球俱乐部', 'location': {'lat': 34.195007860530644, 'lng': 108.85787303831006}, 'address': '高新区锦业路70号卫星大厦1号馆', 'province': '陕西省', 'city': '西安市', 'area': '雁塔区', 'street_id': '2a01f2649f895fba14948eb6', 'telephone': '(029)81026078', 'detail': 1, 'uid': '2a01f2649f895fba14948eb6', 'detail_info': {'tag': '运动健身;体育场馆', 'navi_location': {'lng': 108.86872154037, 'lat': 34.199959772233}, 'type': 'life', 'detail_url': 'http://api.map.baidu.com/place/detail?uid=2a01f2649f895fba14948eb6&output=html&source=placeapi_v2', 'price': '38', 'overall_rating': '4.1', 'image_num': '30', 'comment_num': '32', 'children': [], 'lat': 34.195007860530644, 'lng': 108.85787303831006}}"
"{'name': '西安捷阳篮球馆', 'location': {'lat': 34.18774228480552, 'lng': 108.87444736822212}, 'address': '丈八二路16号', 'province': '陕西省', 'city': '西安市', 'area': '雁塔区', 'street_id': '856bfed89273444754bfffce', 'telephone': '(029)81128300,18829788869', 'detail': 1, 'uid': '856bfed89273444754bfffce', 'detail_info': {'tag': '运动健身;体育场馆', 'navi_location': {'lng': 108.88656858108, 'lat': 34.191739189474}, 'type': 'life', 'detail_url': 'http://api.map.baidu.com/place/detail?uid=856bfed89273444754bfffce&output=html&source=placeapi_v2', 'overall_rating': '3.0', 'image_num': '10', 'comment_num': '4', 'children': [], 'lat': 34.18774228480552, 'lng': 108.87444736822212}}"
"{'name': '金泰恒业羽毛球馆', 'location': {'lat': 34.20894258679539, 'lng': 108.86254802364758}, 'address': '陕西省西安市雁塔区科技七路32号金泰新理城东门对面停车场楼上4楼', 'province': '陕西省', 'city': '西安市', 'area': '雁塔区', 'street_id': 'ae1ac2b763c9dc0d83a00c1c', 'telephone': '(029)84505997', 'detail': 1, 'uid': 'ae1ac2b763c9dc0d83a00c1c', 'detail_info': {'tag': '运动健身;体育场馆', 'navi_location': {'lng': 108.87314692299, 'lat': 34.213246603685}, 'type': 'life', 'detail_url': 'http://api.map.baidu.com/place/detail?uid=ae1ac2b763c9dc0d83a00c1c&output=html&source=placeapi_v2', 'overall_rating': '4.0', 'image_num': '15', 'comment_num': '1', 'children': [], 'lat': 34.20894258679539, 'lng': 108.86254802364758}}"
"{'name': '华夏国武散打馆', 'location': {'lat': 34.20518829996048, 'lng': 108.87685963018347}, 'address': '西高新丈八东路319号', 'province': '陕西省', 'city': '西安市', 'area': '雁塔区', 'telephone': '(029)83704618', 'detail': 1, 'uid': '56ab3a97ee509f45246e9887', 'detail_info': {'tag': '运动健身;体育场馆', 'type': 'life', 'detail_url': 'http://api.map.baidu.com/place/detail?uid=56ab3a97ee509f45246e9887&output=html&source=placeapi_v2', 'overall_rating': '4.5', 'image_num': '3', 'comment_num': '2', 'children': [], 'lat': 34.20518829996048, 'lng': 108.87685963018347}}"
"{'name': '奥体球场', 'location': {'lat': 34.20652543173155, 'lng': 108.88045253984052}, 'address': '西安市雁塔区唐延路303号', 'province': '陕西省', 'city': '西安市', 'area': '雁塔区', 'street_id': '6a942c8fee22eb482cb96d04', 'detail': 1, 'uid': '6a942c8fee22eb482cb96d04', 'detail_info': {'tag': '运动健身;体育场馆', 'type': 'life', 'detail_url': 'http://api.map.baidu.com/place/detail?uid=6a942c8fee22eb482cb96d04&output=html&source=placeapi_v2', 'overall_rating': '3.0', 'image_num': '2', 'comment_num': '1', 'children': [], 'lat': 34.20652543173155, 'lng': 108.88045253984052}}"
"{'name': '祯泰拳馆', 'location': {'lat': 34.19498093405979, 'lng': 108.87370480173759}, 'address': '西安市雁塔区锦业路锦业时代b3栋4楼', 'province': '陕西省', 'city': '西安市', 'area': '雁塔区', 'street_id': 'ac80cc5251ee5325f50e775b', 'detail': 1, 'uid': 'ac80cc5251ee5325f50e775b', 'detail_info': {'tag': '运动健身;体育场馆', 'navi_location': {'lng': 108.88342493759, 'lat': 34.199459685539}, 'type': 'life', 'detail_url': 'http://api.map.baidu.com/place/detail?uid=ac80cc5251ee5325f50e775b&output=html&source=placeapi_v2', 'overall_rating': '4.7', 'image_num': '19', 'comment_num': '87', 'children': [], 'lat': 34.19498093405979, 'lng': 108.87370480173759}}"
"{'name': '奥斯丁台球俱乐部', 'location': {'lat': 34.21167960954855, 'lng': 108.86931486494332}, 'address': '陕西省西安市雁塔区高新区丈八北路茶张馨苑东门门口三楼', 'province': '陕西省', 'city': '西安市', 'area': '雁塔区', 'telephone': '15829269295', 'detail': 1, 'uid': 'e39316810b6c4f92a10464fc', 'detail_info': {'tag': '运动健身;体育场馆', 'navi_location': {'lng': 108.88025647991, 'lat': 34.215984711941}, 'type': 'life', 'detail_url': 'http://api.map.baidu.com/place/detail?uid=e39316810b6c4f92a10464fc&output=html&source=placeapi_v2', 'overall_rating': '4.4', 'image_num': '4', 'comment_num': '8', 'children': [], 'lat': 34.21167960954855, 'lng': 108.86931486494332}}"
"{'name': '陕西省体育训练中心-游泳馆', 'location': {'lat': 34.205606428220435, 'lng': 108.87675261594076}, 'address': '高新区丈八东路319号体育训练中心(跳水馆西边500米)', 'province': '陕西省', 'city': '西安市', 'area': '雁塔区', 'street_id': '7929e011aefd208e1cf74d49', 'telephone': '13379183487', 'detail': 1, 'uid': '7929e011aefd208e1cf74d49', 'detail_info': {'tag': '运动健身;体育场馆', 'navi_location': {'lng': 108.88791618936, 'lat': 34.209559240043}, 'type': 'life', 'detail_url': 'http://api.map.baidu.com/place/detail?uid=7929e011aefd208e1cf74d49&output=html&source=placeapi_v2', 'price': '38', 'overall_rating': '4.0', 'image_num': '24', 'comment_num': '100', 'children': [], 'lat': 34.205606428220435, 'lng': 108.87675261594076}}"
"{'name': '奥林匹克公园', 'location': {'lat': 34.204659549855776, 'lng': 108.87625963939641}, 'address': '高新区科技八路', 'province': '陕西省', 'city': '西安市', 'area': '雁塔区', 'street_id': '565f7133801ef8ff78f79686', 'detail': 1, 'uid': '565f7133801ef8ff78f79686', 'detail_info': {'tag': '运动健身;体育场馆', 'navi_location': {'lng': 108.88697050722, 'lat': 34.207856146504}, 'type': 'scope', 'detail_url': 'http://api.map.baidu.com/place/detail?uid=565f7133801ef8ff78f79686&output=html&source=placeapi_v2', 'overall_rating': '1.3', 'children': [], 'lat': 34.204659549855776, 'lng': 108.87625963939641}}"
"{'name': '乐奇亲子游泳俱乐部(西安中心)', 'location': {'lat': 34.2124757142082, 'lng': 108.88175109522113}, 'address': '沣惠南路36号橡树街区7号楼3层', 'province': '陕西省', 'city': '西安市', 'area': '雁塔区', 'telephone': '(029)89581964,(029)89581946', 'detail': 1, 'uid': 'f85f65093ff7fa80fa2d6189', 'detail_info': {'tag': '运动健身;体育场馆', 'navi_location': {'lng': 108.89300512241, 'lat': 34.216729825481}, 'type': 'life', 'detail_url': 'http://api.map.baidu.com/place/detail?uid=f85f65093ff7fa80fa2d6189&output=html&source=placeapi_v2', 'overall_rating': '4.7', 'image_num': '5', 'comment_num': '20', 'children': [], 'lat': 34.2124757142082, 'lng': 108.88175109522113}}"
"{'name': '艾游游泳俱乐部', 'location': {'lat': 34.19607398181567, 'lng': 108.87893929738146}, 'address': '西安市高新区丈八东路与锦业路十字绿地假日酒店4楼', 'province': '陕西省', 'city': '西安市', 'area': '雁塔区', 'street_id': '0227b5652e67ba44c4f50dc9', 'telephone': '18220193157', 'detail': 1, 'uid': '0227b5652e67ba44c4f50dc9', 'detail_info': {'tag': '运动健身;体育场馆', 'type': 'life', 'detail_url': 'http://api.map.baidu.com/place/detail?uid=0227b5652e67ba44c4f50dc9&output=html&source=placeapi_v2', 'overall_rating': '4.8', 'image_num': '28', 'comment_num': '6', 'children': [], 'lat': 34.19607398181567, 'lng': 108.87893929738146}}"
"{'name': '陕西省奥体青少年体育俱乐部', 'location': {'lat': 34.20688459158984, 'lng': 108.87956337686558}, 'address': '陕西省西安市雁塔区丈八东路303号陕西省体育训练中心内', 'province': '陕西省', 'city': '西安市', 'area': '雁塔区', 'street_id': '6bc20fcdbea896e83f9a5ec5', 'telephone': '(029)88587020', 'detail': 1, 'uid': '6bc20fcdbea896e83f9a5ec5', 'detail_info': {'tag': '运动健身;体育场馆', 'type': 'life', 'detail_url': 'http://api.map.baidu.com/place/detail?uid=6bc20fcdbea896e83f9a5ec5&output=html&source=placeapi_v2', 'overall_rating': '4.5', 'image_num': '5', 'comment_num': '2', 'children': [], 'lat': 34.20688459158984, 'lng': 108.87956337686558}}"
"{'name': '韩国台球馆', 'location': {'lat': 34.184693878858205, 'lng': 108.8774891347618}, 'address': '锦业二路逸翠尚府北区8号楼1层(招商银行后面)', 'province': '陕西省', 'city': '西安市', 'area': '雁塔区', 'detail': 1, 'uid': '618d30624b2456f007fef5ad', 'detail_info': {'tag': '运动健身;体育场馆', 'type': 'life', 'detail_url': 'http://api.map.baidu.com/place/detail?uid=618d30624b2456f007fef5ad&output=html&source=placeapi_v2', 'image_num': '1', 'children': [], 'lat': 34.184693878858205, 'lng': 108.8774891347618}}"
"{'name': '亨泰·田邦丈八足球训练基地', 'location': {'lat': 34.2043803104205, 'lng': 108.87812448950343}, 'address': '丈八东路303号', 'province': '陕西省', 'city': '西安市', 'area': '雁塔区', 'street_id': 'f6e8037700e598af932ca3e9', 'detail': 1, 'uid': 'f6e8037700e598af932ca3e9', 'detail_info': {'tag': '运动健身;体育场馆', 'navi_location': {'lng': 108.88923372596, 'lat': 34.208358715848}, 'type': 'life', 'detail_url': 'http://api.map.baidu.com/place/detail?uid=f6e8037700e598af932ca3e9&output=html&source=placeapi_v2', 'overall_rating': '0.0', 'image_num': '1', 'children': [], 'lat': 34.2043803104205, 'lng': 108.87812448950343}}"
"{'name': '凯普飞游泳俱乐部(锦业路店)', 'location': {'lat': 34.196177967562754, 'lng': 108.87938352728195}, 'address': '锦业路绿地假日酒店4楼', 'province': '陕西省', 'city': '西安市', 'area': '雁塔区', 'detail': 1, 'uid': '0669976c8669f0cfae31e57e', 'detail_info': {'tag': '运动健身;体育场馆', 'type': 'life', 'detail_url': 'http://api.map.baidu.com/place/detail?uid=0669976c8669f0cfae31e57e&output=html&source=placeapi_v2', 'overall_rating': '3.0', 'image_num': '1', 'comment_num': '1', 'children': [], 'lat': 34.196177967562754, 'lng': 108.87938352728195}}"
"{'name': '陕西省体育训练中心举重馆省体校教学馆', 'location': {'lat': 34.2073919505163, 'lng': 108.8774021258166}, 'address': '西安市雁塔区科技八路北100米', 'province': '陕西省', 'city': '西安市', 'area': '雁塔区', 'street_id': 'c256636473e3e7428f1a8971', 'detail': 1, 'uid': 'c256636473e3e7428f1a8971', 'detail_info': {'tag': '运动健身;体育场馆', 'type': 'life', 'detail_url': 'http://api.map.baidu.com/place/detail?uid=c256636473e3e7428f1a8971&output=html&source=placeapi_v2', 'image_num': '1', 'children': [], 'lat': 34.2073919505163, 'lng': 108.8774021258166}}"
"{'name': '水晶岛酒店-羽毛球馆', 'location': {'lat': 34.209581928678624, 'lng': 108.88301980713392}, 'address': '陕西省西安市雁塔区西安高新区沣惠南路南端水晶岛酒店8层', 'province': '陕西省', 'city': '西安市', 'area': '雁塔区', 'street_id': '7ccb33339ae0d620c61b7541', 'telephone': '(029)88159999', 'detail': 1, 'uid': '7ccb33339ae0d620c61b7541', 'detail_info': {'tag': '运动健身;体育场馆', 'navi_location': {'lng': 108.89444146801, 'lat': 34.213910753627}, 'type': 'life', 'detail_url': 'http://api.map.baidu.com/place/detail?uid=7ccb33339ae0d620c61b7541&output=html&source=placeapi_v2', 'price': '30', 'overall_rating': '3.0', 'image_num': '1', 'comment_num': '2', 'children': [], 'lat': 34.209581928678624, 'lng': 108.88301980713392}}"
"{'name': '旭日篮球丈八训练营', 'location': {'lat': 34.207084225178015, 'lng': 108.87640446897568}, 'address': '西安市高新区上陕西省体育训练中心西北角综合馆', 'province': '陕西省', 'city': '西安市', 'area': '雁塔区', 'street_id': 'a444e66bee437b555d17c30d', 'detail': 1, 'uid': 'a444e66bee437b555d17c30d', 'detail_info': {'tag': '运动健身;体育场馆', 'type': 'life', 'detail_url': 'http://api.map.baidu.com/place/detail?uid=a444e66bee437b555d17c30d&output=html&source=placeapi_v2', 'image_num': '1', 'children': [], 'lat': 34.207084225178015, 'lng': 108.87640446897568}}"
"{'name': '陕西宾馆-游泳中心', 'location': {'lat': 34.20455053177945, 'lng': 108.86956602466259}, 'address': '丈八东路', 'province': '陕西省', 'city': '西安市', 'area': '雁塔区', 'street_id': 'd5169dc4adaf043407026f39', 'detail': 1, 'uid': 'd5169dc4adaf043407026f39', 'detail_info': {'tag': '运动健身;体育场馆', 'type': 'life', 'detail_url': 'http://api.map.baidu.com/place/detail?uid=d5169dc4adaf043407026f39&output=html&source=placeapi_v2', 'overall_rating': '3.0', 'image_num': '1', 'comment_num': '2', 'children': [], 'lat': 34.20455053177945, 'lng': 108.86956602466259}}"
"{'name': '陕西生奥体青少年体育俱乐部室外篮球场', 'location': {'lat': 34.20750025850938, 'lng': 108.87451294993285}, 'address': '陕西省西安市雁塔区丈八东路与科技八路交叉口东北200米', 'province': '陕西省', 'city': '西安市', 'area': '雁塔区', 'street_id': '4e929a087d7b20312fb90801', 'detail': 1, 'uid': '4e929a087d7b20312fb90801', 'detail_info': {'tag': '运动健身;体育场馆', 'type': 'life', 'detail_url': 'http://api.map.baidu.com/place/detail?uid=4e929a087d7b20312fb90801&output=html&source=placeapi_v2', 'image_num': '1', 'children': [], 'lat': 34.20750025850938, 'lng': 108.87451294993285}}"
"{'name': '正大桌球会所', 'location': {'lat': 34.19867984368168, 'lng': 108.84699287339132}, 'address': '高新区丈八西路袁旗寨新村40排7号商铺2楼(家都购物广场)', 'province': '陕西省', 'city': '西安市', 'area': '雁塔区', 'street_id': 'a69055eb2d9808f54f3a5970', 'telephone': '17782630918', 'detail': 1, 'uid': 'a69055eb2d9808f54f3a5970', 'detail_info': {'tag': '休闲娱乐;游戏场所', 'navi_location': {'lng': 108.85796288472, 'lat': 34.203536821083}, 'type': 'life', 'detail_url': 'http://api.map.baidu.com/place/detail?uid=a69055eb2d9808f54f3a5970&output=html&source=placeapi_v2', 'overall_rating': '4.8', 'image_num': '22', 'comment_num': '5', 'children': [], 'lat': 34.19867984368168, 'lng': 108.84699287339132}}"
"{'name': '红涛武馆', 'location': {'lat': 34.18360780524043, 'lng': 108.82702704041475}, 'address': '西安市长安区定昆池一路与上林苑一路交叉路口往西南约50米(西安高新创汇社区)', 'province': '陕西省', 'city': '西安市', 'area': '长安区', 'detail': 1, 'uid': 'f0ae6433a6b8cdc32b11d136', 'detail_info': {'tag': '运动健身;体育场馆', 'type': 'life', 'detail_url': 'http://api.map.baidu.com/place/detail?uid=f0ae6433a6b8cdc32b11d136&output=html&source=placeapi_v2', 'image_num': '4', 'children': [], 'lat': 34.18360780524043, 'lng': 108.82702704041475}}"
"{'name': '源动力乒乓球体育运动中心(紫薇总店)', 'location': {'lat': 34.18326996144611, 'lng': 108.87744627035379}, 'address': '唐延南路与锦业二路交叉口西南150米习致学堂2层', 'province': '陕西省', 'city': '西安市', 'area': '雁塔区', 'telephone': '15596809802', 'detail': 1, 'uid': '906eb6add623a28e047ce8be', 'detail_info': {'tag': '运动健身;体育场馆', 'type': 'life', 'detail_url': 'http://api.map.baidu.com/place/detail?uid=906eb6add623a28e047ce8be&output=html&source=placeapi_v2', 'image_num': '1', 'children': [], 'lat': 34.18326996144611, 'lng': 108.87744627035379}}"
"{'name': '蓝鲨宝贝婴幼儿游泳馆', 'location': {'lat': 34.19641006193721, 'lng': 108.86925320934769}, 'address': '丈八沟街道丈八三路绿地世纪城东门中国银行旁艺饕街A10133商铺', 'province': '陕西省', 'city': '西安市', 'area': '雁塔区', 'street_id': '4b6d4ff2b1816f38631809f1', 'telephone': '15929938296,(029)65695180', 'detail': 1, 'uid': '4b6d4ff2b1816f38631809f1', 'detail_info': {'tag': '运动健身;体育场馆', 'type': 'life', 'detail_url': 'http://api.map.baidu.com/place/detail?uid=4b6d4ff2b1816f38631809f1&output=html&source=placeapi_v2', 'overall_rating': '4.3', 'image_num': '5', 'comment_num': '3', 'children': [], 'lat': 34.19641006193721, 'lng': 108.86925320934769}}"
"{'name': '宜沃空间', 'location': {'lat': 34.1891633953224, 'lng': 108.88078624874333}, 'address': '陕西省西安市雁塔区唐延南路8号附近', 'province': '陕西省', 'city': '西安市', 'area': '雁塔区', 'detail': 1, 'uid': '1a9aca08f4b721e10f0a7058', 'detail_info': {'tag': '公司企业;其他', 'navi_location': {'lng': 108.89216006205, 'lat': 34.19316328132}, 'type': 'enterprise', 'detail_url': 'http://api.map.baidu.com/place/detail?uid=1a9aca08f4b721e10f0a7058&output=html&source=placeapi_v2', 'children': [], 'lat': 34.1891633953224, 'lng': 108.88078624874333}}"
"{'name': '绿地国际俱乐部', 'location': {'lat': 34.19603295987751, 'lng': 108.86990663465518}, 'address': '锦业路3号', 'province': '陕西省', 'city': '西安市', 'area': '雁塔区', 'street_id': '61a8d69e05134551744ff182', 'telephone': '(029)81109548', 'detail': 1, 'uid': '61a8d69e05134551744ff182', 'detail_info': {'tag': '休闲娱乐;ktv', 'navi_location': {'lng': 108.88114778792, 'lat': 34.19998681467}, 'type': 'life', 'detail_url': 'http://api.map.baidu.com/place/detail?uid=61a8d69e05134551744ff182&output=html&source=placeapi_v2', 'overall_rating': '0.0', 'image_num': '3', 'comment_num': '1', 'children': [], 'lat': 34.19603295987751, 'lng': 108.86990663465518}}"
"{'name': '西安绿地假日酒店-游泳池', 'location': {'lat': 34.196132423427116, 'lng': 108.8789013796803}, 'address': '高新区锦业路1号西安绿地假日酒店3-4楼', 'province': '陕西省', 'city': '西安市', 'area': '雁塔区', 'street_id': '13f89260fdebf8544207c1ad', 'telephone': '18538111293', 'detail': 1, 'uid': '13f89260fdebf8544207c1ad', 'detail_info': {'tag': '运动健身;体育场馆', 'navi_location': {'lng': 108.88991239578, 'lat': 34.200288028288}, 'type': 'life', 'detail_url': 'http://api.map.baidu.com/place/detail?uid=13f89260fdebf8544207c1ad&output=html&source=placeapi_v2', 'overall_rating': '5.0', 'image_num': '1', 'comment_num': '1', 'children': [], 'lat': 34.196132423427116, 'lng': 108.8789013796803}}"
"{'name': '乐道跆拳道馆(绿地世纪城店)', 'location': {'lat': 34.196414183220185, 'lng': 108.8687594531794}, 'address': '锦业路绿地世纪城艺饕街A10221', 'province': '陕西省', 'city': '西安市', 'area': '雁塔区', 'street_id': '7b91d5b0be34c0346d20b9c5', 'detail': 1, 'uid': '7b91d5b0be34c0346d20b9c5', 'detail_info': {'tag': '运动健身;体育场馆', 'navi_location': {'lng': 108.87991243099, 'lat': 34.200142413238}, 'type': 'life', 'detail_url': 'http://api.map.baidu.com/place/detail?uid=7b91d5b0be34c0346d20b9c5&output=html&source=placeapi_v2', 'overall_rating': '4.0', 'image_num': '19', 'comment_num': '5', 'children': [], 'lat': 34.196414183220185, 'lng': 108.8687594531794}}"
"{'name': '秀川跆拳道俱乐部', 'location': {'lat': 34.20274885558694, 'lng': 108.86158072400495}, 'address': '高新区瞪羚路嘉禾广运大厦三楼', 'province': '陕西省', 'city': '西安市', 'area': '雁塔区', 'detail': 1, 'uid': '42578de226c4f6a2dbd891e3', 'detail_info': {'tag': '运动健身;体育场馆', 'type': 'life', 'detail_url': 'http://api.map.baidu.com/place/detail?uid=42578de226c4f6a2dbd891e3&output=html&source=placeapi_v2', 'overall_rating': '5.0', 'image_num': '1', 'comment_num': '1', 'children': [], 'lat': 34.20274885558694, 'lng': 108.86158072400495}}"
"{'name': '陕西省奥体青少年体育俱乐部五人制足球场', 'location': {'lat': 34.206500247661516, 'lng': 108.87772677936255}, 'address': '陕西省西安市雁塔区丈八东路303号陕西体育训练中心', 'province': '陕西省', 'city': '西安市', 'area': '雁塔区', 'telephone': '(029)88587020', 'detail': 1, 'uid': 'c5ba9d7b47099e98420245ba', 'detail_info': {'tag': '运动健身;体育场馆', 'type': 'life', 'detail_url': 'http://api.map.baidu.com/place/detail?uid=c5ba9d7b47099e98420245ba&output=html&source=placeapi_v2', 'overall_rating': '4.0', 'image_num': '1', 'comment_num': '1', 'children': [], 'lat': 34.206500247661516, 'lng': 108.87772677936255}}"
"{'name': '尚府桌球', 'location': {'lat': 34.18484509079747, 'lng': 108.87820223041405}, 'address': '陕西省西安市雁塔区唐延路与锦业二路十字西北角逸翠尚府8号楼4单元4楼401室', 'province': '陕西省', 'city': '西安市', 'area': '雁塔区', 'telephone': '(029)68723936', 'detail': 1, 'uid': 'ea19930b246100a2932ca358', 'detail_info': {'tag': '休闲娱乐;游戏场所', 'type': 'life', 'detail_url': 'http://api.map.baidu.com/place/detail?uid=ea19930b246100a2932ca358&output=html&source=placeapi_v2', 'price': '10', 'overall_rating': '4.5', 'image_num': '1', 'comment_num': '4', 'children': [], 'lat': 34.18484509079747, 'lng': 108.87820223041405}}"
"{'name': '一如跆拳道(国宾馆)', 'location': {'lat': 34.21120077379384, 'lng': 108.86704467427631}, 'address': '科技七路15号附近', 'province': '陕西省', 'city': '西安市', 'area': '雁塔区', 'telephone': '15249000739', 'detail': 1, 'uid': 'bdda6e4754b3de854251c07b', 'detail_info': {'tag': '运动健身;体育场馆', 'type': 'life', 'detail_url': 'http://api.map.baidu.com/place/detail?uid=bdda6e4754b3de854251c07b&output=html&source=placeapi_v2', 'overall_rating': '0.0', 'image_num': '12', 'children': [], 'lat': 34.21120077379384, 'lng': 108.86704467427631}}"
"{'name': '励进海升酒店-私人会所', 'location': {'lat': 34.21438841347484, 'lng': 108.88036016496542}, 'address': '西安市高新区沣惠南路34号励进海升酒店4层', 'province': '陕西省', 'city': '西安市', 'area': '雁塔区', 'street_id': 'ff678492c9096efdbfa822e2', 'telephone': '(029)83266666', 'detail': 1, 'uid': 'ff678492c9096efdbfa822e2', 'detail_info': {'tag': '运动健身;体育场馆', 'type': 'life', 'detail_url': 'http://api.map.baidu.com/place/detail?uid=ff678492c9096efdbfa822e2&output=html&source=placeapi_v2', 'overall_rating': '0.0', 'image_num': '1', 'children': [], 'lat': 34.21438841347484, 'lng': 108.88036016496542}}"
"{'name': '陕西宜生阳光体育用品公司笼式足球场', 'location': {'lat': 34.207636686442406, 'lng': 108.8820040599615}, 'address': '科技八路北100米', 'province': '陕西省', 'city': '西安市', 'area': '雁塔区', 'detail': 1, 'uid': '9086e8c17965ece33586f4a4', 'detail_info': {'tag': '运动健身;体育场馆', 'type': 'life', 'detail_url': 'http://api.map.baidu.com/place/detail?uid=9086e8c17965ece33586f4a4&output=html&source=placeapi_v2', 'overall_rating': '3.0', 'image_num': '1', 'children': [], 'lat': 34.207636686442406, 'lng': 108.8820040599615}}"
"{'name': '陕西体育训练中心室外游泳场', 'location': {'lat': 34.205647831713556, 'lng': 108.87671472526853}, 'address': '陕西省西安市雁塔区高新区丈八东路319号体育训练中心', 'province': '陕西省', 'city': '西安市', 'area': '雁塔区', 'detail': 1, 'uid': '13c442982171a1d0cb213dd5', 'detail_info': {'tag': '运动健身;体育场馆', 'type': 'life', 'detail_url': 'http://api.map.baidu.com/place/detail?uid=13c442982171a1d0cb213dd5&output=html&source=placeapi_v2', 'image_num': '1', 'children': [], 'lat': 34.205647831713556, 'lng': 108.87671472526853}}"
"{'name': '陕西宾馆18号楼-乒乓球馆', 'location': {'lat': 34.205478542814056, 'lng': 108.8679344629938}, 'address': '丈八北路1号', 'province': '陕西省', 'city': '西安市', 'area': '雁塔区', 'street_id': '722232c531ab7f5d047ce83b', 'telephone': '(029)68899999', 'detail': 1, 'uid': '722232c531ab7f5d047ce83b', 'detail_info': {'tag': '运动健身;体育场馆', 'navi_location': {'lng': 108.87898876722, 'lat': 34.209505887184}, 'type': 'life', 'detail_url': 'http://api.map.baidu.com/place/detail?uid=722232c531ab7f5d047ce83b&output=html&source=placeapi_v2', 'image_num': '1', 'children': [], 'lat': 34.205478542814056, 'lng': 108.8679344629938}}"
"{'name': '陕西省武馆中心', 'location': {'lat': 34.20701932874603, 'lng': 108.87867057970125}, 'address': '丈八东路303号', 'province': '陕西省', 'city': '西安市', 'area': '雁塔区', 'detail': 1, 'uid': 'e29aca957c0e3b3acb213d0a', 'detail_info': {'tag': '运动健身;体育场馆', 'type': 'life', 'detail_url': 'http://api.map.baidu.com/place/detail?uid=e29aca957c0e3b3acb213d0a&output=html&source=placeapi_v2', 'image_num': '1', 'children': [], 'lat': 34.20701932874603, 'lng': 108.87867057970125}}"
"{'name': 'Golf Park模拟高尔夫', 'location': {'lat': 34.185063394085, 'lng': 108.87781259382538}, 'address': '西安市雁塔区锦业二路与唐延南路交叉路口往西北约50米(逸翠·尚府北区)', 'province': '陕西省', 'city': '西安市', 'area': '雁塔区', 'street_id': '604ad0592d64a07cfda7782c', 'detail': 1, 'uid': '604ad0592d64a07cfda7782c', 'detail_info': {'tag': '运动健身;体育场馆', 'type': 'life', 'detail_url': 'http://api.map.baidu.com/place/detail?uid=604ad0592d64a07cfda7782c&output=html&source=placeapi_v2', 'image_num': '7', 'children': [], 'lat': 34.185063394085, 'lng': 108.87781259382538}}"
"{'name': 'GOLFZON室内高尔夫', 'location': {'lat': 34.19710008386184, 'lng': 108.87206879038479}, 'address': '锦业路绿地世纪城韩国城3层', 'province': '陕西省', 'city': '西安市', 'area': '雁塔区', 'street_id': '4fbf0a05dbcbdf44ae080f25', 'telephone': '(029)68729650', 'detail': 1, 'uid': '4fbf0a05dbcbdf44ae080f25', 'detail_info': {'tag': '运动健身;体育场馆', 'navi_location': {'lng': 108.88326222302, 'lat': 34.201496250945}, 'type': 'life', 'detail_url': 'http://api.map.baidu.com/place/detail?uid=4fbf0a05dbcbdf44ae080f25&output=html&source=placeapi_v2', 'overall_rating': '0.0', 'image_num': '3', 'children': [], 'lat': 34.19710008386184, 'lng': 108.87206879038479}}"
"{'name': '瑞力健身', 'location': {'lat': 34.23025365390953, 'lng': 108.87097924547659}, 'address': '西安市雁塔区汇德科技园10113室', 'province': '陕西省', 'city': '西安市', 'area': '雁塔区', 'street_id': '24ce35a57ed4df79be4842d4', 'detail': 1, 'uid': '24ce35a57ed4df79be4842d4', 'detail_info': {'tag': '运动健身;健身中心', 'navi_location': {'lng': 108.88215472821, 'lat': 34.234378509744}, 'type': 'life', 'detail_url': 'http://api.map.baidu.com/place/detail?uid=24ce35a57ed4df79be4842d4&output=html&source=placeapi_v2', 'overall_rating': '3.2', 'image_num': '9', 'comment_num': '14', 'children': [], 'lat': 34.23025365390953, 'lng': 108.87097924547659}}"
"{'name': '荣誉搏击健身俱乐部', 'location': {'lat': 34.24229749634685, 'lng': 108.87589756170736}, 'address': '西安市雁塔区文兴巷与团结南路交叉路口往西约50米(中建国熙台)', 'province': '陕西省', 'city': '西安市', 'area': '雁塔区', 'telephone': '(029)88621233', 'detail': 1, 'uid': 'b08003ec965148aae8e5822f', 'detail_info': {'tag': '运动健身;健身中心', 'navi_location': {'lng': 108.88684369432, 'lat': 34.246306644352}, 'type': 'life', 'detail_url': 'http://api.map.baidu.com/place/detail?uid=b08003ec965148aae8e5822f&output=html&source=placeapi_v2', 'overall_rating': '4.6', 'image_num': '14', 'comment_num': '14', 'children': [], 'lat': 34.24229749634685, 'lng': 108.87589756170736}}"
"{'name': '零距离游泳健身(唐沣国际店)', 'location': {'lat': 34.22471032243276, 'lng': 108.88185799725633}, 'address': '陕西省西安市雁塔区沣惠南路18号', 'province': '陕西省', 'city': '西安市', 'area': '雁塔区', 'detail': 1, 'uid': '798ea9ac0bb1f17432f71db5', 'detail_info': {'tag': '运动健身;健身中心', 'type': 'life', 'detail_url': 'http://api.map.baidu.com/place/detail?uid=798ea9ac0bb1f17432f71db5&output=html&source=placeapi_v2', 'overall_rating': '3.3', 'image_num': '33', 'comment_num': '9', 'children': [], 'lat': 34.22471032243276, 'lng': 108.88185799725633}}"
"{'name': '24小时智能健身', 'location': {'lat': 34.244637560139445, 'lng': 108.87678605558153}, 'address': '响塘广场小肥牛二楼', 'province': '陕西省', 'city': '西安市', 'area': '雁塔区', 'detail': 1, 'uid': '4bca0a62afd5eda3c2364437', 'detail_info': {'tag': '运动健身;健身中心', 'type': 'life', 'detail_url': 'http://api.map.baidu.com/place/detail?uid=4bca0a62afd5eda3c2364437&output=html&source=placeapi_v2', 'overall_rating': '4.4', 'image_num': '1', 'comment_num': '7', 'children': [], 'lat': 34.244637560139445, 'lng': 108.87678605558153}}"
"{'name': '蓝度健身(响塘店)', 'location': {'lat': 34.24463068095195, 'lng': 108.87679401942823}, 'address': '团结南路响塘广场二层', 'province': '陕西省', 'city': '西安市', 'area': '雁塔区', 'telephone': '13679128372', 'detail': 1, 'uid': 'a371f701eb093f60d8131824', 'detail_info': {'tag': '运动健身;健身中心', 'type': 'life', 'detail_url': 'http://api.map.baidu.com/place/detail?uid=a371f701eb093f60d8131824&output=html&source=placeapi_v2', 'image_num': '1', 'children': [], 'lat': 34.24463068095195, 'lng': 108.87679401942823}}"
"{'name': '温蒂妮舞蹈形体中心', 'location': {'lat': 34.24447357828526, 'lng': 108.87485104784774}, 'address': '陕西省西安市团结南路德兴巷豌豆家综合体3楼', 'province': '陕西省', 'city': '西安市', 'area': '雁塔区', 'telephone': '13474006646', 'detail': 1, 'uid': '0a365b80bf2c638df02d8376', 'detail_info': {'tag': '运动健身;健身中心', 'type': 'life', 'detail_url': 'http://api.map.baidu.com/place/detail?uid=0a365b80bf2c638df02d8376&output=html&source=placeapi_v2', 'overall_rating': '4.5', 'image_num': '1', 'comment_num': '3', 'children': [], 'lat': 34.24447357828526, 'lng': 108.87485104784774}}"
"{'name': '贝斯特健身俱乐部', 'location': {'lat': 34.22073627716621, 'lng': 108.8769373705316}, 'address': '西安市雁塔区团结南路与科技四路交叉路口往南约50米(南窑头小区-西区)', 'province': '陕西省', 'city': '西安市', 'area': '雁塔区', 'telephone': '13032982776,(029)88698669', 'detail': 1, 'uid': '4e3f5f751ed4c4f85d17c337', 'detail_info': {'tag': '运动健身;健身中心', 'navi_location': {'lng': 108.88792435765, 'lat': 34.225065822783}, 'type': 'life', 'detail_url': 'http://api.map.baidu.com/place/detail?uid=4e3f5f751ed4c4f85d17c337&output=html&source=placeapi_v2', 'overall_rating': '5.0', 'image_num': '5', 'comment_num': '2', 'children': [], 'lat': 34.22073627716621, 'lng': 108.8769373705316}}"
"{'name': 'BODYLOVE普拉提', 'location': {'lat': 34.2394046728126, 'lng': 108.87248521648709}, 'address': '陕西省西安市雁塔区科技路与高新六路十字东北角伟业公馆1号楼2层', 'province': '陕西省', 'city': '西安市', 'area': '雁塔区', 'telephone': '(029)88636870', 'detail': 1, 'uid': '8354ceaebf966ec39e95de39', 'detail_info': {'tag': '运动健身;健身中心', 'type': 'life', 'detail_url': 'http://api.map.baidu.com/place/detail?uid=8354ceaebf966ec39e95de39&output=html&source=placeapi_v2', 'overall_rating': '5.0', 'image_num': '1', 'comment_num': '56', 'children': [], 'lat': 34.2394046728126, 'lng': 108.87248521648709}}"
"{'name': 'AIMO·HIIT智慧轻健身', 'location': {'lat': 34.23876029669343, 'lng': 108.87245316881253}, 'address': '高新六路2号七星花园小区2号楼1F102室', 'province': '陕西省', 'city': '西安市', 'area': '雁塔区', 'telephone': '19929935608', 'detail': 1, 'uid': '1881fa9f34ab045b81a12e21', 'detail_info': {'tag': '运动健身;健身中心', 'type': 'life', 'detail_url': 'http://api.map.baidu.com/place/detail?uid=1881fa9f34ab045b81a12e21&output=html&source=placeapi_v2', 'overall_rating': '3.8', 'image_num': '2', 'comment_num': '5', 'children': [], 'lat': 34.23876029669343, 'lng': 108.87245316881253}}"
"{'name': '每日瑜伽', 'location': {'lat': 34.224696686396875, 'lng': 108.8798799046336}, 'address': '陕西省西安市雁塔区科技三路57号融城云谷B座22层', 'province': '陕西省', 'city': '西安市', 'area': '雁塔区', 'telephone': '(029)82305104', 'detail': 1, 'uid': '613bb859b385de44d5b74eac', 'detail_info': {'tag': '运动健身;健身中心', 'type': 'life', 'detail_url': 'http://api.map.baidu.com/place/detail?uid=613bb859b385de44d5b74eac&output=html&source=placeapi_v2', 'overall_rating': '5.0', 'image_num': '3', 'comment_num': '4', 'children': [], 'lat': 34.224696686396875, 'lng': 108.8798799046336}}"
"{'name': '西安市高新区格致瑜伽健身工作室', 'location': {'lat': 34.22706024026855, 'lng': 108.87036877916024}, 'address': '科技二路与丈八北路十字陕商投资大厦19楼', 'province': '陕西省', 'city': '西安市', 'area': '雁塔区', 'detail': 1, 'uid': 'cd451759916d60eb734b87c5', 'detail_info': {'tag': '运动健身;健身中心', 'type': 'life', 'detail_url': 'http://api.map.baidu.com/place/detail?uid=cd451759916d60eb734b87c5&output=html&source=placeapi_v2', 'overall_rating': '3.7', 'image_num': '1', 'comment_num': '3', 'children': [], 'lat': 34.22706024026855, 'lng': 108.87036877916024}}"
"{'name': 'DOUBLE LEE FIT健身工作室', 'location': {'lat': 34.23834677875656, 'lng': 108.88148089935129}, 'address': '陕西省西安市高新区枫叶新都市11楼1004室', 'province': '陕西省', 'city': '西安市', 'area': '雁塔区', 'detail': 1, 'uid': '031dfce4ec932d959d9d6824', 'detail_info': {'tag': '运动健身;健身中心', 'type': 'life', 'detail_url': 'http://api.map.baidu.com/place/detail?uid=031dfce4ec932d959d9d6824&output=html&source=placeapi_v2', 'overall_rating': '5.0', 'image_num': '25', 'comment_num': '6', 'children': [], 'lat': 34.23834677875656, 'lng': 108.88148089935129}}"
"{'name': '俄派形体健身馆', 'location': {'lat': 34.23955035856493, 'lng': 108.86832216316888}, 'address': '陕西省西安市雁塔区科技路259号', 'province': '陕西省', 'city': '西安市', 'area': '雁塔区', 'telephone': '13152106631', 'detail': 1, 'uid': '34f8d3642d6327b54151c0d4', 'detail_info': {'tag': '运动健身;健身中心', 'type': 'life', 'detail_url': 'http://api.map.baidu.com/place/detail?uid=34f8d3642d6327b54151c0d4&output=html&source=placeapi_v2', 'overall_rating': '5.0', 'image_num': '2', 'comment_num': '2', 'children': [], 'lat': 34.23955035856493, 'lng': 108.86832216316888}}"
"{'name': '雅健身俱乐部', 'location': {'lat': 34.222131542935195, 'lng': 108.87775228424206}, 'address': '团结南路与科技四路交口东北角高新新天地2号楼1405', 'province': '陕西省', 'city': '西安市', 'area': '雁塔区', 'telephone': '(029)81775499', 'detail': 1, 'uid': '335ec056ec53a25c2811d18b', 'detail_info': {'tag': '运动健身;健身中心', 'type': 'life', 'detail_url': 'http://api.map.baidu.com/place/detail?uid=335ec056ec53a25c2811d18b&output=html&source=placeapi_v2', 'overall_rating': '5.0', 'image_num': '1', 'comment_num': '1', 'children': [], 'lat': 34.222131542935195, 'lng': 108.87775228424206}}"
"{'name': '快快智能健身主题店(中华世纪城店)', 'location': {'lat': 34.24277164450801, 'lng': 108.87750920419923}, 'address': '雁塔区高新技术路西段239号中华世纪城七号楼S1-008-1铺', 'province': '陕西省', 'city': '西安市', 'area': '雁塔区', 'detail': 1, 'uid': 'f6543bf5b9447fcb704b8743', 'detail_info': {'tag': '运动健身;健身中心', 'type': 'life', 'detail_url': 'http://api.map.baidu.com/place/detail?uid=f6543bf5b9447fcb704b8743&output=html&source=placeapi_v2', 'overall_rating': '4.9', 'image_num': '3', 'comment_num': '14', 'children': [], 'lat': 34.24277164450801, 'lng': 108.87750920419923}}"
"{'name': '云上健身工作室(科技三路店)', 'location': {'lat': 34.22417449080766, 'lng': 108.87910003147675}, 'address': '科技三路,融城云谷b座,1805室', 'province': '陕西省', 'city': '西安市', 'area': '雁塔区', 'telephone': '13289349282', 'detail': 1, 'uid': '716fa78c024ec302aeee7af7', 'detail_info': {'tag': '运动健身;健身中心', 'type': 'life', 'detail_url': 'http://api.map.baidu.com/place/detail?uid=716fa78c024ec302aeee7af7&output=html&source=placeapi_v2', 'overall_rating': '5.0', 'image_num': '1', 'comment_num': '6', 'children': [], 'lat': 34.22417449080766, 'lng': 108.87910003147675}}"
"{'name': '逗号健身(响塘德苑店)', 'location': {'lat': 34.24469565409711, 'lng': 108.87679305867005}, 'address': '团结南路响塘广场二楼', 'province': '陕西省', 'city': '西安市', 'area': '雁塔区', 'telephone': '15712559966', 'detail': 1, 'uid': 'a45439c601a4922e36b06cde', 'detail_info': {'tag': '运动健身;健身中心', 'type': 'life', 'detail_url': 'http://api.map.baidu.com/place/detail?uid=a45439c601a4922e36b06cde&output=html&source=placeapi_v2', 'overall_rating': '4.1', 'image_num': '3', 'comment_num': '48', 'children': [], 'lat': 34.24469565409711, 'lng': 108.87679305867005}}"
"{'name': '梦舞舞蹈工作室', 'location': {'lat': 34.2394673863455, 'lng': 108.86893233775184}, 'address': '陕西省西安市雁塔区科技路西口华润万家超市楼上7楼702室', 'province': '陕西省', 'city': '西安市', 'area': '雁塔区', 'street_id': '07049789b1e974bc0bf5eb8b', 'telephone': '15029576414', 'detail': 1, 'uid': '07049789b1e974bc0bf5eb8b', 'detail_info': {'tag': '运动健身;健身中心', 'type': 'life', 'detail_url': 'http://api.map.baidu.com/place/detail?uid=07049789b1e974bc0bf5eb8b&output=html&source=placeapi_v2', 'overall_rating': '5.0', 'image_num': '1', 'comment_num': '10', 'children': [], 'lat': 34.2394673863455, 'lng': 108.86893233775184}}"
"{'name': '初姀普拉提孕产健身', 'location': {'lat': 34.24342633086606, 'lng': 108.87616199118014}, 'address': '团结南路200号国熙台小区8栋3单元102室', 'province': '陕西省', 'city': '西安市', 'area': '雁塔区', 'telephone': '18966688871', 'detail': 1, 'uid': '46ceedfb377026d9593ac8b5', 'detail_info': {'tag': '运动健身;健身中心', 'type': 'life', 'detail_url': 'http://api.map.baidu.com/place/detail?uid=46ceedfb377026d9593ac8b5&output=html&source=placeapi_v2', 'overall_rating': '4.9', 'image_num': '1', 'comment_num': '22', 'children': [], 'lat': 34.24342633086606, 'lng': 108.87616199118014}}"
"{'name': '梵宁瑜伽', 'location': {'lat': 34.23309589566172, 'lng': 108.8686327033851}, 'address': '陕西省西安市雁塔区唐兴路20号利君明天小区2号楼2004', 'province': '陕西省', 'city': '西安市', 'area': '雁塔区', 'detail': 1, 'uid': 'fb023d2c82f2c21ff703b87c', 'detail_info': {'tag': '运动健身;健身中心', 'type': 'life', 'detail_url': 'http://api.map.baidu.com/place/detail?uid=fb023d2c82f2c21ff703b87c&output=html&source=placeapi_v2', 'overall_rating': '4.6', 'image_num': '1', 'comment_num': '9', 'children': [], 'lat': 34.23309589566172, 'lng': 108.8686327033851}}"
"{'name': 'kems studio健身(西安软件园店)', 'location': {'lat': 34.22619978871445, 'lng': 108.87557421697619}, 'address': '西安市科技二路57号西安软件园零壹广场E座401', 'province': '陕西省', 'city': '西安市', 'area': '雁塔区', 'detail': 1, 'uid': '9240f8a104436c813904b13d', 'detail_info': {'tag': '运动健身;健身中心', 'type': 'life', 'detail_url': 'http://api.map.baidu.com/place/detail?uid=9240f8a104436c813904b13d&output=html&source=placeapi_v2', 'image_num': '1', 'children': [], 'lat': 34.22619978871445, 'lng': 108.87557421697619}}"
"{'name': '芭蒂拉普拉提健身馆', 'location': {'lat': 34.239385288887576, 'lng': 108.87246231242912}, 'address': '陕西省西安市雁塔区高新六路北口北100米', 'province': '陕西省', 'city': '西安市', 'area': '雁塔区', 'telephone': '(029)88636870', 'detail': 1, 'uid': '0651bbe113b129f22b201aa5', 'detail_info': {'tag': '运动健身;健身中心', 'type': 'life', 'detail_url': 'http://api.map.baidu.com/place/detail?uid=0651bbe113b129f22b201aa5&output=html&source=placeapi_v2', 'overall_rating': '5.0', 'image_num': '5', 'comment_num': '11', 'children': [], 'lat': 34.239385288887576, 'lng': 108.87246231242912}}"
"{'name': '千水莲瑜伽大寨路会馆', 'location': {'lat': 34.247092376535676, 'lng': 108.87789207566824}, 'address': '大寨路金辉融桥城2期25-1201号', 'province': '陕西省', 'city': '西安市', 'area': '雁塔区', 'street_id': '6545db4b21a3f3a3b7f42f4e', 'telephone': '13891436101', 'detail': 1, 'uid': '6545db4b21a3f3a3b7f42f4e', 'detail_info': {'tag': '运动健身;健身中心', 'type': 'life', 'detail_url': 'http://api.map.baidu.com/place/detail?uid=6545db4b21a3f3a3b7f42f4e&output=html&source=placeapi_v2', 'price': '736', 'overall_rating': '4.6', 'image_num': '10', 'comment_num': '7', 'children': [], 'lat': 34.247092376535676, 'lng': 108.87789207566824}}"
"{'name': '西源瑜伽', 'location': {'lat': 34.23855641066045, 'lng': 108.87494325020667}, 'address': '陕西省西安市雁塔区省市雁塔区丈八沟街道市高新区科技路六十六号考试大厦2单元', 'province': '陕西省', 'city': '西安市', 'area': '雁塔区', 'street_id': '', 'telephone': '18700885355,(029)89561880', 'detail': 1, 'uid': 'd030ca3d7f449152364aaee7', 'detail_info': {'tag': '运动健身;健身中心', 'type': 'life', 'detail_url': 'http://api.map.baidu.com/place/detail?uid=d030ca3d7f449152364aaee7&output=html&source=placeapi_v2', 'overall_rating': '4.9', 'image_num': '1', 'comment_num': '9', 'children': [], 'lat': 34.23855641066045, 'lng': 108.87494325020667}}"
"{'name': '一木瑜伽生活馆', 'location': {'lat': 34.23954282889675, 'lng': 108.8682375490633}, 'address': '陕西省西安市雁塔区科技路259号丈八北路地铁口B口北20米1505室(华润万家楼上)', 'province': '陕西省', 'city': '西安市', 'area': '雁塔区', 'telephone': '(029)88647193', 'detail': 1, 'uid': '0330e1f411cd3ced7dc876b5', 'detail_info': {'tag': '运动健身;健身中心', 'type': 'life', 'detail_url': 'http://api.map.baidu.com/place/detail?uid=0330e1f411cd3ced7dc876b5&output=html&source=placeapi_v2', 'overall_rating': '5.0', 'image_num': '1', 'comment_num': '1', 'children': [], 'lat': 34.23954282889675, 'lng': 108.8682375490633}}"
"{'name': '喜马拉雅瑜伽普拉提', 'location': {'lat': 34.23615116384582, 'lng': 108.87777212994051}, 'address': '高新团结南路枫叶新都市嵘园D座1901(枫叶新都市西门)', 'province': '陕西省', 'city': '西安市', 'area': '雁塔区', 'detail': 1, 'uid': '80f96868b619e851f7eafcd7', 'detail_info': {'tag': '运动健身;健身中心', 'type': 'life', 'detail_url': 'http://api.map.baidu.com/place/detail?uid=80f96868b619e851f7eafcd7&output=html&source=placeapi_v2', 'overall_rating': '5.0', 'image_num': '1', 'comment_num': '5', 'children': [], 'lat': 34.23615116384582, 'lng': 108.87777212994051}}"
"{'name': '西安瑜舍连锁瑜伽教室(中华世纪城店)', 'location': {'lat': 34.24198116959652, 'lng': 108.87794811674445}, 'address': '陕西省西安市雁塔区科技路239号中华世纪城二期8号楼3单元702室', 'province': '陕西省', 'city': '西安市', 'area': '雁塔区', 'street_id': '901832b459dd9d17df1e52d4', 'telephone': '17792467851', 'detail': 1, 'uid': '901832b459dd9d17df1e52d4', 'detail_info': {'tag': '运动健身;健身中心', 'type': 'life', 'detail_url': 'http://api.map.baidu.com/place/detail?uid=901832b459dd9d17df1e52d4&output=html&source=placeapi_v2', 'overall_rating': '4.8', 'image_num': '1', 'comment_num': '11', 'children': [], 'lat': 34.24198116959652, 'lng': 108.87794811674445}}"
"{'name': '舞8瑜伽会所(夏日景色店)', 'location': {'lat': 34.22374825166917, 'lng': 108.86966432606673}, 'address': '西安市雁塔区丈八沟街道科技三路西口夏日景色小区8号楼对面', 'province': '陕西省', 'city': '西安市', 'area': '雁塔区', 'street_id': '844a3915ea0b5300931fc9a3', 'detail': 1, 'uid': '844a3915ea0b5300931fc9a3', 'detail_info': {'tag': '运动健身;健身中心', 'type': 'life', 'detail_url': 'http://api.map.baidu.com/place/detail?uid=844a3915ea0b5300931fc9a3&output=html&source=placeapi_v2', 'overall_rating': '0.0', 'image_num': '8', 'children': [], 'lat': 34.22374825166917, 'lng': 108.86966432606673}}"
"{'name': '阵风少儿健身俱乐部', 'location': {'lat': 34.21971471812705, 'lng': 108.8599139311413}, 'address': '西安市雁塔区', 'province': '陕西省', 'city': '西安市', 'area': '雁塔区', 'detail': 1, 'uid': 'baa60dd1a4214ab715c90538', 'detail_info': {'tag': '运动健身;健身中心', 'type': 'life', 'detail_url': 'http://api.map.baidu.com/place/detail?uid=baa60dd1a4214ab715c90538&output=html&source=placeapi_v2', 'image_num': '1', 'children': [], 'lat': 34.21971471812705, 'lng': 108.8599139311413}}"
"{'name': '净心莲瑜伽', 'location': {'lat': 34.219761454776716, 'lng': 108.86107008762089}, 'address': '陕西省西安市雁塔区科技四路鸿基新城祥园', 'province': '陕西省', 'city': '西安市', 'area': '雁塔区', 'telephone': '13689290008', 'detail': 1, 'uid': 'd5675c34985c747cd22dd616', 'detail_info': {'tag': '运动健身;健身中心', 'type': 'life', 'detail_url': 'http://api.map.baidu.com/place/detail?uid=d5675c34985c747cd22dd616&output=html&source=placeapi_v2', 'overall_rating': '0.0', 'image_num': '4', 'children': [], 'lat': 34.219761454776716, 'lng': 108.86107008762089}}"
"{'name': '羽德羽毛球馆', 'location': {'lat': 34.22004880730829, 'lng': 108.87245687695038}, 'address': '高新六路52号立人科技B座顶层', 'province': '陕西省', 'city': '西安市', 'area': '雁塔区', 'street_id': 'fc1a40f0620875392bfc4840', 'telephone': '(029)88454520', 'detail': 1, 'uid': 'fc1a40f0620875392bfc4840', 'detail_info': {'tag': '运动健身;体育场馆', 'navi_location': {'lng': 108.88371730369, 'lat': 34.224331299699}, 'type': 'life', 'detail_url': 'http://api.map.baidu.com/place/detail?uid=fc1a40f0620875392bfc4840&output=html&source=placeapi_v2', 'price': '80', 'overall_rating': '4.2', 'image_num': '4', 'comment_num': '17', 'children': [], 'lat': 34.22004880730829, 'lng': 108.87245687695038}}"
"{'name': '西安外事学院南区体育馆', 'location': {'lat': 34.230713552221545, 'lng': 108.86035171576637}, 'address': '陕西省西安市雁塔区鱼斗路18号西安外事学院南区内', 'province': '陕西省', 'city': '西安市', 'area': '雁塔区', 'detail': 1, 'uid': 'd1da377121ca4b962b3a9f7f', 'detail_info': {'tag': '运动健身;体育场馆', 'navi_location': {'lng': 108.87176484853, 'lat': 34.234529057938}, 'type': 'life', 'detail_url': 'http://api.map.baidu.com/place/detail?uid=d1da377121ca4b962b3a9f7f&output=html&source=placeapi_v2', 'image_num': '1', 'children': [], 'lat': 34.230713552221545, 'lng': 108.86035171576637}}"
"{'name': 'P.E-MIX综合体育运动中心', 'location': {'lat': 34.24644658018551, 'lng': 108.86246297762821}, 'address': '陕西省西安市雁塔区大寨路与丈八北路交叉路口向西两百米', 'province': '陕西省', 'city': '西安市', 'area': '雁塔区', 'street_id': '42fd22f22dd3eca2e81e9776', 'telephone': '(029)85237607', 'detail': 1, 'uid': '42fd22f22dd3eca2e81e9776', 'detail_info': {'tag': '运动健身;体育场馆', 'navi_location': {'lng': 108.87302383807, 'lat': 34.249366464754}, 'type': 'life', 'detail_url': 'http://api.map.baidu.com/place/detail?uid=42fd22f22dd3eca2e81e9776&output=html&source=placeapi_v2', 'overall_rating': '4.3', 'image_num': '4', 'comment_num': '20', 'children': [], 'lat': 34.24644658018551, 'lng': 108.86246297762821}}"
"{'name': '星珲尚运动中心', 'location': {'lat': 34.246259823892956, 'lng': 108.87228630405893}, 'address': '陕西省西安市雁塔区大寨路6号莱安逸珲B1层', 'province': '陕西省', 'city': '西安市', 'area': '雁塔区', 'street_id': '9492e7e6c291b8d399005068', 'telephone': '(029)62906555', 'detail': 1, 'uid': '9492e7e6c291b8d399005068', 'detail_info': {'tag': '运动健身;体育场馆', 'navi_location': {'lng': 108.88336454418, 'lat': 34.250651233901}, 'type': 'life', 'detail_url': 'http://api.map.baidu.com/place/detail?uid=9492e7e6c291b8d399005068&output=html&source=placeapi_v2', 'overall_rating': '3.3', 'image_num': '52', 'comment_num': '25', 'children': [], 'lat': 34.246259823892956, 'lng': 108.87228630405893}}"
"{'name': '胜仕台球俱乐部', 'location': {'lat': 34.24653261914249, 'lng': 108.87105999355641}, 'address': '大寨路东段8号莱安逸辉售楼处西隔壁', 'province': '陕西省', 'city': '西安市', 'area': '雁塔区', 'street_id': '29ba001d2e0435869fec2b0b', 'telephone': '(029)89636243', 'detail': 1, 'uid': '29ba001d2e0435869fec2b0b', 'detail_info': {'tag': '运动健身;体育场馆', 'type': 'life', 'detail_url': 'http://api.map.baidu.com/place/detail?uid=29ba001d2e0435869fec2b0b&output=html&source=placeapi_v2', 'overall_rating': '4.4', 'image_num': '34', 'comment_num': '13', 'children': [], 'lat': 34.24653261914249, 'lng': 108.87105999355641}}"
"{'name': '健身咖(蓝湖树店)', 'location': {'lat': 34.23867474707991, 'lng': 108.86646541061918}, 'address': '科技路西口天朗蓝湖树北门二楼', 'province': '陕西省', 'city': '西安市', 'area': '雁塔区', 'telephone': '17691141337', 'detail': 1, 'uid': '03135f045dd2f3f7c1f1cf94', 'detail_info': {'tag': '运动健身', 'type': 'life', 'detail_url': 'http://api.map.baidu.com/place/detail?uid=03135f045dd2f3f7c1f1cf94&output=html&source=placeapi_v2', 'image_num': '5', 'children': [], 'lat': 34.23867474707991, 'lng': 108.86646541061918}}"
"{'name': '西安外事学院南校区篮排球场', 'location': {'lat': 34.231086037120015, 'lng': 108.86379280863113}, 'address': '西安市雁塔区凌云路与龙腾路交叉口北100米', 'province': '陕西省', 'city': '西安市', 'area': '雁塔区', 'detail': 1, 'uid': 'd67ce835a2812a064c3a5984', 'detail_info': {'tag': '运动健身;体育场馆', 'type': 'life', 'detail_url': 'http://api.map.baidu.com/place/detail?uid=d67ce835a2812a064c3a5984&output=html&source=placeapi_v2', 'image_num': '1', 'children': [], 'lat': 34.231086037120015, 'lng': 108.86379280863113}}"
"{'name': '元海鱼化羽毛球馆', 'location': {'lat': 34.23515094352876, 'lng': 108.86658418632959}, 'address': '西安市雁塔区鱼斗路与丈八北路交叉路口往西约100米(尊贵壹中心西北侧)', 'province': '陕西省', 'city': '西安市', 'area': '雁塔区', 'detail': 1, 'uid': 'cc198b4796bbb687c056ac92', 'detail_info': {'tag': '运动健身;体育场馆', 'type': 'life', 'detail_url': 'http://api.map.baidu.com/place/detail?uid=cc198b4796bbb687c056ac92&output=html&source=placeapi_v2', 'overall_rating': '4.7', 'image_num': '1', 'comment_num': '3', 'children': [], 'lat': 34.23515094352876, 'lng': 108.86658418632959}}"
"{'name': '天朗森柏大酒店-室内游泳池', 'location': {'lat': 34.23772683932329, 'lng': 108.86722170393551}, 'address': '丈八北路380号天朗森柏大酒店内', 'province': '陕西省', 'city': '西安市', 'area': '雁塔区', 'street_id': '569b76124ce947c033169b2b', 'telephone': '(029)84118888', 'detail': 1, 'uid': '569b76124ce947c033169b2b', 'detail_info': {'tag': '运动健身;体育场馆', 'type': 'life', 'detail_url': 'http://api.map.baidu.com/place/detail?uid=569b76124ce947c033169b2b&output=html&source=placeapi_v2', 'overall_rating': '5.0', 'image_num': '1', 'comment_num': '1', 'children': [], 'lat': 34.23772683932329, 'lng': 108.86722170393551}}"
"{'name': '西安小企鹅婴幼儿游泳馆', 'location': {'lat': 34.22009668631568, 'lng': 108.85997941285652}, 'address': '陕西省西安市雁塔区科技四路鸿基新城商业步行西段一楼商铺鸿基新城内', 'province': '陕西省', 'city': '西安市', 'area': '雁塔区', 'street_id': '7063d2c3fa26ad98dbd891bd', 'telephone': '(029)88443395', 'detail': 1, 'uid': '7063d2c3fa26ad98dbd891bd', 'detail_info': {'tag': '运动健身;体育场馆', 'type': 'life', 'detail_url': 'http://api.map.baidu.com/place/detail?uid=7063d2c3fa26ad98dbd891bd&output=html&source=placeapi_v2', 'price': '59', 'overall_rating': '3.6', 'image_num': '49', 'comment_num': '5', 'children': [], 'lat': 34.22009668631568, 'lng': 108.85997941285652}}"
"{'name': '博凯体育俱乐部', 'location': {'lat': 34.23801325095402, 'lng': 108.86730339850827}, 'address': '陕西省西安市雁塔区丈八北路380号', 'province': '陕西省', 'city': '西安市', 'area': '雁塔区', 'telephone': '(029)88693936', 'detail': 1, 'uid': '3b0b788c818f0649ad0457eb', 'detail_info': {'tag': '运动健身;体育场馆', 'type': 'life', 'detail_url': 'http://api.map.baidu.com/place/detail?uid=3b0b788c818f0649ad0457eb&output=html&source=placeapi_v2', 'overall_rating': '1.0', 'image_num': '1', 'comment_num': '3', 'children': [], 'lat': 34.23801325095402, 'lng': 108.86730339850827}}"
"{'name': '卓力跆拳道俱乐部', 'location': {'lat': 34.23333405331457, 'lng': 108.86853515033965}, 'address': '陕西省西安市雁塔区唐兴路20号', 'province': '陕西省', 'city': '西安市', 'area': '雁塔区', 'telephone': '13201855852', 'detail': 1, 'uid': 'cd1c2d7607c2d58cb8bd6312', 'detail_info': {'tag': '运动健身;体育场馆', 'type': 'life', 'detail_url': 'http://api.map.baidu.com/place/detail?uid=cd1c2d7607c2d58cb8bd6312&output=html&source=placeapi_v2', 'overall_rating': '5.0', 'image_num': '10', 'comment_num': '3', 'children': [], 'lat': 34.23333405331457, 'lng': 108.86853515033965}}"
"{'name': '妈咪天使婴儿游泳馆', 'location': {'lat': 34.246965879186035, 'lng': 108.88147778611307}, 'address': '西安市雁塔区大寨路1号华府新桃园6号楼1单元406室(牡丹庄园旁)', 'province': '陕西省', 'city': '西安市', 'area': '雁塔区', 'street_id': '9f63c7a3216fd5c09e9d686b', 'detail': 1, 'uid': '9f63c7a3216fd5c09e9d686b', 'detail_info': {'tag': '运动健身;体育场馆', 'type': 'life', 'detail_url': 'http://api.map.baidu.com/place/detail?uid=9f63c7a3216fd5c09e9d686b&output=html&source=placeapi_v2', 'price': '88', 'overall_rating': '4.7', 'image_num': '21', 'comment_num': '12', 'children': [], 'lat': 34.246965879186035, 'lng': 108.88147778611307}}"
"{'name': '西安外事学院南校区羽毛球场', 'location': {'lat': 34.230728306926444, 'lng': 108.86128179978517}, 'address': '凌云路附近', 'province': '陕西省', 'city': '西安市', 'area': '雁塔区', 'detail': 1, 'uid': '823a603efb863014c356acd9', 'detail_info': {'tag': '运动健身;体育场馆', 'type': 'life', 'detail_url': 'http://api.map.baidu.com/place/detail?uid=823a603efb863014c356acd9&output=html&source=placeapi_v2', 'image_num': '1', 'children': [], 'lat': 34.230728306926444, 'lng': 108.86128179978517}}"
"{'name': '城市风景都市印象游泳馆', 'location': {'lat': 34.23693916339848, 'lng': 108.8683274644593}, 'address': '高新区科技路82号都市印象小区内', 'province': '陕西省', 'city': '西安市', 'area': '雁塔区', 'detail': 1, 'uid': '7310f2c408693a502bd7abc9', 'detail_info': {'tag': '运动健身;体育场馆', 'type': 'life', 'detail_url': 'http://api.map.baidu.com/place/detail?uid=7310f2c408693a502bd7abc9&output=html&source=placeapi_v2', 'overall_rating': '4.5', 'image_num': '1', 'comment_num': '2', 'children': [], 'lat': 34.23693916339848, 'lng': 108.8683274644593}}"
"{'name': 'P.E-MIX综合运动中心', 'location': {'lat': 34.244819803402706, 'lng': 108.86218522124669}, 'address': '丈八北路与大寨路十字路口向西200米(南风日化厂内)', 'province': '陕西省', 'city': '西安市', 'area': '雁塔区', 'street_id': '63b3c7ff0f665734b21e36ad', 'detail': 1, 'uid': '63b3c7ff0f665734b21e36ad', 'detail_info': {'tag': '运动健身;其他', 'type': 'life', 'detail_url': 'http://api.map.baidu.com/place/detail?uid=63b3c7ff0f665734b21e36ad&output=html&source=placeapi_v2', 'overall_rating': '4.7', 'image_num': '1', 'comment_num': '79', 'children': [], 'lat': 34.244819803402706, 'lng': 108.86218522124669}}"
"{'name': '小木马婴童游泳馆', 'location': {'lat': 34.23730227666829, 'lng': 108.86822898962272}, 'address': '科技路西口向西100米都市印象小区底商袁记肉夹馍隔壁二楼', 'province': '陕西省', 'city': '西安市', 'area': '雁塔区', 'street_id': '1e600d2405005d6c02897291', 'detail': 1, 'uid': '1e600d2405005d6c02897291', 'detail_info': {'tag': '运动健身;体育场馆', 'type': 'life', 'detail_url': 'http://api.map.baidu.com/place/detail?uid=1e600d2405005d6c02897291&output=html&source=placeapi_v2', 'price': '83', 'overall_rating': '4.0', 'image_num': '17', 'comment_num': '35', 'children': [], 'lat': 34.23730227666829, 'lng': 108.86822898962272}}"
"{'name': '陕西威纳尔网球俱乐部', 'location': {'lat': 34.23142595976592, 'lng': 108.86433933354792}, 'address': '西安市雁塔区高新区丈八北路头外事学院南校区内网球场', 'province': '陕西省', 'city': '西安市', 'area': '雁塔区', 'telephone': '13572209380', 'detail': 1, 'uid': 'e4a3f4ec10ebeb8fa2a93436', 'detail_info': {'tag': '运动健身;体育场馆', 'type': 'life', 'detail_url': 'http://api.map.baidu.com/place/detail?uid=e4a3f4ec10ebeb8fa2a93436&output=html&source=placeapi_v2', 'image_num': '1', 'children': [], 'lat': 34.23142595976592, 'lng': 108.86433933354792}}"
"{'name': '亿龙桌球俱乐部', 'location': {'lat': 34.22859981821849, 'lng': 108.84589657608349}, 'address': '陕西省西安市雁塔区英农路', 'province': '陕西省', 'city': '西安市', 'area': '雁塔区', 'street_id': '7e3b2a54aca27072f4e73bff', 'detail': 1, 'uid': '7e3b2a54aca27072f4e73bff', 'detail_info': {'tag': '运动健身;体育场馆', 'type': 'life', 'detail_url': 'http://api.map.baidu.com/place/detail?uid=7e3b2a54aca27072f4e73bff&output=html&source=placeapi_v2', 'image_num': '3', 'children': [], 'lat': 34.22859981821849, 'lng': 108.84589657608349}}"
"{'name': '海星游泳馆', 'location': {'lat': 34.22942902268006, 'lng': 108.84780537387317}, 'address': '陕西省西安市雁塔区鱼斗路257号附近', 'province': '陕西省', 'city': '西安市', 'area': '雁塔区', 'detail': 1, 'uid': '4eb9c9d454fe917f4afd3fcc', 'detail_info': {'tag': '运动健身;体育场馆', 'type': 'life', 'detail_url': 'http://api.map.baidu.com/place/detail?uid=4eb9c9d454fe917f4afd3fcc&output=html&source=placeapi_v2', 'image_num': '1', 'children': [], 'lat': 34.22942902268006, 'lng': 108.84780537387317}}"
"{'name': '蓝鲸快乐宝贝游泳馆(伟业公馆店)', 'location': {'lat': 34.240562513204445, 'lng': 108.87237509940327}, 'address': '伟业公馆西门', 'province': '陕西省', 'city': '西安市', 'area': '雁塔区', 'detail': 1, 'uid': 'db1b815ef50f2f003ce231f9', 'detail_info': {'tag': '运动健身;体育场馆', 'type': 'life', 'detail_url': 'http://api.map.baidu.com/place/detail?uid=db1b815ef50f2f003ce231f9&output=html&source=placeapi_v2', 'overall_rating': '3.0', 'image_num': '1', 'comment_num': '1', 'children': [], 'lat': 34.240562513204445, 'lng': 108.87237509940327}}"
"{'name': '弘德武术馆', 'location': {'lat': 34.241661934588784, 'lng': 108.8687698942951}, 'address': '陕西省西安市雁塔区丈八北路10号南90米', 'province': '陕西省', 'city': '西安市', 'area': '雁塔区', 'detail': 1, 'uid': '214e740639a47720fa42b23b', 'detail_info': {'tag': '运动健身;体育场馆', 'type': 'life', 'detail_url': 'http://api.map.baidu.com/place/detail?uid=214e740639a47720fa42b23b&output=html&source=placeapi_v2', 'image_num': '4', 'children': [], 'lat': 34.241661934588784, 'lng': 108.8687698942951}}"
"{'name': 'FourFit美式体能训练馆', 'location': {'lat': 34.24653855854966, 'lng': 108.87634596314714}, 'address': '西安市雁塔区大寨路与团结南路交叉路口西侧(盛景园)', 'province': '陕西省', 'city': '西安市', 'area': '雁塔区', 'detail': 1, 'uid': '0c99ebe59389d4044107c17b', 'detail_info': {'tag': '运动健身;体育场馆', 'type': 'life', 'detail_url': 'http://api.map.baidu.com/place/detail?uid=0c99ebe59389d4044107c17b&output=html&source=placeapi_v2', 'image_num': '1', 'children': [], 'lat': 34.24653855854966, 'lng': 108.87634596314714}}"
"{'name': '飞翔跆拳道', 'location': {'lat': 34.2396019308281, 'lng': 108.86818879195562}, 'address': '科技路华润万家楼上6楼', 'province': '陕西省', 'city': '西安市', 'area': '雁塔区', 'detail': 1, 'uid': '38209e1c6e4eb459c909f0fd', 'detail_info': {'tag': '运动健身;体育场馆', 'type': 'life', 'detail_url': 'http://api.map.baidu.com/place/detail?uid=38209e1c6e4eb459c909f0fd&output=html&source=placeapi_v2', 'image_num': '2', 'children': [], 'lat': 34.2396019308281, 'lng': 108.86818879195562}}"
"{'name': '卓越跆拳道', 'location': {'lat': 34.22283499024556, 'lng': 108.8688992799116}, 'address': '陕西省西安市雁塔区丈八北路与科技四路十字东北角夏日景色小区西口中国移动二楼', 'province': '陕西省', 'city': '西安市', 'area': '雁塔区', 'detail': 1, 'uid': '63deb6704fc807eec26c145b', 'detail_info': {'tag': '运动健身;体育场馆', 'type': 'life', 'detail_url': 'http://api.map.baidu.com/place/detail?uid=63deb6704fc807eec26c145b&output=html&source=placeapi_v2', 'overall_rating': '0.0', 'image_num': '1', 'comment_num': '1', 'children': [], 'lat': 34.22283499024556, 'lng': 108.8688992799116}}"
"{'name': '7号桌球城', 'location': {'lat': 34.24485596547917, 'lng': 108.84023499245936}, 'address': '西安市雁塔区经十五路与纬一路交叉路口往北约100米(石桥欣苑东侧)', 'province': '陕西省', 'city': '西安市', 'area': '雁塔区', 'detail': 1, 'uid': 'c11974561cfa2e1eae080f3c', 'detail_info': {'tag': '休闲娱乐;游戏场所', 'type': 'life', 'detail_url': 'http://api.map.baidu.com/place/detail?uid=c11974561cfa2e1eae080f3c&output=html&source=placeapi_v2', 'overall_rating': '5.0', 'image_num': '6', 'comment_num': '1', 'children': [], 'lat': 34.24485596547917, 'lng': 108.84023499245936}}"
"{'name': '来电(AIMO·HIIT智慧轻健身)', 'location': {'lat': 34.238313365591516, 'lng': 108.87233258599886}, 'address': '高新六路2号七星花园小区2号楼1F102室', 'province': '陕西省', 'city': '西安市', 'area': '雁塔区', 'detail': 1, 'uid': 'bbb76bf1e25113d728b97c92', 'detail_info': {'tag': '生活服务;其他', 'type': 'life', 'detail_url': 'http://api.map.baidu.com/place/detail?uid=bbb76bf1e25113d728b97c92&output=html&source=placeapi_v2', 'image_num': '1', 'children': [], 'lat': 34.238313365591516, 'lng': 108.87233258599886}}"
"{'name': '优游谷婴童游泳儿童乐园', 'location': {'lat': 34.22987628854358, 'lng': 108.86776098622491}, 'address': '陕西省西安市雁塔区丈八北路38号', 'province': '陕西省', 'city': '西安市', 'area': '雁塔区', 'telephone': '13227836658', 'detail': 1, 'uid': 'faecf1be4878454b59bbbcca', 'detail_info': {'tag': '休闲娱乐;游戏场所', 'type': 'life', 'detail_url': 'http://api.map.baidu.com/place/detail?uid=faecf1be4878454b59bbbcca&output=html&source=placeapi_v2', 'image_num': '1', 'children': [], 'lat': 34.22987628854358, 'lng': 108.86776098622491}}"
"{'name': '天翼智慧社区便民服务站(枫韵蓝湾社区店)', 'location': {'lat': 34.23955050812268, 'lng': 108.87051314299804}, 'address': '科技路259号枫韵蓝湾社区17号楼1楼', 'province': '陕西省', 'city': '西安市', 'area': '雁塔区', 'street_id': '50453c05a185c95a3a13fd11', 'detail': 1, 'uid': '50453c05a185c95a3a13fd11', 'detail_info': {'tag': '生活服务;其他', 'type': 'life', 'detail_url': 'http://api.map.baidu.com/place/detail?uid=50453c05a185c95a3a13fd11&output=html&source=placeapi_v2', 'image_num': '2', 'children': [], 'lat': 34.23955050812268, 'lng': 108.87051314299804}}"
"{'name': '铭城健身中心', 'location': {'lat': 34.24690481860425, 'lng': 108.85141471887061}, 'address': '西安市雁塔区大寨路铭城国际社区铭城售楼中心负1层', 'province': '陕西省', 'city': '西安市', 'area': '雁塔区', 'street_id': '5d26a8b519df2d290b69d9bd', 'detail': 1, 'uid': '5d26a8b519df2d290b69d9bd', 'detail_info': {'tag': '运动健身;健身中心', 'type': 'life', 'detail_url': 'http://api.map.baidu.com/place/detail?uid=5d26a8b519df2d290b69d9bd&output=html&source=placeapi_v2', 'overall_rating': '3.2', 'image_num': '4', 'comment_num': '5', 'children': [], 'lat': 34.24690481860425, 'lng': 108.85141471887061}}"
"{'name': 'GOODMAN健君游泳健身会馆', 'location': {'lat': 34.24978914812495, 'lng': 108.87994213031715}, 'address': '团结南路1号融侨城', 'province': '陕西省', 'city': '西安市', 'area': '雁塔区', 'street_id': '4d7bb8e8a8cdecddadb22aa1', 'telephone': '(029)82161666,15332377273', 'detail': 1, 'uid': '4d7bb8e8a8cdecddadb22aa1', 'detail_info': {'tag': '运动健身;健身中心', 'navi_location': {'lng': 108.89135261636, 'lat': 34.254228262077}, 'type': 'life', 'detail_url': 'http://api.map.baidu.com/place/detail?uid=4d7bb8e8a8cdecddadb22aa1&output=html&source=placeapi_v2', 'overall_rating': '4.3', 'image_num': '3', 'comment_num': '3', 'children': [], 'lat': 34.24978914812495, 'lng': 108.87994213031715}}"
"{'name': '逐风健身俱乐部', 'location': {'lat': 34.27101805758157, 'lng': 108.85800429877969}, 'address': '陕西省西安市莲湖区大庆路与丰隆路十字西北角华府西城港湾11号楼3层303商铺', 'province': '陕西省', 'city': '西安市', 'area': '莲湖区', 'street_id': 'e217d34eac2e1cc3b020a819', 'telephone': '(029)88858880', 'detail': 1, 'uid': 'e217d34eac2e1cc3b020a819', 'detail_info': {'tag': '运动健身;健身中心', 'type': 'life', 'detail_url': 'http://api.map.baidu.com/place/detail?uid=e217d34eac2e1cc3b020a819&output=html&source=placeapi_v2', 'overall_rating': '1.0', 'image_num': '6', 'comment_num': '1', 'children': [], 'lat': 34.27101805758157, 'lng': 108.85800429877969}}"
"{'name': '赛普健身教练培训基地(西安市校区)', 'location': {'lat': 34.24877272513366, 'lng': 108.88306080047506}, 'address': '雁塔区唐延路北段20号太和时代大厦3层', 'province': '陕西省', 'city': '西安市', 'area': '雁塔区', 'detail': 1, 'uid': '97f201bbd741adb5f503b8e6', 'detail_info': {'tag': '运动健身;健身中心', 'type': 'life', 'detail_url': 'http://api.map.baidu.com/place/detail?uid=97f201bbd741adb5f503b8e6&output=html&source=placeapi_v2', 'overall_rating': '5.0', 'image_num': '9', 'comment_num': '5', 'children': [], 'lat': 34.24877272513366, 'lng': 108.88306080047506}}"
"{'name': '西控职工健身俱乐部', 'location': {'lat': 34.26801789946344, 'lng': 108.86703163374276}, 'address': '汉城南路272号', 'province': '陕西省', 'city': '西安市', 'area': '莲湖区', 'street_id': '15e1e85e38ad0edf58109316', 'telephone': '(029)84675158', 'detail': 1, 'uid': '15e1e85e38ad0edf58109316', 'detail_info': {'tag': '运动健身;健身中心', 'navi_location': {'lng': 108.87848740405, 'lat': 34.272339211262}, 'type': 'life', 'detail_url': 'http://api.map.baidu.com/place/detail?uid=15e1e85e38ad0edf58109316&output=html&source=placeapi_v2', 'price': '30', 'overall_rating': '4.6', 'image_num': '14', 'comment_num': '8', 'children': [], 'lat': 34.26801789946344, 'lng': 108.86703163374276}}"
"{'name': '50+Fitness Center健身中心(恒大店)', 'location': {'lat': 34.270014256659145, 'lng': 108.85563725855482}, 'address': '西安市莲湖区大庆路758号恒大翡翠华庭商铺3楼', 'province': '陕西省', 'city': '西安市', 'area': '莲湖区', 'telephone': '(029)81501550', 'detail': 1, 'uid': '305f369706e28807d5b74e37', 'detail_info': {'tag': '运动健身;健身中心', 'type': 'life', 'detail_url': 'http://api.map.baidu.com/place/detail?uid=305f369706e28807d5b74e37&output=html&source=placeapi_v2', 'overall_rating': '4.6', 'image_num': '2', 'comment_num': '35', 'children': [], 'lat': 34.270014256659145, 'lng': 108.85563725855482}}"
"{'name': '迈斯菲利健身', 'location': {'lat': 34.246999360503544, 'lng': 108.85145367549107}, 'address': '大寨路铭城国际社区售楼部', 'province': '陕西省', 'city': '西安市', 'area': '雁塔区', 'street_id': 'a847f82e38166c219868b4d3', 'detail': 1, 'uid': 'a847f82e38166c219868b4d3', 'detail_info': {'tag': '运动健身;健身中心', 'type': 'life', 'detail_url': 'http://api.map.baidu.com/place/detail?uid=a847f82e38166c219868b4d3&output=html&source=placeapi_v2', 'overall_rating': '3.0', 'image_num': '9', 'comment_num': '2', 'children': [], 'lat': 34.246999360503544, 'lng': 108.85145367549107}}"
"{'name': 'Hi Lady女王健身(高新旗舰店)', 'location': {'lat': 34.24895178950993, 'lng': 108.87698395105429}, 'address': '安琪儿妇产医院北侧九行道3层', 'province': '陕西省', 'city': '西安市', 'area': '雁塔区', 'street_id': '864b955377d09ccfeee4a599', 'telephone': '(029)88643494,13474527677', 'detail': 1, 'uid': '864b955377d09ccfeee4a599', 'detail_info': {'tag': '运动健身;健身中心', 'type': 'life', 'detail_url': 'http://api.map.baidu.com/place/detail?uid=864b955377d09ccfeee4a599&output=html&source=placeapi_v2', 'overall_rating': '5.0', 'image_num': '15', 'comment_num': '14', 'children': [], 'lat': 34.24895178950993, 'lng': 108.87698395105429}}"
"{'name': 'REMAIN SUPERFIT运动轻食馆', 'location': {'lat': 34.249146284032996, 'lng': 108.88284274938178}, 'address': '唐延路北段20号太和时代广场一楼', 'province': '陕西省', 'city': '西安市', 'area': '雁塔区', 'telephone': '15991949000', 'detail': 1, 'uid': 'bbf8229397a79179eb56fa3b', 'detail_info': {'tag': '运动健身;健身中心', 'type': 'life', 'detail_url': 'http://api.map.baidu.com/place/detail?uid=bbf8229397a79179eb56fa3b&output=html&source=placeapi_v2', 'overall_rating': '5.0', 'image_num': '1', 'comment_num': '63', 'children': [], 'lat': 34.249146284032996, 'lng': 108.88284274938178}}"
"{'name': '丹珠瑜伽', 'location': {'lat': 34.27774015429531, 'lng': 108.88013259502549}, 'address': '丰收路南300米双府新天地3号楼3单元1904', 'province': '陕西省', 'city': '西安市', 'area': '莲湖区', 'detail': 1, 'uid': '73a3dc30c83147c3d618b7ac', 'detail_info': {'tag': '运动健身;健身中心', 'type': 'life', 'detail_url': 'http://api.map.baidu.com/place/detail?uid=73a3dc30c83147c3d618b7ac&output=html&source=placeapi_v2', 'overall_rating': '5.0', 'image_num': '1', 'comment_num': '10', 'children': [], 'lat': 34.27774015429531, 'lng': 108.88013259502549}}"
"{'name': '静心瑜伽(旗舰店)', 'location': {'lat': 34.27079898911871, 'lng': 108.85040468587226}, 'address': '陕西省西安市莲湖区大庆路931号', 'province': '陕西省', 'city': '西安市', 'area': '莲湖区', 'street_id': '6c1ba075966accf303ff2d68', 'telephone': '18710722019', 'detail': 1, 'uid': '6c1ba075966accf303ff2d68', 'detail_info': {'tag': '运动健身;健身中心', 'type': 'life', 'detail_url': 'http://api.map.baidu.com/place/detail?uid=6c1ba075966accf303ff2d68&output=html&source=placeapi_v2', 'overall_rating': '5.0', 'image_num': '11', 'comment_num': '2', 'children': [], 'lat': 34.27079898911871, 'lng': 108.85040468587226}}"
"{'name': '凡上静之瑜伽会馆', 'location': {'lat': 34.24808965726656, 'lng': 108.86400920338458}, 'address': '大寨路恒大城23号楼', 'province': '陕西省', 'city': '西安市', 'area': '雁塔区', 'telephone': '13609187970,(029)88699468', 'detail': 1, 'uid': '39406045b9d940cd4afd3fb3', 'detail_info': {'tag': '运动健身;健身中心', 'type': 'life', 'detail_url': 'http://api.map.baidu.com/place/detail?uid=39406045b9d940cd4afd3fb3&output=html&source=placeapi_v2', 'overall_rating': '4.7', 'image_num': '1', 'comment_num': '6', 'children': [], 'lat': 34.24808965726656, 'lng': 108.86400920338458}}"
"{'name': '健身游泳中心', 'location': {'lat': 34.246955210424545, 'lng': 108.85151248747063}, 'address': '陕西省西安市雁塔区大寨路', 'province': '陕西省', 'city': '西安市', 'area': '雁塔区', 'detail': 1, 'uid': '57a365bf632f5b8ef8f0cbf8', 'detail_info': {'tag': '运动健身;健身中心', 'type': 'life', 'detail_url': 'http://api.map.baidu.com/place/detail?uid=57a365bf632f5b8ef8f0cbf8&output=html&source=placeapi_v2', 'image_num': '1', 'children': [], 'lat': 34.246955210424545, 'lng': 108.85151248747063}}"
"{'name': '梵客瑜伽FancoYoga', 'location': {'lat': 34.24931266383825, 'lng': 108.8603390117486}, 'address': '大寨路99号恒大城39号楼1502室', 'province': '陕西省', 'city': '西安市', 'area': '雁塔区', 'telephone': '18149390199,15991859566', 'detail': 1, 'uid': '4988fd251c20a34a6cc02cc8', 'detail_info': {'tag': '运动健身;健身中心', 'type': 'life', 'detail_url': 'http://api.map.baidu.com/place/detail?uid=4988fd251c20a34a6cc02cc8&output=html&source=placeapi_v2', 'overall_rating': '5.0', 'image_num': '1', 'comment_num': '1', 'children': [], 'lat': 34.24931266383825, 'lng': 108.8603390117486}}"
"{'name': '七彩花少儿舞蹈(华东·万锦城购物中心店)', 'location': {'lat': 34.26235123617531, 'lng': 108.86641534932981}, 'address': '西安市莲湖区汉城南路100号华东·万锦城购物中心F5', 'province': '陕西省', 'city': '西安市', 'area': '莲湖区', 'street_id': '614d9eccf50420a06268588c', 'detail': 1, 'uid': '614d9eccf50420a06268588c', 'detail_info': {'tag': '运动健身;健身中心', 'navi_location': {'lng': 108.87846311027, 'lat': 34.267356235855}, 'indoor_floor': 'F5', 'type': 'life', 'detail_url': 'http://api.map.baidu.com/place/detail?uid=614d9eccf50420a06268588c&output=html&source=placeapi_v2', 'overall_rating': '1.5', 'image_num': '8', 'comment_num': '2', 'children': [], 'lat': 34.26235123617531, 'lng': 108.86641534932981}}"
"{'name': '圣珈瑜伽私教体验中心(高新店)', 'location': {'lat': 34.24958755529451, 'lng': 108.87697444278203}, 'address': '团结南路枫林华府东门外美好时光母婴国际三楼(一悦一生国际月子养生中心)', 'province': '陕西省', 'city': '西安市', 'area': '雁塔区', 'detail': 1, 'uid': 'a53d58e271a12e4814948e77', 'detail_info': {'tag': '运动健身;健身中心', 'type': 'life', 'detail_url': 'http://api.map.baidu.com/place/detail?uid=a53d58e271a12e4814948e77&output=html&source=placeapi_v2', 'overall_rating': '4.0', 'image_num': '1', 'comment_num': '1', 'children': [], 'lat': 34.24958755529451, 'lng': 108.87697444278203}}"
"{'name': '可骏舞蹈', 'location': {'lat': 34.25618839468229, 'lng': 108.86781430172853}, 'address': '陕西省西安市莲湖区汉城南路319号附近', 'province': '陕西省', 'city': '西安市', 'area': '莲湖区', 'detail': 1, 'uid': '42182cf81186fca97f29bd63', 'detail_info': {'tag': '运动健身;健身中心', 'type': 'life', 'detail_url': 'http://api.map.baidu.com/place/detail?uid=42182cf81186fca97f29bd63&output=html&source=placeapi_v2', 'image_num': '1', 'children': [], 'lat': 34.25618839468229, 'lng': 108.86781430172853}}"
"{'name': '健身方程室', 'location': {'lat': 34.24967447581415, 'lng': 108.87229754836795}, 'address': '陕西省西安市雁塔区民洁路1号北80米', 'province': '陕西省', 'city': '西安市', 'area': '雁塔区', 'telephone': '(029)89851616', 'detail': 1, 'uid': '8c1ad32ee1b4aa5575e5b6d8', 'detail_info': {'tag': '运动健身', 'type': 'life', 'detail_url': 'http://api.map.baidu.com/place/detail?uid=8c1ad32ee1b4aa5575e5b6d8&output=html&source=placeapi_v2', 'overall_rating': '4.3', 'image_num': '6', 'comment_num': '3', 'children': [], 'lat': 34.24967447581415, 'lng': 108.87229754836795}}"
"{'name': '主场篮球(土门工厂店)', 'location': {'lat': 34.263081290955185, 'lng': 108.85853925453054}, 'address': '红光路91号', 'province': '陕西省', 'city': '西安市', 'area': '莲湖区', 'street_id': 'a8cbbfe63df036f13be4a6a7', 'telephone': '(029)84580309,15529606298', 'detail': 1, 'uid': 'a8cbbfe63df036f13be4a6a7', 'detail_info': {'tag': '运动健身;体育场馆', 'type': 'life', 'detail_url': 'http://api.map.baidu.com/place/detail?uid=a8cbbfe63df036f13be4a6a7&output=html&source=placeapi_v2', 'price': '21', 'overall_rating': '4.4', 'image_num': '27', 'comment_num': '38', 'children': [], 'lat': 34.263081290955185, 'lng': 108.85853925453054}}"
"{'name': '西钞羽毛球馆', 'location': {'lat': 34.264921405074745, 'lng': 108.86627534862163}, 'address': '汉城南路92号', 'province': '陕西省', 'city': '西安市', 'area': '莲湖区', 'street_id': '33a236383e606604c16c14c5', 'detail': 1, 'uid': '33a236383e606604c16c14c5', 'detail_info': {'tag': '运动健身;体育场馆', 'type': 'life', 'detail_url': 'http://api.map.baidu.com/place/detail?uid=33a236383e606604c16c14c5&output=html&source=placeapi_v2', 'overall_rating': '5.0', 'image_num': '9', 'comment_num': '2', 'children': [], 'lat': 34.264921405074745, 'lng': 108.86627534862163}}"
"{'name': '一品户外弓射竞技俱乐部', 'location': {'lat': 34.27936993472511, 'lng': 108.88262097340885}, 'address': '陕西省西安市莲湖区丰衍路', 'province': '陕西省', 'city': '西安市', 'area': '莲湖区', 'detail': 1, 'uid': 'e8e4380ce5cbf1143b13fd04', 'detail_info': {'tag': '运动健身;体育场馆', 'type': 'life', 'detail_url': 'http://api.map.baidu.com/place/detail?uid=e8e4380ce5cbf1143b13fd04&output=html&source=placeapi_v2', 'image_num': '4', 'children': [], 'lat': 34.27936993472511, 'lng': 108.88262097340885}}"
"{'name': '乐迪游泳馆', 'location': {'lat': 34.247901824393296, 'lng': 108.86396228575315}, 'address': '鱼化寨街道大寨路恒大影城一楼', 'province': '陕西省', 'city': '西安市', 'area': '雁塔区', 'street_id': 'bcf2c8210fc8ba856c3e1bb8', 'detail': 1, 'uid': 'bcf2c8210fc8ba856c3e1bb8', 'detail_info': {'tag': '运动健身;体育场馆', 'type': 'life', 'detail_url': 'http://api.map.baidu.com/place/detail?uid=bcf2c8210fc8ba856c3e1bb8&output=html&source=placeapi_v2', 'overall_rating': '1.0', 'image_num': '1', 'comment_num': '2', 'children': [], 'lat': 34.247901824393296, 'lng': 108.86396228575315}}"
"{'name': '零距离健身土门店', 'location': {'lat': 34.24888354677295, 'lng': 108.88295421260781}, 'address': '团结西路26号', 'province': '陕西省', 'city': '西安市', 'area': '雁塔区', 'detail': 1, 'uid': '67500337ce417ba4c51b75cd', 'detail_info': {'tag': '运动健身;体育场馆', 'type': 'life', 'detail_url': 'http://api.map.baidu.com/place/detail?uid=67500337ce417ba4c51b75cd&output=html&source=placeapi_v2', 'image_num': '1', 'children': [], 'lat': 34.24888354677295, 'lng': 108.88295421260781}}"
"{'name': '卓跃儿童运动馆(二馆)', 'location': {'lat': 34.24806270577518, 'lng': 108.86422919763643}, 'address': '西安市雁塔区大寨路恒大影城3楼', 'province': '陕西省', 'city': '西安市', 'area': '雁塔区', 'street_id': '6e173d82c37a7eb511882472', 'telephone': '17719504726', 'detail': 1, 'uid': '6e173d82c37a7eb511882472', 'detail_info': {'tag': '运动健身;体育场馆', 'type': 'life', 'detail_url': 'http://api.map.baidu.com/place/detail?uid=6e173d82c37a7eb511882472&output=html&source=placeapi_v2', 'overall_rating': '4.7', 'image_num': '9', 'comment_num': '3', 'children': [], 'lat': 34.24806270577518, 'lng': 108.86422919763643}}"
"{'name': '优米宝贝婴儿游泳馆', 'location': {'lat': 34.247019050819716, 'lng': 108.86067502364948}, 'address': '大寨路恒大城5号楼16楼1604号', 'province': '陕西省', 'city': '西安市', 'area': '雁塔区', 'street_id': 'b1203f1969d0e3bed8ecedb4', 'telephone': '15319932822', 'detail': 1, 'uid': 'b1203f1969d0e3bed8ecedb4', 'detail_info': {'tag': '运动健身;体育场馆', 'type': 'life', 'detail_url': 'http://api.map.baidu.com/place/detail?uid=b1203f1969d0e3bed8ecedb4&output=html&source=placeapi_v2', 'price': '74', 'overall_rating': '4.6', 'image_num': '5', 'comment_num': '10', 'children': [], 'lat': 34.247019050819716, 'lng': 108.86067502364948}}"
"{'name': '小当家婴儿游泳馆(翡丽城店)', 'location': {'lat': 34.2662050373751, 'lng': 108.87822989290031}, 'address': '团结中路43号翡丽城2号楼3单元一楼105室(小树林附近)', 'province': '陕西省', 'city': '西安市', 'area': '莲湖区', 'telephone': '13359204662', 'detail': 1, 'uid': '2d3d5a0f2975e9c07bf7967a', 'detail_info': {'tag': '运动健身;体育场馆', 'type': 'life', 'detail_url': 'http://api.map.baidu.com/place/detail?uid=2d3d5a0f2975e9c07bf7967a&output=html&source=placeapi_v2', 'overall_rating': '5.0', 'image_num': '1', 'comment_num': '1', 'children': [], 'lat': 34.2662050373751, 'lng': 108.87822989290031}}"
"{'name': '珍奥安啦银色俱乐部', 'location': {'lat': 34.264978470606245, 'lng': 108.87741899478806}, 'address': '陕西省西安市莲湖区团结南路35号附近', 'province': '陕西省', 'city': '西安市', 'area': '莲湖区', 'detail': 1, 'uid': '7bdd4e4999e28b5ed0ff234f', 'detail_info': {'tag': '运动健身;体育场馆', 'type': 'life', 'detail_url': 'http://api.map.baidu.com/place/detail?uid=7bdd4e4999e28b5ed0ff234f&output=html&source=placeapi_v2', 'image_num': '5', 'children': [], 'lat': 34.264978470606245, 'lng': 108.87741899478806}}"
"{'name': '振道跆拳道', 'location': {'lat': 34.2488337668976, 'lng': 108.87658150834645}, 'address': '团结南路28号九形道商业楼南三层', 'province': '陕西省', 'city': '西安市', 'area': '雁塔区', 'street_id': '2045b121d96a7423740269d8', 'telephone': '18591888878', 'detail': 1, 'uid': '2045b121d96a7423740269d8', 'detail_info': {'tag': '运动健身;体育场馆', 'type': 'life', 'detail_url': 'http://api.map.baidu.com/place/detail?uid=2045b121d96a7423740269d8&output=html&source=placeapi_v2', 'overall_rating': '5.0', 'image_num': '14', 'comment_num': '3', 'children': [], 'lat': 34.2488337668976, 'lng': 108.87658150834645}}"
"{'name': '西安市莲湖区思蜜宝贝游泳馆', 'location': {'lat': 34.255591156765085, 'lng': 108.88118138298395}, 'address': '昆明路3号桥北口雅逸花园小区内3层商业楼1楼(创新路)', 'province': '陕西省', 'city': '西安市', 'area': '莲湖区', 'telephone': '18629592337', 'detail': 1, 'uid': '79794c4240c8f7924307c1a8', 'detail_info': {'tag': '运动健身;体育场馆', 'type': 'life', 'detail_url': 'http://api.map.baidu.com/place/detail?uid=79794c4240c8f7924307c1a8&output=html&source=placeapi_v2', 'overall_rating': '4.0', 'image_num': '7', 'comment_num': '2', 'children': [], 'lat': 34.255591156765085, 'lng': 108.88118138298395}}"
"{'name': '摩尔蓝星乒乓球俱乐部', 'location': {'lat': 34.25828728832113, 'lng': 108.8823129602965}, 'address': '陕西省西安市莲湖区土门街道西二环土门十字西城方洲商业摩尔商业中心负一层', 'province': '陕西省', 'city': '西安市', 'area': '莲湖区', 'telephone': '(029)89637636', 'detail': 1, 'uid': 'ca439bb3763f88e517c8f6e4', 'detail_info': {'tag': '运动健身;体育场馆', 'type': 'life', 'detail_url': 'http://api.map.baidu.com/place/detail?uid=ca439bb3763f88e517c8f6e4&output=html&source=placeapi_v2', 'image_num': '1', 'children': [], 'lat': 34.25828728832113, 'lng': 108.8823129602965}}"
"{'name': '双府台球俱乐部', 'location': {'lat': 34.27919838991789, 'lng': 108.8769546653579}, 'address': '陕西省西安市莲湖区丰收路26号附近', 'province': '陕西省', 'city': '西安市', 'area': '莲湖区', 'detail': 1, 'uid': '083f18d333a802b8f11937d9', 'detail_info': {'tag': '运动健身;体育场馆', 'type': 'life', 'detail_url': 'http://api.map.baidu.com/place/detail?uid=083f18d333a802b8f11937d9&output=html&source=placeapi_v2', 'image_num': '6', 'children': [], 'lat': 34.27919838991789, 'lng': 108.8769546653579}}"
"{'name': '元吉拳击.跆拳道俱乐部', 'location': {'lat': 34.267883477114, 'lng': 108.86700762729174}, 'address': '陕西省西安市莲湖区汉城南路272号', 'province': '陕西省', 'city': '西安市', 'area': '莲湖区', 'street_id': 'd83f8467e7937ab1c42ba1b8', 'telephone': '(029)84613089', 'detail': 1, 'uid': '1569215c4f28c3504c3a59cb', 'detail_info': {'tag': '运动健身;体育场馆', 'navi_location': {'lng': 108.87848653628, 'lat': 34.27219327177}, 'type': 'life', 'detail_url': 'http://api.map.baidu.com/place/detail?uid=1569215c4f28c3504c3a59cb&output=html&source=placeapi_v2', 'overall_rating': '1.0', 'image_num': '9', 'comment_num': '8', 'children': [], 'lat': 34.267883477114, 'lng': 108.86700762729174}}"
"{'name': '民洁台球厅', 'location': {'lat': 34.25274719587447, 'lng': 108.87224615404513},