[{"name": "\u5148\u950b\u5782\u9493\u56ed", "location": {"lat": 34.209664942000295, "lng": 108.81756588668947}, "address": "\u6597\u95e8\u8857\u9053\u5148\u950b\u5c0f\u5b66\u5357", "province": "\u9655\u897f\u7701", "city": "\u897f\u5b89\u5e02", "area": "\u957f\u5b89\u533a", "detail": 1, "uid": "71f73bed6a5a4799ad080f0c", "detail_info": {"tag": "\u4f11\u95f2\u5a31\u4e50;\u5176\u4ed6", "navi_location": {"lng": 108.82928132736, "lat": 34.214550766383}, "type": "life", "detail_url": "http://api.map.baidu.com/place/detail?uid=71f73bed6a5a4799ad080f0c&output=html&source=placeapi_v2", "overall_rating": "2.3", "image_num": "6", "comment_num": "3", "children": [], "lat": 34.209664942000295, "lng": 108.81756588668947}}, {"name": "\u6c60\u671b\u5e7f\u573a", "location": {"lat": 34.21074270518042, "lng": 108.76564561231189}, "address": "\u897f\u5b89\u5e02\u957f\u5b89\u533a\u6ca3\u4e1c\u65b0\u57ce\u6597\u95e8\u65b0\u578b\u5de5\u4e1a\u56ed\u533a\u6c47\u65b0\u8def\u5317\u6bb5\u6606\u660e\u6c60\u00b7\u4e03\u5915\u516c\u56ed\u5185", "province": "\u9655\u897f\u7701", "city": "\u897f\u5b89\u5e02", "area": "\u957f\u5b89\u533a", "detail": 1, "uid": "453ef15532414f46c4f50d07", "detail_info": {"tag": "\u4f11\u95f2\u5a31\u4e50;\u4f11\u95f2\u5e7f\u573a", "type": "life", "detail_url": "http://api.map.baidu.com/place/detail?uid=453ef15532414f46c4f50d07&output=html&source=placeapi_v2", "overall_rating": "5.0", "image_num": "1", "comment_num": "1", "children": [], "lat": 34.21074270518042, "lng": 108.76564561231189}}, {"name": "\u7948\u613f\u5e7f\u573a", "location": {"lat": 34.21185383560526, "lng": 108.77326268420477}, "address": "\u897f\u5b89\u5e02\u957f\u5b89\u533a\u6ca3\u4e1c\u65b0\u57ce\u6597\u95e8\u65b0\u578b\u5de5\u4e1a\u56ed\u533a\u6c47\u65b0\u8def\u5317\u6bb5\u6606\u660e\u6c60\u00b7\u4e03\u5915\u516c\u56ed\u5185", "province": "\u9655\u897f\u7701", "city": "\u897f\u5b89\u5e02", "area": "\u957f\u5b89\u533a", "detail": 1, "uid": "9c267500d0e445fefbf0cb8c", "detail_info": {"tag": "\u4f11\u95f2\u5a31\u4e50;\u4f11\u95f2\u5e7f\u573a", "type": "life", "detail_url": "http://api.map.baidu.com/place/detail?uid=9c267500d0e445fefbf0cb8c&output=html&source=placeapi_v2", "overall_rating": "5.0", "image_num": "1", "comment_num": "1", "children": [], "lat": 34.21185383560526, "lng": 108.77326268420477}}, {"name": "\u7530\u56ed\u519c\u5e84", "location": {"lat": 34.183551631028465, "lng": 108.76962482024764}, "address": "\u9655\u897f\u7701\u897f\u5b89\u5e02\u957f\u5b89\u533a\u65b0\u97e6\u6597\u8def\u897f150\u7c73", "province": "\u9655\u897f\u7701", "city": "\u897f\u5b89\u5e02", "area": "\u957f\u5b89\u533a", "detail": 1, "uid": "54c10568597568260d3ddac6", "detail_info": {"tag": "\u4f11\u95f2\u5a31\u4e50;\u519c\u5bb6\u9662", "navi_location": {"lng": 108.7809176735, "lat": 34.187922361772}, "type": "hotel", "detail_url": "http://api.map.baidu.com/place/detail?uid=54c10568597568260d3ddac6&output=html&source=placeapi_v2", "service_rating": "0", "facility_rating": "0", "hygiene_rating": "0", "image_num": "1", "comment_num": "0", "favorite_num": "0", "checkin_num": "0", "children": [], "lat": 34.183551631028465, "lng": 108.76962482024764}}, {"name": "\u7075\u6ce2\u5267\u573a", "location": {"lat": 34.20703417502983, "lng": 108.76831959787798}, "address": "\u897f\u5b89\u5e02\u957f\u5b89\u533a\u6ca3\u4e1c\u65b0\u57ce\u6597\u95e8\u65b0\u578b\u5de5\u4e1a\u56ed\u533a\u6c47\u65b0\u8def\u5317\u6bb5\u6606\u660e\u6c60\u00b7\u4e03\u5915\u516c\u56ed\u5185", "province": "\u9655\u897f\u7701", "city": "\u897f\u5b89\u5e02", "area": "\u957f\u5b89\u533a", "detail": 1, "uid": "1edc50fca7e6bca6d03ce3bb", "detail_info": {"tag": "\u4f11\u95f2\u5a31\u4e50;\u5267\u9662", "type": "life", "detail_url": "http://api.map.baidu.com/place/detail?uid=1edc50fca7e6bca6d03ce3bb&output=html&source=placeapi_v2", "image_num": "1", "children": [], "lat": 34.20703417502983, "lng": 108.76831959787798}}, {"name": "\u5927\u8e66\u5e8a", "location": {"lat": 34.21105462880953, "lng": 108.77301242228083}, "address": "\u897f\u5b89\u5e02\u957f\u5b89\u533a\u6ca3\u4e1c\u65b0\u57ce\u6597\u95e8\u65b0\u578b\u5de5\u4e1a\u56ed\u533a\u6c47\u65b0\u8def\u5317\u6bb5\u6606\u660e\u6c60\u00b7\u4e03\u5915\u516c\u56ed\u5185", "province": "\u9655\u897f\u7701", "city": "\u897f\u5b89\u5e02", "area": "\u957f\u5b89\u533a", "detail": 1, "uid": "62d84e6b64dd5d2c88fc06df", "detail_info": {"tag": "\u65c5\u6e38\u666f\u70b9;\u666f\u70b9", "type": "scope", "detail_url": "http://api.map.baidu.com/place/detail?uid=62d84e6b64dd5d2c88fc06df&output=html&source=placeapi_v2", "children": [], "lat": 34.21105462880953, "lng": 108.77301242228083}}, {"name": "\u6469\u5929\u8f6e", "location": {"lat": 34.21095724742811, "lng": 108.77320953769797}, "address": "\u897f\u5b89\u5e02\u957f\u5b89\u533a\u6ca3\u4e1c\u65b0\u57ce\u6597\u95e8\u65b0\u578b\u5de5\u4e1a\u56ed\u533a\u6c47\u65b0\u8def\u5317\u6bb5\u6606\u660e\u6c60\u00b7\u4e03\u5915\u516c\u56ed\u5185", "province": "\u9655\u897f\u7701", "city": "\u897f\u5b89\u5e02", "area": "\u957f\u5b89\u533a", "detail": 1, "uid": "426c7f76b06c0d0ded74f8f5", "detail_info": {"tag": "\u65c5\u6e38\u666f\u70b9;\u666f\u70b9", "type": "scope", "detail_url": "http://api.map.baidu.com/place/detail?uid=426c7f76b06c0d0ded74f8f5&output=html&source=placeapi_v2", "children": [], "lat": 34.21095724742811, "lng": 108.77320953769797}}, {"name": "\u513f\u7ae5\u65cb\u8f6c\u6728\u9a6c", "location": {"lat": 34.2110407657495, "lng": 108.77342449345144}, "address": "\u897f\u5b89\u5e02\u957f\u5b89\u533a\u6ca3\u4e1c\u65b0\u57ce\u6597\u95e8\u65b0\u578b\u5de5\u4e1a\u56ed\u533a\u6c47\u65b0\u8def\u5317\u6bb5\u6606\u660e\u6c60\u00b7\u4e03\u5915\u516c\u56ed\u5185", "province": "\u9655\u897f\u7701", "city": "\u897f\u5b89\u5e02", "area": "\u957f\u5b89\u533a", "detail": 1, "uid": "c39a17fde0bf98b4c9e33c05", "detail_info": {"tag": "\u65c5\u6e38\u666f\u70b9;\u666f\u70b9", "type": "scope", "detail_url": "http://api.map.baidu.com/place/detail?uid=c39a17fde0bf98b4c9e33c05&output=html&source=placeapi_v2", "children": [], "lat": 34.2110407657495, "lng": 108.77342449345144}}, {"name": "\u6c34\u9646\u6218\u8f66", "location": {"lat": 34.21107807236872, "lng": 108.77317341571215}, "address": "\u897f\u5b89\u5e02\u957f\u5b89\u533a\u6ca3\u4e1c\u65b0\u57ce\u6597\u95e8\u65b0\u578b\u5de5\u4e1a\u56ed\u533a\u6c47\u65b0\u8def\u5317\u6bb5\u6606\u660e\u6c60\u00b7\u4e03\u5915\u516c\u56ed\u5185", "province": "\u9655\u897f\u7701", "city": "\u897f\u5b89\u5e02", "area": "\u957f\u5b89\u533a", "detail": 1, "uid": "b335addfe0507deb6c3e1b39", "detail_info": {"tag": "\u65c5\u6e38\u666f\u70b9;\u666f\u70b9", "type": "scope", "detail_url": "http://api.map.baidu.com/place/detail?uid=b335addfe0507deb6c3e1b39&output=html&source=placeapi_v2", "children": [], "lat": 34.21107807236872, "lng": 108.77317341571215}}, {"name": "\u805a\u9f99\u9601\u8db3\u6d74", "location": {"lat": 34.236881932745774, "lng": 108.81680394785381}, "address": "\u897f\u5b89\u5e02\u96c1\u5854\u533a\u897f\u5b9d\u758f\u5bfc\u7ebf\u4e0e\u79d1\u6280\u897f\u8def\u4ea4\u53c9\u8def\u53e3\u5f80\u5357\u7ea6100\u7c73(\u897f\u5b89\u5e02\u804c\u5de5\u5927\u5b66\u94c1\u9053\u6821\u533a\u4e1c\u4fa7)", "province": "\u9655\u897f\u7701", "city": "\u897f\u5b89\u5e02", "area": "\u96c1\u5854\u533a", "street_id": "d7da49fbb274790f2bd7ab7c", "detail": 1, "uid": "d7da49fbb274790f2bd7ab7c", "detail_info": {"tag": "\u4f11\u95f2\u5a31\u4e50;\u6d17\u6d74\u6309\u6469", "type": "life", "detail_url": "http://api.map.baidu.com/place/detail?uid=d7da49fbb274790f2bd7ab7c&output=html&source=placeapi_v2", "image_num": "9", "children": [], "lat": 34.236881932745774, "lng": 108.81680394785381}}, {"name": "\u827e\u6cfd\u62c9\u65af\u6587\u5316\u5a31\u4e50\u7f51\u5427", "location": {"lat": 34.239106994518984, "lng": 108.78267165073729}, "address": "\u9655\u897f\u7701\u897f\u5b89\u5e02\u957f\u5b89\u533a\u9550\u4eac\u5927\u905366\u53f7", "province": "\u9655\u897f\u7701", "city": "\u897f\u5b89\u5e02", "area": "\u957f\u5b89\u533a", "telephone": "15934839711", "detail": 1, "uid": "785350f5b31659d7badf8fd5", "detail_info": {"tag": "\u4f11\u95f2\u5a31\u4e50;\u7f51\u5427", "navi_location": {"lng": 108.79423409903, "lat": 34.243632811444}, "type": "life", "detail_url": "http://api.map.baidu.com/place/detail?uid=785350f5b31659d7badf8fd5&output=html&source=placeapi_v2", "overall_rating": "3.3", "image_num": "5", "comment_num": "5", "children": [], "lat": 34.239106994518984, "lng": 108.78267165073729}}, {"name": "\u8db3\u5eb7\u4fee\u811a\u5e97", "location": {"lat": 34.22022689871523, "lng": 108.80477030374482}, "address": "\u897f\u5b89\u5e02\u957f\u5b89\u533a\u9c7c\u6597\u8def\u4e0e\u897f\u5b89\u7ed5\u57ce\u9ad8\u901f\u4ea4\u53c9\u8def\u53e3\u5f80\u897f\u7ea6100\u7c73(\u6597\u95e8\u8857\u9053\u516b\u4e00\u6751\u6751\u6c11\u59d4\u5458\u4f1a\u4e1c\u4fa7\u7ea650\u7c73)", "province": "\u9655\u897f\u7701", "city": "\u897f\u5b89\u5e02", "area": "\u957f\u5b89\u533a", "detail": 1, "uid": "d6f9631494b39ed2ab059d50", "detail_info": {"tag": "\u4f11\u95f2\u5a31\u4e50;\u6d17\u6d74\u6309\u6469", "navi_location": {"lng": 108.81588688704, "lat": 34.224824900761}, "type": "life", "detail_url": "http://api.map.baidu.com/place/detail?uid=d6f9631494b39ed2ab059d50&output=html&source=placeapi_v2", "image_num": "5", "children": [], "lat": 34.22022689871523, "lng": 108.80477030374482}}, {"name": "\u5cb3\u65d7\u5be8\u5b89\u7f6e\u697c\u5357\u5e7f\u573a", "location": {"lat": 34.23863850691168, "lng": 108.8058886403334}, "address": "\u73af\u6751\u5357\u8def\u5317100\u7c73", "province": "\u9655\u897f\u7701", "city": "\u897f\u5b89\u5e02", "area": "\u96c1\u5854\u533a", "detail": 1, "uid": "7a4c8767845ab93b09b93ad1", "detail_info": {"tag": "\u4f11\u95f2\u5a31\u4e50;\u4f11\u95f2\u5e7f\u573a", "type": "life", "detail_url": "http://api.map.baidu.com/place/detail?uid=7a4c8767845ab93b09b93ad1&output=html&source=placeapi_v2", "image_num": "1", "children": [], "lat": 34.23863850691168, "lng": 108.8058886403334}}, {"name": "\u5c0f\u8682\u8681\u7b2c\u4e5d\u533a\u7f51\u7edc", "location": {"lat": 34.22041000528197, "lng": 108.80745673952681}, "address": "\u897f\u5b89\u5e02\u957f\u5b89\u533a\u9c7c\u6597\u8def\u4e0e\u897f\u5b89\u7ed5\u57ce\u9ad8\u901f\u4ea4\u53c9\u8def\u53e3\u5f80\u4e1c\u7ea650\u7c73", "province": "\u9655\u897f\u7701", "city": "\u897f\u5b89\u5e02", "area": "\u957f\u5b89\u533a", "detail": 1, "uid": "e38584a762638dbf49fd3f21", "detail_info": {"tag": "\u4f11\u95f2\u5a31\u4e50;\u7f51\u5427", "type": "life", "detail_url": "http://api.map.baidu.com/place/detail?uid=e38584a762638dbf49fd3f21&output=html&source=placeapi_v2", "image_num": "5", "children": [], "lat": 34.22041000528197, "lng": 108.80745673952681}}, {"name": "\u4eba\u6587\u8336\u820d", "location": {"lat": 34.24112242911882, "lng": 108.77771879493176}, "address": "\u9655\u897f\u7701\u897f\u5b89\u5e02\u957f\u5b89\u533a\u9550\u4eac\u5927\u9053", "province": "\u9655\u897f\u7701", "city": "\u897f\u5b89\u5e02", "area": "\u957f\u5b89\u533a", "detail": 1, "uid": "af52b3c86c36f3fe08f5eb11", "detail_info": {"tag": "\u7f8e\u98df;\u8336\u5ea7", "type": "cater", "detail_url": "http://api.map.baidu.com/place/detail?uid=af52b3c86c36f3fe08f5eb11&output=html&source=placeapi_v2", "children": [], "lat": 34.24112242911882, "lng": 108.77771879493176}}, {"name": "\u4e30\u9f0e\u8336\u574a", "location": {"lat": 34.23720944158338, "lng": 108.79198331762842}, "address": "\u897f\u5b89\u5e02\u957f\u5b89\u533a\u9550\u4eac\u5927\u9053\uff08\u4e1c\u6bb5\uff09\u4e0e\u6c49\u6c60\u4e00\u8def\u4ea4\u53c9\u8def\u53e3\u5f80\u897f\u5357\u7ea650\u7c73(\u6606\u660e\u6f9c\u5ead\u5317\u4fa7)", "province": "\u9655\u897f\u7701", "city": "\u897f\u5b89\u5e02", "area": "\u957f\u5b89\u533a", "detail": 1, "uid": "f0a5c6fc30946053ddee8b68", "detail_info": {"tag": "\u7f8e\u98df;\u8336\u5ea7", "type": "cater", "detail_url": "http://api.map.baidu.com/place/detail?uid=f0a5c6fc30946053ddee8b68&output=html&source=placeapi_v2", "children": [], "lat": 34.23720944158338, "lng": 108.79198331762842}}, {"name": "\u6597\u95e8\u8857\u9053\u529e\u4e0a\u6cc9\u6751\u4e2d\u8001\u5e74\u6d3b\u52a8\u4e2d\u5fc3", "location": {"lat": 34.239239050101936, "lng": 108.76751462802423}, "address": "\u6597\u95e8\u8857\u9053\u4e0a\u6cc9\u6751\u6751\u59d4\u4f1a\u9644\u8fd1", "province": "\u9655\u897f\u7701", "city": "\u897f\u5b89\u5e02", "area": "\u957f\u5b89\u533a", "detail": 1, "uid": "8cd230b82fcbdc835d0d0201", "detail_info": {"tag": "\u6587\u5316\u4f20\u5a92;\u6587\u5316\u5bab", "type": "life", "detail_url": "http://api.map.baidu.com/place/detail?uid=8cd230b82fcbdc835d0d0201&output=html&source=placeapi_v2", "image_num": "1", "children": [], "lat": 34.239239050101936, "lng": 108.76751462802423}}, {"name": "\u706b\u9f99\u9e1f\u6f14\u827a\u5927\u821e\u5385", "location": {"lat": 34.260417405121174, "lng": 108.82019219262736}, "address": "\u897f\u5b89\u5e02\u672a\u592e\u533a\u897f\u5b9d\u758f\u5bfc\u7ebf\u4e0e\u6ca3\u4e1c\u5927\u9053\u4ea4\u53c9\u8def\u53e3\u897f\u5357\u4fa7(\u4f2f\u4e50\u57ce\u5e02\u5e7f\u573a\u4e1c\u4fa7)", "province": "\u9655\u897f\u7701", "city": "\u897f\u5b89\u5e02", "area": "\u672a\u592e\u533a", "street_id": "f5abdcc668eb8519d5b74e7e", "detail": 1, "uid": "f5abdcc668eb8519d5b74e7e", "detail_info": {"tag": "\u4f11\u95f2\u5a31\u4e50;\u6b4c\u821e\u5385", "type": "life", "detail_url": "http://api.map.baidu.com/place/detail?uid=f5abdcc668eb8519d5b74e7e&output=html&source=placeapi_v2", "overall_rating": "0.0", "image_num": "5", "comment_num": "1", "children": [], "lat": 34.260417405121174, "lng": 108.82019219262736}}, {"name": "\u9f99\u6cc9\u6e7e\u6d74\u90fd", "location": {"lat": 34.27598920892871, "lng": 108.82063651172554}, "address": "\u897f\u5b89\u5e02\u672a\u592e\u533a\u5929\u53f0\u8defb58\u53f7", "province": "\u9655\u897f\u7701", "city": "\u897f\u5b89\u5e02", "area": "\u672a\u592e\u533a", "street_id": "cc5df21757d13623c9fa5ffe", "telephone": "(029)84383437", "detail": 1, "uid": "cc5df21757d13623c9fa5ffe", "detail_info": {"tag": "\u4f11\u95f2\u5a31\u4e50;\u6d17\u6d74\u6309\u6469", "navi_location": {"lng": 108.83176188754, "lat": 34.280672939546}, "type": "life", "detail_url": "http://api.map.baidu.com/place/detail?uid=cc5df21757d13623c9fa5ffe&output=html&source=placeapi_v2", "price": "178", "overall_rating": "2.2", "image_num": "9", "comment_num": "9", "children": [], "lat": 34.27598920892871, "lng": 108.82063651172554}}, {"name": "\u6c34\u4e91\u95f4\u8db3\u9053", "location": {"lat": 34.26052015260269, "lng": 108.82111733286808}, "address": "\u9655\u897f\u7701\u897f\u5b89\u5e02\u672a\u592e\u533a\u5929\u53f0\u8defB4\u53f7", "province": "\u9655\u897f\u7701", "city": "\u897f\u5b89\u5e02", "area": "\u672a\u592e\u533a", "street_id": "a1e474bd5b5796483517dcd7", "detail": 1, "uid": "a1e474bd5b5796483517dcd7", "detail_info": {"tag": "\u4f11\u95f2\u5a31\u4e50;\u6d17\u6d74\u6309\u6469", "type": "life", "detail_url": "http://api.map.baidu.com/place/detail?uid=a1e474bd5b5796483517dcd7&output=html&source=placeapi_v2", "overall_rating": "5.0", "image_num": "8", "comment_num": "1", "children": [], "lat": 34.26052015260269, "lng": 108.82111733286808}}, {"name": "\u4ed9\u8db3\u5802", "location": {"lat": 34.260709381682396, "lng": 108.82019246153867}, "address": "\u9655\u897f\u7701\u897f\u5b89\u5e02\u672a\u592e\u533a\u7ea2\u5149\u8def11\u53f7\u73af\u4e9a\u65f6\u5c1a\u8d2d\u7269\u5e7f\u573a6\u5c42", "province": "\u9655\u897f\u7701", "city": "\u897f\u5b89\u5e02", "area": "\u672a\u592e\u533a", "street_id": "a7c56ee04ab82ccda3acc407", "telephone": "(029)84362317", "detail": 1, "uid": "a7c56ee04ab82ccda3acc407", "detail_info": {"tag": "\u4f11\u95f2\u5a31\u4e50;\u6d17\u6d74\u6309\u6469", "type": "life", "detail_url": "http://api.map.baidu.com/place/detail?uid=a7c56ee04ab82ccda3acc407&output=html&source=placeapi_v2", "price": "122", "overall_rating": "4.6", "image_num": "30", "comment_num": "5", "children": [], "lat": 34.260709381682396, "lng": 108.82019246153867}}, {"name": "\u6d74\u6c34\u6c47", "location": {"lat": 34.25211585578409, "lng": 108.82050766917322}, "address": "\u9655\u897f\u7701\u897f\u5b89\u5e02\u672a\u592e\u533a\u5bcc\u6e90\u4e09\u8def30\u53f7", "province": "\u9655\u897f\u7701", "city": "\u897f\u5b89\u5e02", "area": "\u672a\u592e\u533a", "telephone": "(029)89108955", "detail": 1, "uid": "dcbf17622f1bc04fa7c7562f", "detail_info": {"tag": "\u4f11\u95f2\u5a31\u4e50;\u6d17\u6d74\u6309\u6469", "type": "life", "detail_url": "http://api.map.baidu.com/place/detail?uid=dcbf17622f1bc04fa7c7562f&output=html&source=placeapi_v2", "overall_rating": "0.0", "image_num": "5", "comment_num": "1", "children": [], "lat": 34.25211585578409, "lng": 108.82050766917322}}, {"name": "\u8fd1\u6c34\u9601\u8db3\u6d74", "location": {"lat": 34.26991331675951, "lng": 108.82175202001918}, "address": "\u963f\u623f\u4e00\u8def115\u53f7\u9644\u8fd1", "province": "\u9655\u897f\u7701", "city": "\u897f\u5b89\u5e02", "area": "\u672a\u592e\u533a", "detail": 1, "uid": "5fe694bb4008bbcc26e0a0c1", "detail_info": {"tag": "\u4f11\u95f2\u5a31\u4e50;\u6d17\u6d74\u6309\u6469", "type": "life", "detail_url": "http://api.map.baidu.com/place/detail?uid=5fe694bb4008bbcc26e0a0c1&output=html&source=placeapi_v2", "image_num": "10", "children": [], "lat": 34.26991331675951, "lng": 108.82175202001918}}, {"name": "\u78a7\u6c34\u84dd\u5929\u517b\u751f\u4f1a\u6240", "location": {"lat": 34.25264439680113, "lng": 108.82136472130557}, "address": "\u6606\u660e\u8def\u4e0e\u897f\u5b9d\u758f\u5bfc\u7ebf\u4ea4\u53c9\u53e3\u5357100\u7c73\u79e6\u4e1c\u5927\u53a65\u5c42", "province": "\u9655\u897f\u7701", "city": "\u897f\u5b89\u5e02", "area": "\u672a\u592e\u533a", "street_id": "191f3f5baa99f2c661685836", "telephone": "(029)89106060", "detail": 1, "uid": "191f3f5baa99f2c661685836", "detail_info": {"tag": "\u4f11\u95f2\u5a31\u4e50;\u6d17\u6d74\u6309\u6469", "navi_location": {"lng": 108.83212445891, "lat": 34.257300558599}, "type": "life", "detail_url": "http://api.map.baidu.com/place/detail?uid=191f3f5baa99f2c661685836&output=html&source=placeapi_v2", "price": "138", "image_num": "14", "children": [], "lat": 34.25264439680113, "lng": 108.82136472130557}}, {"name": "\u5927\u4f17\u6e29\u6cc9\u6d74\u6c60", "location": {"lat": 34.24850750592621, "lng": 108.81825512845218}, "address": "\u548c\u5e73\u5de5\u4e1a\u56ed\u533a\u4e00\u53f7\u8def\u4e0e\u5bcc\u6e90\u56db\u8def\u4ea4\u53c9\u53e3\u897f\u5317150\u7c73", "province": "\u9655\u897f\u7701", "city": "\u897f\u5b89\u5e02", "area": "\u672a\u592e\u533a", "street_id": "6a778038773a249dd22dd6c6", "detail": 1, "uid": "6a778038773a249dd22dd6c6", "detail_info": {"tag": "\u4f11\u95f2\u5a31\u4e50;\u6d17\u6d74\u6309\u6469", "type": "life", "detail_url": "http://api.map.baidu.com/place/detail?uid=6a778038773a249dd22dd6c6&output=html&source=placeapi_v2", "image_num": "6", "children": [], "lat": 34.24850750592621, "lng": 108.81825512845218}}, {"name": "\u5929\u5bcc\u798f\u8db3\u9053", "location": {"lat": 34.25894313002956, "lng": 108.82102841495195}, "address": "\u9655\u897f\u7701\u897f\u5b89\u5e02\u672a\u592e\u533a\u4e09\u6865\u8857\u9053\u897f\u5b9d\u758f\u5bfc\u7ebf\u548c\u5e73\u4e3d\u82d1\u897f\u5317\u95e8", "province": "\u9655\u897f\u7701", "city": "\u897f\u5b89\u5e02", "area": "\u672a\u592e\u533a", "street_id": "9c6a969644836aaef7e73b38", "telephone": "(029)89109910", "detail": 1, "uid": "9c6a969644836aaef7e73b38", "detail_info": {"tag": "\u4f11\u95f2\u5a31\u4e50;\u6d17\u6d74\u6309\u6469", "type": "life", "detail_url": "http://api.map.baidu.com/place/detail?uid=9c6a969644836aaef7e73b38&output=html&source=placeapi_v2", "price": "80", "overall_rating": "3.0", "image_num": "13", "comment_num": "2", "children": [], "lat": 34.25894313002956, "lng": 108.82102841495195}}, {"name": "\u9177\u6b4cKTV(\u897f\u5b9d\u516c\u8def\u5e97)", "location": {"lat": 34.26050450384629, "lng": 108.81334041558318}, "address": "\u9655\u897f\u7701\u897f\u5b89\u5e02\u672a\u592e\u533a\u7ea2\u5149\u8def\u897f\u6bb566\u53f72\u5c42", "province": "\u9655\u897f\u7701", "city": "\u897f\u5b89\u5e02", "area": "\u672a\u592e\u533a", "detail": 1, "uid": "bd6587d4991d34342ab97c0e", "detail_info": {"tag": "\u4f11\u95f2\u5a31\u4e50;ktv", "navi_location": {"lng": 108.82450155621, "lat": 34.265561662555}, "type": "life", "detail_url": "http://api.map.baidu.com/place/detail?uid=bd6587d4991d34342ab97c0e&output=html&source=placeapi_v2", "price": "61", "overall_rating": "4.0", "image_num": "3", "comment_num": "4", "children": [], "lat": 34.26050450384629, "lng": 108.81334041558318}}, {"name": "\u76db\u8c6a\u8f69\u517b\u751f\u8db3\u9053", "location": {"lat": 34.26080789319566, "lng": 108.79780127348185}, "address": "\u897f\u5b89\u5e02\u957f\u5b89\u533a\u6ca3\u4e1c\u5927\u9053\u4e0e\u738b\u5bfa\u5357\u8857\u4ea4\u53c9\u8def\u53e3\u897f\u5317\u4fa7(\u4e07\u798f\u82b1\u56ed-\u5317\u533a\u4e1c\u5357\u4fa7)", "province": "\u9655\u897f\u7701", "city": "\u897f\u5b89\u5e02", "area": "\u957f\u5b89\u533a", "street_id": "2eeb19a699649cb4bbbd637a", "detail": 1, "uid": "2eeb19a699649cb4bbbd637a", "detail_info": {"tag": "\u4f11\u95f2\u5a31\u4e50;\u6d17\u6d74\u6309\u6469", "navi_location": {"lng": 108.80905786525, "lat": 34.265292623147}, "type": "life", "detail_url": "http://api.map.baidu.com/place/detail?uid=2eeb19a699649cb4bbbd637a&output=html&source=placeapi_v2", "overall_rating": "1.0", "image_num": "15", "comment_num": "2", "children": [], "lat": 34.26080789319566, "lng": 108.79780127348185}}, {"name": "\u6676\u90fdKTV", "location": {"lat": 34.260673366841935, "lng": 108.8197147578783}, "address": "\u7ea2\u5149\u8def\u548c\u5e73\u6751\u5341\u5b57\u4f2f\u4e50\u5e7f\u573a5\u697c", "province": "\u9655\u897f\u7701", "city": "\u897f\u5b89\u5e02", "area": "\u672a\u592e\u533a", "street_id": "8e4da2185e570d1d02897282", "telephone": "(029)84355505", "detail": 1, "uid": "8e4da2185e570d1d02897282", "detail_info": {"tag": "\u4f11\u95f2\u5a31\u4e50;ktv", "navi_location": {"lng": 108.83073857653, "lat": 34.265650547596}, "type": "life", "detail_url": "http://api.map.baidu.com/place/detail?uid=8e4da2185e570d1d02897282&output=html&source=placeapi_v2", "price": "41", "overall_rating": "4.1", "image_num": "4", "comment_num": "9", "children": [], "lat": 34.260673366841935, "lng": 108.8197147578783}}, {"name": "\u76db\u5361\u4e01\u8f66\u4ff1\u4e50\u90e8", "location": {"lat": 34.251725265618965, "lng": 108.7861089217471}, "address": "\u6ca3\u4e1c\u65b0\u57ce\u963f\u623f\u5bab\u4e92\u52a9\u7acb\u4ea4\u897f\u5357", "province": "\u9655\u897f\u7701", "city": "\u897f\u5b89\u5e02", "area": "\u957f\u5b89\u533a", "detail": 1, "uid": "2c803870cc2c11592fb908c4", "detail_info": {"tag": "\u4f11\u95f2\u5a31\u4e50;\u6e38\u620f\u573a\u6240", "type": "life", "detail_url": "http://api.map.baidu.com/place/detail?uid=2c803870cc2c11592fb908c4&output=html&source=placeapi_v2", "overall_rating": "0.0", "image_num": "10", "comment_num": "1", "children": [], "lat": 34.251725265618965, "lng": 108.7861089217471}}, {"name": "\u5927\u4f17\u6d74\u6c60", "location": {"lat": 34.25983055428194, "lng": 108.7972579312145}, "address": "\u9655\u897f\u7701\u897f\u5b89\u5e02\u957f\u5b89\u533a\u738b\u5bfa\u5357\u885728\u53f7", "province": "\u9655\u897f\u7701", "city": "\u897f\u5b89\u5e02", "area": "\u957f\u5b89\u533a", "street_id": "b3e5e03ad8908ea1e856faf2", "detail": 1, "uid": "b3e5e03ad8908ea1e856faf2", "detail_info": {"tag": "\u4f11\u95f2\u5a31\u4e50;\u6d17\u6d74\u6309\u6469", "navi_location": {"lng": 108.80865051334, "lat": 34.264224468241}, "type": "life", "detail_url": "http://api.map.baidu.com/place/detail?uid=b3e5e03ad8908ea1e856faf2&output=html&source=placeapi_v2", "image_num": "11", "children": [], "lat": 34.25983055428194, "lng": 108.7972579312145}}, {"name": "\u4f2f\u4e50\u4e3b\u9898\u91cf\u8d29KTV", "location": {"lat": 34.260679093813174, "lng": 108.81927325689414}, "address": "\u897f\u5b89\u5e02\u672a\u592e\u533a\u6ca3\u4e1c\u5927\u9053\u4e0e\u897f\u5b9d\u758f\u5bfc\u7ebf\u4ea4\u53c9\u8def\u53e3\u5f80\u897f\u7ea6100\u7c73(\u4f2f\u4e50\u57ce\u5e02\u5e7f\u573a)", "province": "\u9655\u897f\u7701", "city": "\u897f\u5b89\u5e02", "area": "\u672a\u592e\u533a", "telephone": "(029)89599655", "detail": 1, "uid": "36144948bac1cafdc27da238", "detail_info": {"tag": "\u4f11\u95f2\u5a31\u4e50;ktv", "type": "life", "detail_url": "http://api.map.baidu.com/place/detail?uid=36144948bac1cafdc27da238&output=html&source=placeapi_v2", "overall_rating": "3.4", "image_num": "2", "comment_num": "5", "children": [], "lat": 34.260679093813174, "lng": 108.81927325689414}}, {"name": "\u5fa1\u8db3\u5802", "location": {"lat": 34.270002985698525, "lng": 108.8225642739745}, "address": "\u9655\u897f\u7701\u897f\u5b89\u5e02\u672a\u592e\u533a\u963f\u623f\u4e00\u8def101\u53f7\u9644\u8fd1", "province": "\u9655\u897f\u7701", "city": "\u897f\u5b89\u5e02", "area": "\u672a\u592e\u533a", "detail": 1, "uid": "a69fe0fa593e8a29d23ce300", "detail_info": {"tag": "\u4f11\u95f2\u5a31\u4e50;\u6d17\u6d74\u6309\u6469", "type": "life", "detail_url": "http://api.map.baidu.com/place/detail?uid=a69fe0fa593e8a29d23ce300&output=html&source=placeapi_v2", "overall_rating": "3.0", "image_num": "2", "comment_num": "2", "children": [], "lat": 34.270002985698525, "lng": 108.8225642739745}}, {"name": "\u6d77\u6d6a\u6d74\u6c60", "location": {"lat": 34.2527231147006, "lng": 108.82306952828242}, "address": "\u9655\u897f\u7701\u897f\u5b89\u5e02\u672a\u592e\u533a\u7b2c\u56db\u5df7", "province": "\u9655\u897f\u7701", "city": "\u897f\u5b89\u5e02", "area": "\u672a\u592e\u533a", "street_id": "690004ef384ee40754bfffc6", "detail": 1, "uid": "690004ef384ee40754bfffc6", "detail_info": {"tag": "\u4f11\u95f2\u5a31\u4e50;\u6d17\u6d74\u6309\u6469", "type": "life", "detail_url": "http://api.map.baidu.com/place/detail?uid=690004ef384ee40754bfffc6&output=html&source=placeapi_v2", "overall_rating": "0.0", "image_num": "15", "comment_num": "1", "children": [], "lat": 34.2527231147006, "lng": 108.82306952828242}}, {"name": "\u6ca3\u4e1c\u6587\u5316\u5e7f\u573a", "location": {"lat": 34.26068616269041, "lng": 108.81025991379835}, "address": "\u7ea2\u5149\u8def44\u53f7", "province": "\u9655\u897f\u7701", "city": "\u897f\u5b89\u5e02", "area": "\u672a\u592e\u533a", "street_id": "43b479a42f66cebe14c8f6ed", "detail": 1, "uid": "43b479a42f66cebe14c8f6ed", "detail_info": {"tag": "\u4f11\u95f2\u5a31\u4e50;\u4f11\u95f2\u5e7f\u573a", "type": "life", "detail_url": "http://api.map.baidu.com/place/detail?uid=43b479a42f66cebe14c8f6ed&output=html&source=placeapi_v2", "overall_rating": "0.0", "image_num": "1", "comment_num": "1", "children": [], "lat": 34.26068616269041, "lng": 108.81025991379835}}, {"name": "\u4e54\u6c0f\u684c\u7403", "location": {"lat": 34.25261044825009, "lng": 108.82135966675335}, "address": "\u897f\u5b89\u5e02\u672a\u592e\u533a\u7b2c\u56db\u5df7\u4e0e\u5bcc\u6e90\u4e09\u8def\u4ea4\u53c9\u8def\u53e3\u4e1c\u5317\u4fa7(\u5b87\u535a\u8fde\u9501\u9152\u5e97)", "province": "\u9655\u897f\u7701", "city": "\u897f\u5b89\u5e02", "area": "\u672a\u592e\u533a", "detail": 1, "uid": "936639ee8b2e5d29ec74f8b8", "detail_info": {"tag": "\u4f11\u95f2\u5a31\u4e50;\u6e38\u620f\u573a\u6240", "navi_location": {"lng": 108.83220924099, "lat": 34.257499534664}, "type": "life", "detail_url": "http://api.map.baidu.com/place/detail?uid=936639ee8b2e5d29ec74f8b8&output=html&source=placeapi_v2", "image_num": "9", "children": [], "lat": 34.25261044825009, "lng": 108.82135966675335}}, {"name": "\u7422\u8def\u8db3\u6d74", "location": {"lat": 34.25348768816248, "lng": 108.82218872173735}, "address": "\u9655\u897f\u7701\u897f\u5b89\u5e02\u672a\u592e\u533a\u548c\u5e73\u5de5\u4e1a\u56ed\u533a\u4e8c\u53f7\u8def\u4e0e\u6606\u660e\u8def\u4ea4\u53c9\u53e3\u535750\u7c73", "province": "\u9655\u897f\u7701", "city": "\u897f\u5b89\u5e02", "area": "\u672a\u592e\u533a", "street_id": "00c6d3285a3162989222e0be", "detail": 1, "uid": "00c6d3285a3162989222e0be", "detail_info": {"tag": "\u4f11\u95f2\u5a31\u4e50;\u6d17\u6d74\u6309\u6469", "type": "life", "detail_url": "http://api.map.baidu.com/place/detail?uid=00c6d3285a3162989222e0be&output=html&source=placeapi_v2", "overall_rating": "0.0", "image_num": "16", "children": [], "lat": 34.25348768816248, "lng": 108.82218872173735}}, {"name": "\u946b\u946b\u517b\u751f\u57ce\u8db3\u6d74", "location": {"lat": 34.26909019456189, "lng": 108.8211421094741}, "address": "\u897f\u5b89\u5e02\u672a\u592e\u533a\u5929\u53f0\u8def\u4e0e\u963f\u623f\u4e00\u8def\u4ea4\u53c9\u8def\u53e3\u4e1c\u5357\u4fa7(\u54b8\u9633\u7406\u5de5\u804c\u4e1a\u4e13\u4fee\u5b66\u9662\u4e1c\u4fa7\u7ea650\u7c73)", "province": "\u9655\u897f\u7701", "city": "\u897f\u5b89\u5e02", "area": "\u672a\u592e\u533a", "street_id": "c1f917362d9c1158c9291545", "telephone": "(029)84511756", "detail": 1, "uid": "0621e55735d019d6d0ff23fc", "detail_info": {"tag": "\u4f11\u95f2\u5a31\u4e50;\u6d17\u6d74\u6309\u6469", "type": "life", "detail_url": "http://api.map.baidu.com/place/detail?uid=0621e55735d019d6d0ff23fc&output=html&source=placeapi_v2", "overall_rating": "0.0", "image_num": "17", "comment_num": "1", "children": [], "lat": 34.26909019456189, "lng": 108.8211421094741}}, {"name": "\u9633\u5149\u6e29\u6cc9\u6d74\u6c60", "location": {"lat": 34.27541798800746, "lng": 108.7943331391563}, "address": "\u9655\u897f\u7701\u897f\u5b89\u5e02\u957f\u5b89\u533a\u6021\u56ed\u5bbe\u9986(\u897f\u5b89\u5927\u82cf\u6751\u5e97)", "province": "\u9655\u897f\u7701", "city": "\u897f\u5b89\u5e02", "area": "\u957f\u5b89\u533a", "detail": 1, "uid": "173fa7309078bcf62d473332", "detail_info": {"tag": "\u4f11\u95f2\u5a31\u4e50;\u6d17\u6d74\u6309\u6469", "type": "life", "detail_url": "http://api.map.baidu.com/place/detail?uid=173fa7309078bcf62d473332&output=html&source=placeapi_v2", "image_num": "5", "children": [], "lat": 34.27541798800746, "lng": 108.7943331391563}}, {"name": "\u5fa1\u6307\u4ed9\u5883", "location": {"lat": 34.26667029356303, "lng": 108.8214697790774}, "address": "\u897f\u5b89\u5e02\u672a\u592e\u533a\u5929\u53f0\u8def\u4e0e\u5929\u53f0\u4e09\u8def\u4ea4\u53c9\u8def\u53e3\u5f80\u5357\u7ea6100\u7c73(\u5927\u79e6\u4e03\u5341\u4e8c\u574a\u7f8e\u98df\u8857)", "province": "\u9655\u897f\u7701", "city": "\u897f\u5b89\u5e02", "area": "\u672a\u592e\u533a", "detail": 1, "uid": "6b3b51a3a48c73351fe9990a", "detail_info": {"tag": "\u4f11\u95f2\u5a31\u4e50;\u6d17\u6d74\u6309\u6469", "type": "life", "detail_url": "http://api.map.baidu.com/place/detail?uid=6b3b51a3a48c73351fe9990a&output=html&source=placeapi_v2", "image_num": "2", "children": [], "lat": 34.26667029356303, "lng": 108.8214697790774}}, {"name": "\u9633\u5149\u8db3\u6d74", "location": {"lat": 34.26123646204834, "lng": 108.8026035583676}, "address": "\u738b\u5bfa\u4e1c\u885769\u53f7\u738b\u5bfa\u5c0f\u5b66\u9644\u8fd1", "province": "\u9655\u897f\u7701", "city": "\u897f\u5b89\u5e02", "area": "\u957f\u5b89\u533a", "street_id": "297b1a6b86254430e6073806", "detail": 1, "uid": "297b1a6b86254430e6073806", "detail_info": {"tag": "\u4f11\u95f2\u5a31\u4e50;\u6d17\u6d74\u6309\u6469", "type": "life", "detail_url": "http://api.map.baidu.com/place/detail?uid=297b1a6b86254430e6073806&output=html&source=placeapi_v2", "image_num": "11", "children": [], "lat": 34.26123646204834, "lng": 108.8026035583676}}, {"name": "\u6d0b\u6d32\u8db3\u6d74", "location": {"lat": 34.26021639476017, "lng": 108.79741125225146}, "address": "\u9655\u897f\u7701\u897f\u5b89\u5e02\u957f\u5b89\u533a\u738b\u5bfa\u5357\u885716\u53f7\u9644\u8fd1", "province": "\u9655\u897f\u7701", "city": "\u897f\u5b89\u5e02", "area": "\u957f\u5b89\u533a", "detail": 1, "uid": "32fd2d9545990478d518b723", "detail_info": {"tag": "\u4f11\u95f2\u5a31\u4e50;\u6d17\u6d74\u6309\u6469", "navi_location": {"lng": 108.80887425609, "lat": 34.264562244145}, "type": "life", "detail_url": "http://api.map.baidu.com/place/detail?uid=32fd2d9545990478d518b723&output=html&source=placeapi_v2", "image_num": "5", "children": [], "lat": 34.26021639476017, "lng": 108.79741125225146}}, {"name": "\u767e\u59d3\u6d74\u6c60", "location": {"lat": 34.25997617844629, "lng": 108.79699540906469}, "address": "\u9655\u897f\u7701\u897f\u5b89\u5e02\u957f\u5b89\u533a\u738b\u5bfa\u5357\u8857\u4e07\u798f\u82b1\u56ed(\u5357\u533a)\u4e1c100\u7c73", "province": "\u9655\u897f\u7701", "city": "\u897f\u5b89\u5e02", "area": "\u957f\u5b89\u533a", "street_id": "ef4e2f406f48323b1c389478", "detail": 1, "uid": "ef4e2f406f48323b1c389478", "detail_info": {"tag": "\u4f11\u95f2\u5a31\u4e50;\u6d17\u6d74\u6309\u6469", "type": "life", "detail_url": "http://api.map.baidu.com/place/detail?uid=ef4e2f406f48323b1c389478&output=html&source=placeapi_v2", "image_num": "8", "children": [], "lat": 34.25997617844629, "lng": 108.79699540906469}}, {"name": "\u8096\u91cc\u6e29\u6cc9\u6d74\u6c60", "location": {"lat": 34.25270692188907, "lng": 108.82383422898415}, "address": "\u9655\u897f\u7701\u897f\u5b89\u5e02\u672a\u592e\u533a\u7b2c\u56db\u5df7\u535750\u7c73", "province": "\u9655\u897f\u7701", "city": "\u897f\u5b89\u5e02", "area": "\u672a\u592e\u533a", "street_id": "4c502baff09da44679b55c96", "detail": 1, "uid": "4c502baff09da44679b55c96", "detail_info": {"tag": "\u4f11\u95f2\u5a31\u4e50;\u6d17\u6d74\u6309\u6469", "navi_location": {"lng": 108.83488086985, "lat": 34.25754033001}, "type": "life", "detail_url": "http://api.map.baidu.com/place/detail?uid=4c502baff09da44679b55c96&output=html&source=placeapi_v2", "image_num": "6", "children": [], "lat": 34.25270692188907, "lng": 108.82383422898415}}, {"name": "\u5927\u4f17\u4f4f\u5bbf\u6d17\u6d74", "location": {"lat": 34.26125306486437, "lng": 108.79946447429104}, "address": "\u897f\u5b89\u5e02\u957f\u5b89\u533a\u6ca3\u4e1c\u5927\u9053\u4e0e\u897f\u6237\u516c\u8def\u4ea4\u53c9\u8def\u53e3\u5f80\u4e1c\u7ea6100\u7c73(\u6ca3\u6cfd\u4f73\u82d1\u4e1c\u5357\u4fa7\u7ea6100\u7c73)", "province": "\u9655\u897f\u7701", "city": "\u897f\u5b89\u5e02", "area": "\u957f\u5b89\u533a", "street_id": "7ee82593a586caecf60e77e3", "detail": 1, "uid": "7ee82593a586caecf60e77e3", "detail_info": {"tag": "\u4f11\u95f2\u5a31\u4e50;\u6d17\u6d74\u6309\u6469", "type": "life", "detail_url": "http://api.map.baidu.com/place/detail?uid=7ee82593a586caecf60e77e3&output=html&source=placeapi_v2", "image_num": "13", "children": [], "lat": 34.26125306486437, "lng": 108.79946447429104}}, {"name": "\u751c\u751c\u4fee\u811a\u623f", "location": {"lat": 34.25321375661533, "lng": 108.82347190390144}, "address": "\u9655\u897f\u7701\u897f\u5b89\u5e02\u672a\u592e\u533a\u7b2c\u4e94\u5df7", "province": "\u9655\u897f\u7701", "city": "\u897f\u5b89\u5e02", "area": "\u672a\u592e\u533a", "detail": 1, "uid": "627d7a6a86f17e51cc04ef5b", "detail_info": {"tag": "\u4f11\u95f2\u5a31\u4e50;\u6d17\u6d74\u6309\u6469", "type": "life", "detail_url": "http://api.map.baidu.com/place/detail?uid=627d7a6a86f17e51cc04ef5b&output=html&source=placeapi_v2", "image_num": "1", "children": [], "lat": 34.25321375661533, "lng": 108.82347190390144}}, {"name": "\u5353\u5a01\u7f51\u5496", "location": {"lat": 34.256517012358806, "lng": 108.82025803112997}, "address": "\u9655\u897f\u7701\u897f\u5b89\u5e02\u672a\u592e\u533a\u56db\u53f7\u8def1\u53f7", "province": "\u9655\u897f\u7701", "city": "\u897f\u5b89\u5e02", "area": "\u672a\u592e\u533a", "street_id": "051d421abb43f8f9deee8b33", "detail": 1, "uid": "051d421abb43f8f9deee8b33", "detail_info": {"tag": "\u4f11\u95f2\u5a31\u4e50;\u7f51\u5427", "type": "life", "detail_url": "http://api.map.baidu.com/place/detail?uid=051d421abb43f8f9deee8b33&output=html&source=placeapi_v2", "overall_rating": "5.0", "image_num": "6", "comment_num": "3", "children": [], "lat": 34.256517012358806, "lng": 108.82025803112997}}, {"name": "\u8587\u6b65\u8db3\u9053", "location": {"lat": 34.27137157810739, "lng": 108.82056985604264}, "address": "\u9655\u897f\u7701\u897f\u5b89\u5e02\u672a\u592e\u533a\u5929\u53f0\u8def36\u53f7-b\u9644\u8fd1", "province": "\u9655\u897f\u7701", "city": "\u897f\u5b89\u5e02", "area": "\u672a\u592e\u533a", "detail": 1, "uid": "57e72e49fe1fa890c51e5159", "detail_info": {"tag": "\u4f11\u95f2\u5a31\u4e50;\u6d17\u6d74\u6309\u6469", "type": "life", "detail_url": "http://api.map.baidu.com/place/detail?uid=57e72e49fe1fa890c51e5159&output=html&source=placeapi_v2", "image_num": "4", "children": [], "lat": 34.27137157810739, "lng": 108.82056985604264}}, {"name": "\u5927\u4f17\u6e29\u6cc9\u6d74\u6c60(\u897f\u56f4\u4e8c\u5df7)", "location": {"lat": 34.257604320846966, "lng": 108.81351493211501}, "address": "\u9655\u897f\u7701\u897f\u5b89\u5e02\u672a\u592e\u533a\u897f\u73af\u8def1\u53f7\u9644\u8fd1", "province": "\u9655\u897f\u7701", "city": "\u897f\u5b89\u5e02", "area": "\u672a\u592e\u533a", "street_id": "d36ff807235d62afb6f42f03", "detail": 1, "uid": "d36ff807235d62afb6f42f03", "detail_info": {"tag": "\u4f11\u95f2\u5a31\u4e50;\u6d17\u6d74\u6309\u6469", "type": "life", "detail_url": "http://api.map.baidu.com/place/detail?uid=d36ff807235d62afb6f42f03&output=html&source=placeapi_v2", "image_num": "4", "children": [], "lat": 34.257604320846966, "lng": 108.81351493211501}}, {"name": "\u7a0b\u5f0f\u63a8\u62ff", "location": {"lat": 34.26129254758425, "lng": 108.8003876298586}, "address": "\u897f\u5b89\u5e02\u957f\u5b89\u533a\u738b\u5bfa\u4e1c\u885729\u53f7", "province": "\u9655\u897f\u7701", "city": "\u897f\u5b89\u5e02", "area": "\u957f\u5b89\u533a", "street_id": "f9d23f50d892f4f011882443", "telephone": "13201402216", "detail": 1, "uid": "f9d23f50d892f4f011882443", "detail_info": {"tag": "\u4f11\u95f2\u5a31\u4e50;\u6d17\u6d74\u6309\u6469", "type": "life", "detail_url": "http://api.map.baidu.com/place/detail?uid=f9d23f50d892f4f011882443&output=html&source=placeapi_v2", "image_num": "13", "children": [], "lat": 34.26129254758425, "lng": 108.8003876298586}}, {"name": "\u8521\u6c0f\u4fee\u811a\u5e97", "location": {"lat": 34.252704945685565, "lng": 108.82383121297849}, "address": "\u9655\u897f\u7701\u897f\u5b89\u5e02\u672a\u592e\u533a\u7b2c\u56db\u5df7", "province": "\u9655\u897f\u7701", "city": "\u897f\u5b89\u5e02", "area": "\u672a\u592e\u533a", "detail": 1, "uid": "08a90018cf39109bc27da218", "detail_info": {"tag": "\u4f11\u95f2\u5a31\u4e50;\u6d17\u6d74\u6309\u6469", "type": "life", "detail_url": "http://api.map.baidu.com/place/detail?uid=08a90018cf39109bc27da218&output=html&source=placeapi_v2", "image_num": "6", "children": [], "lat": 34.252704945685565, "lng": 108.82383121297849}}, {"name": "\u5218\u6c0f\u4e13\u4e1a\u4fee\u811a", "location": {"lat": 34.26112310995998, "lng": 108.79596606074233}, "address": "\u9655\u897f\u7701\u897f\u5b89\u5e02\u957f\u5b89\u533a\u5609\u6b23\u82b1\u56ed(\u738b\u9a6c\u8def\u5317)", "province": "\u9655\u897f\u7701", "city": "\u897f\u5b89\u5e02", "area": "\u957f\u5b89\u533a", "street_id": "8db581b60898dd756ca3cc64", "detail": 1, "uid": "8db581b60898dd756ca3cc64", "detail_info": {"tag": "\u4f11\u95f2\u5a31\u4e50;\u6d17\u6d74\u6309\u6469", "type": "life", "detail_url": "http://api.map.baidu.com/place/detail?uid=8db581b60898dd756ca3cc64&output=html&source=placeapi_v2", "image_num": "9", "children": [], "lat": 34.26112310995998, "lng": 108.79596606074233}}, {"name": "\u9f99\u946b\u5bbe\u9986\u8db3\u6d74", "location": {"lat": 34.26991135909309, "lng": 108.82121920051134}, "address": "\u5929\u53f0\u8def\u4e0e\u963f\u623f\u4e00\u8def\u5341\u5b57\u4e1c\u5317\u89d2", "province": "\u9655\u897f\u7701", "city": "\u897f\u5b89\u5e02", "area": "\u672a\u592e\u533a", "street_id": "1019d41e42c64ae1d8131881", "detail": 1, "uid": "1019d41e42c64ae1d8131881", "detail_info": {"tag": "\u4f11\u95f2\u5a31\u4e50;\u6d17\u6d74\u6309\u6469", "type": "life", "detail_url": "http://api.map.baidu.com/place/detail?uid=1019d41e42c64ae1d8131881&output=html&source=placeapi_v2", "overall_rating": "0.0", "image_num": "11", "children": [], "lat": 34.26991135909309, "lng": 108.82121920051134}}, {"name": "\u6021\u541b\u8db3\u9053", "location": {"lat": 34.27150565100062, "lng": 108.82056091160517}, "address": "\u9655\u897f\u7701\u897f\u5b89\u5e02\u672a\u592e\u533a\u5929\u53f0\u8defB036", "province": "\u9655\u897f\u7701", "city": "\u897f\u5b89\u5e02", "area": "\u672a\u592e\u533a", "street_id": "2c1019091fbe3d972db908eb", "detail": 1, "uid": "2c1019091fbe3d972db908eb", "detail_info": {"tag": "\u4f11\u95f2\u5a31\u4e50;\u6d17\u6d74\u6309\u6469", "type": "life", "detail_url": "http://api.map.baidu.com/place/detail?uid=2c1019091fbe3d972db908eb&output=html&source=placeapi_v2", "image_num": "8", "children": [], "lat": 34.27150565100062, "lng": 108.82056091160517}}, {"name": "\u7545\u6e38\u8ba1\u5212\u7f51\u5496", "location": {"lat": 34.252532969645, "lng": 108.82120176266898}, "address": "\u897f\u5b89\u5e02\u672a\u592e\u533a\u7b2c\u56db\u5df7\u4e0e\u5bcc\u6e90\u4e09\u8def\u4ea4\u53c9\u8def\u53e3\u4e1c\u5317\u4fa7(\u5b87\u535a\u8fde\u9501\u9152\u5e97\u897f\u5357\u4fa7)", "province": "\u9655\u897f\u7701", "city": "\u897f\u5b89\u5e02", "area": "\u672a\u592e\u533a", "detail": 1, "uid": "39a9b972fc7697b11f38944a", "detail_info": {"tag": "\u4f11\u95f2\u5a31\u4e50;\u7f51\u5427", "type": "life", "detail_url": "http://api.map.baidu.com/place/detail?uid=39a9b972fc7697b11f38944a&output=html&source=placeapi_v2", "overall_rating": "3.7", "image_num": "9", "comment_num": "4", "children": [], "lat": 34.252532969645, "lng": 108.82120176266898}}, {"name": "\u65b0\u5609\u56ed\u5e7f\u573a", "location": {"lat": 34.25839464737641, "lng": 108.81319453793836}, "address": "\u897f\u56f4\u4e00\u5df7\u4e0e\u897f\u73af\u8def\u4ea4\u53c9\u53e3\u897f\u531750\u7c73", "province": "\u9655\u897f\u7701", "city": "\u897f\u5b89\u5e02", "area": "\u672a\u592e\u533a", "street_id": "8258675606784202adb22a4b", "detail": 1, "uid": "8258675606784202adb22a4b", "detail_info": {"tag": "\u4f11\u95f2\u5a31\u4e50;\u4f11\u95f2\u5e7f\u573a", "navi_location": {"lng": 108.8247737956, "lat": 34.262986683914}, "type": "life", "detail_url": "http://api.map.baidu.com/place/detail?uid=8258675606784202adb22a4b&output=html&source=placeapi_v2", "image_num": "2", "children": [], "lat": 34.25839464737641, "lng": 108.81319453793836}}, {"name": "\u6c34\u6728\u5e74\u534e", "location": {"lat": 34.27039019842573, "lng": 108.77535264427092}, "address": "\u9655\u897f\u7701\u897f\u5b89\u5e02\u957f\u5b89\u533a\u79d1\u6e90\u8def", "province": "\u9655\u897f\u7701", "city": "\u897f\u5b89\u5e02", "area": "\u957f\u5b89\u533a", "detail": 1, "uid": "deffa646759ca7b0d5b74ed6", "detail_info": {"tag": "\u4f11\u95f2\u5a31\u4e50", "type": "life", "detail_url": "http://api.map.baidu.com/place/detail?uid=deffa646759ca7b0d5b74ed6&output=html&source=placeapi_v2", "image_num": "6", "children": [], "lat": 34.27039019842573, "lng": 108.77535264427092}}, {"name": "\u4e07\u5bb6\u5927\u4f17\u6d74\u6c60", "location": {"lat": 34.2699822896761, "lng": 108.82175408714771}, "address": "\u897f\u5b89\u5e02\u672a\u592e\u533a\u963f\u623f\u4e00\u8def\u4e0e\u5929\u53f0\u8def\u4ea4\u53c9\u8def\u53e3\u5f80\u4e1c\u5317\u7ea650\u7c73(\u963f\u623f\u4e00\u8def\u5bb6\u5177\u95e8\u7a97\u7efc\u5408\u5e02\u573a\u897f\u5317\u4fa7\u7ea650\u7c73)", "province": "\u9655\u897f\u7701", "city": "\u897f\u5b89\u5e02", "area": "\u672a\u592e\u533a", "detail": 1, "uid": "81c34865413af03eddee8b92", "detail_info": {"tag": "\u4f11\u95f2\u5a31\u4e50;\u6d17\u6d74\u6309\u6469", "type": "life", "detail_url": "http://api.map.baidu.com/place/detail?uid=81c34865413af03eddee8b92&output=html&source=placeapi_v2", "image_num": "1", "children": [], "lat": 34.2699822896761, "lng": 108.82175408714771}}, {"name": "\u5f3a\u519b\u4fee\u811a", "location": {"lat": 34.2627668404975, "lng": 108.81864755581051}, "address": "\u5929\u53f0\u4e00\u8def\u805a\u5bb6\u82b1\u56ed", "province": "\u9655\u897f\u7701", "city": "\u897f\u5b89\u5e02", "area": "\u672a\u592e\u533a", "detail": 1, "uid": "3847d76f5bf218339c09f738", "detail_info": {"tag": "\u4f11\u95f2\u5a31\u4e50;\u6d17\u6d74\u6309\u6469", "type": "life", "detail_url": "http://api.map.baidu.com/place/detail?uid=3847d76f5bf218339c09f738&output=html&source=placeapi_v2", "image_num": "1", "children": [], "lat": 34.2627668404975, "lng": 108.81864755581051}}, {"name": "\u5353\u5a01\u7f51\u5496(\u805a\u53cb\u5e97)", "location": {"lat": 34.260525627557186, "lng": 108.813185415043}, "address": "\u9655\u897f\u7701\u897f\u5b89\u5e02\u672a\u592e\u533a\u7ea2\u5149\u8def96\u53f7", "province": "\u9655\u897f\u7701", "city": "\u897f\u5b89\u5e02", "area": "\u672a\u592e\u533a", "street_id": "2b7abf4bce1619b52811d170", "detail": 1, "uid": "2b7abf4bce1619b52811d170", "detail_info": {"tag": "\u4f11\u95f2\u5a31\u4e50;\u7f51\u5427", "navi_location": {"lng": 108.82456145055, "lat": 34.265396669246}, "type": "life", "detail_url": "http://api.map.baidu.com/place/detail?uid=2b7abf4bce1619b52811d170&output=html&source=placeapi_v2", "overall_rating": "3.5", "image_num": "23", "comment_num": "12", "children": [], "lat": 34.260525627557186, "lng": 108.813185415043}}, {"name": "\u5c71\u9633\u8d75\u5e08\u76f2\u4eba\u6309\u6469", "location": {"lat": 34.26139002555832, "lng": 108.79663544345287}, "address": "\u897f\u5b89\u5e02\u957f\u5b89\u533a\u6ca3\u4e1c\u5927\u9053\u4e0e\u738b\u5bfa\u5357\u8857\u4ea4\u53c9\u8def\u53e3\u5f80\u897f\u7ea6100\u7c73(\u4e07\u798f\u82b1\u56ed-\u5317\u533a)", "province": "\u9655\u897f\u7701", "city": "\u897f\u5b89\u5e02", "area": "\u957f\u5b89\u533a", "detail": 1, "uid": "1d5bcdf0b874e8a42e473318", "detail_info": {"tag": "\u4f11\u95f2\u5a31\u4e50;\u6d17\u6d74\u6309\u6469", "type": "life", "detail_url": "http://api.map.baidu.com/place/detail?uid=1d5bcdf0b874e8a42e473318&output=html&source=placeapi_v2", "image_num": "5", "children": [], "lat": 34.26139002555832, "lng": 108.79663544345287}}, {"name": "\u8db3\u5eb7\u4e13\u4e1a\u4fee\u811a", "location": {"lat": 34.256542968522425, "lng": 108.81987592675374}, "address": "\u9655\u897f\u7701\u897f\u5b89\u5e02\u672a\u592e\u533a\u548c\u5e73\u5de5\u4e1a\u56ed\u533a\u56db\u53f7\u8def\u4e0e\u897f\u5b9d\u758f\u5bfc\u7ebf\u4ea4\u53c9\u53e3\u897f100\u7c73", "province": "\u9655\u897f\u7701", "city": "\u897f\u5b89\u5e02", "area": "\u672a\u592e\u533a", "detail": 1, "uid": "87e8edf799140d3888f15d53", "detail_info": {"tag": "\u4f11\u95f2\u5a31\u4e50;\u6d17\u6d74\u6309\u6469", "type": "life", "detail_url": "http://api.map.baidu.com/place/detail?uid=87e8edf799140d3888f15d53&output=html&source=placeapi_v2", "image_num": "4", "children": [], "lat": 34.256542968522425, "lng": 108.81987592675374}}, {"name": "\u5d14\u6c0f\u4e13\u4e1a\u4fee\u811a", "location": {"lat": 34.27093861773283, "lng": 108.8211798169538}, "address": "\u9655\u897f\u7701\u897f\u5b89\u5e02\u672a\u592e\u533a\u5929\u53f0\u8def23\u53f7\u9644\u8fd1", "province": "\u9655\u897f\u7701", "city": "\u897f\u5b89\u5e02", "area": "\u672a\u592e\u533a", "detail": 1, "uid": "34fc51310df0c4aba4c7560e", "detail_info": {"tag": "\u4f11\u95f2\u5a31\u4e50;\u6d17\u6d74\u6309\u6469", "type": "life", "detail_url": "http://api.map.baidu.com/place/detail?uid=34fc51310df0c4aba4c7560e&output=html&source=placeapi_v2", "image_num": "6", "children": [], "lat": 34.27093861773283, "lng": 108.8211798169538}}, {"name": "\u5b87\u8f89\u7f51\u5427", "location": {"lat": 34.25206985058008, "lng": 108.82050863751577}, "address": "\u897f\u5b89\u5e02\u672a\u592e\u533a\u5bcc\u6e90\u4e09\u8def\u4e0e\u7b2c\u56db\u5df7\u4ea4\u53c9\u8def\u53e3\u897f\u5357\u4fa7(\u5b87\u535a\u8fde\u9501\u9152\u5e97\u897f\u5357\u4fa7\u7ea6100\u7c73)", "province": "\u9655\u897f\u7701", "city": "\u897f\u5b89\u5e02", "area": "\u672a\u592e\u533a", "street_id": "1ab6e705d791358d9122e010", "telephone": "15957598388", "detail": 1, "uid": "1ab6e705d791358d9122e010", "detail_info": {"tag": "\u4f11\u95f2\u5a31\u4e50;\u7f51\u5427", "type": "life", "detail_url": "http://api.map.baidu.com/place/detail?uid=1ab6e705d791358d9122e010&output=html&source=placeapi_v2", "overall_rating": "3.7", "image_num": "11", "comment_num": "6", "children": [], "lat": 34.25206985058008, "lng": 108.82050863751577}}, {"name": "\u84dd\u72d0\u7f51\u5496", "location": {"lat": 34.26124785760646, "lng": 108.79780167707186}, "address": "\u897f\u5b89\u5e02\u957f\u5b89\u533a\u6ca3\u4e1c\u5927\u9053\u4e0e\u738b\u5bfa\u5357\u8857\u4ea4\u53c9\u8def\u53e3\u897f\u5317\u4fa7(\u6ca3\u6cfd\u4f73\u82d1\u5357\u4fa7)", "province": "\u9655\u897f\u7701", "city": "\u897f\u5b89\u5e02", "area": "\u957f\u5b89\u533a", "street_id": "8d9aad53e2ee6927d4851fcb", "telephone": "18098060226", "detail": 1, "uid": "8d9aad53e2ee6927d4851fcb", "detail_info": {"tag": "\u4f11\u95f2\u5a31\u4e50;\u7f51\u5427", "type": "life", "detail_url": "http://api.map.baidu.com/place/detail?uid=8d9aad53e2ee6927d4851fcb&output=html&source=placeapi_v2", "overall_rating": "4.0", "image_num": "9", "comment_num": "2", "children": [], "lat": 34.26124785760646, "lng": 108.79780167707186}}, {"name": "\u8d8a\u5ba2\u7f51\u7edc", "location": {"lat": 34.25888918814303, "lng": 108.8135181108385}, "address": "\u9655\u897f\u7701\u897f\u5b89\u5e02\u672a\u592e\u533a\u897f\u56f4\u65b0\u5609\u56ed(\u897f\u73af\u8def\u531770\u7c73)", "province": "\u9655\u897f\u7701", "city": "\u897f\u5b89\u5e02", "area": "\u672a\u592e\u533a", "street_id": "1a9bc87375f9d4cc7f29bd73", "detail": 1, "uid": "1a9bc87375f9d4cc7f29bd73", "detail_info": {"tag": "\u4f11\u95f2\u5a31\u4e50;\u7f51\u5427", "type": "life", "detail_url": "http://api.map.baidu.com/place/detail?uid=1a9bc87375f9d4cc7f29bd73&output=html&source=placeapi_v2", "overall_rating": "0.0", "image_num": "8", "comment_num": "2", "children": [], "lat": 34.25888918814303, "lng": 108.8135181108385}}, {"name": "\u7ea2\u6811\u6797\u7f51\u5427(\u738b\u5bfa\u5e97)", "location": {"lat": 34.260360092109714, "lng": 108.79757542563421}, "address": "\u738b\u5bfa\u5357\u88574\u53f7\u9644\u8fd1", "province": "\u9655\u897f\u7701", "city": "\u897f\u5b89\u5e02", "area": "\u957f\u5b89\u533a", "street_id": "dcfe7895a9e177ab1d1d113f", "detail": 1, "uid": "dcfe7895a9e177ab1d1d113f", "detail_info": {"tag": "\u4f11\u95f2\u5a31\u4e50;\u7f51\u5427", "navi_location": {"lng": 108.80894898433, "lat": 34.264675045866}, "type": "life", "detail_url": "http://api.map.baidu.com/place/detail?uid=dcfe7895a9e177ab1d1d113f&output=html&source=placeapi_v2", "overall_rating": "0.0", "image_num": "17", "comment_num": "1", "children": [], "lat": 34.260360092109714, "lng": 108.79757542563421}}, {"name": "\u7231\u7a9d\u7a9d\u7f51\u5427(\u738b\u5bfa\u897f\u8857\u5e97)", "location": {"lat": 34.260806612510706, "lng": 108.79622738036993}, "address": "\u738b\u5bfa\u897f\u885729\u53f7", "province": "\u9655\u897f\u7701", "city": "\u897f\u5b89\u5e02", "area": "\u957f\u5b89\u533a", "street_id": "eff4fb607b0f873795f08c86", "detail": 1, "uid": "eff4fb607b0f873795f08c86", "detail_info": {"tag": "\u4f11\u95f2\u5a31\u4e50;\u7f51\u5427", "type": "life", "detail_url": "http://api.map.baidu.com/place/detail?uid=eff4fb607b0f873795f08c86&output=html&source=placeapi_v2", "overall_rating": "1.0", "image_num": "14", "comment_num": "2", "children": [], "lat": 34.260806612510706, "lng": 108.79622738036993}}, {"name": "\u9ed1\u591c\u5348\u540e", "location": {"lat": 34.26121935692063, "lng": 108.80472011294667}, "address": "\u738b\u5bfa\u4e1c\u8857121\u53f7\u653f\u5e9c\u5c0f\u533a", "province": "\u9655\u897f\u7701", "city": "\u897f\u5b89\u5e02", "area": "\u957f\u5b89\u533a", "detail": 1, "uid": "66e85971d7837c22cac3dbec", "detail_info": {"tag": "\u7f8e\u98df;\u9152\u5427", "type": "cater", "detail_url": "http://api.map.baidu.com/place/detail?uid=66e85971d7837c22cac3dbec&output=html&source=placeapi_v2", "children": [], "lat": 34.26121935692063, "lng": 108.80472011294667}}, {"name": "\u6625\u5929\u8336\u793e", "location": {"lat": 34.25638261032924, "lng": 108.81953285131475}, "address": "\u548c\u5e73\u6751\u548c\u5e73\u6625\u5929\u5357\u95e8", "province": "\u9655\u897f\u7701", "city": "\u897f\u5b89\u5e02", "area": "\u672a\u592e\u533a", "detail": 1, "uid": "8e1a64927777d11fc7f025e3", "detail_info": {"tag": "\u7f8e\u98df;\u8336\u5ea7", "type": "cater", "detail_url": "http://api.map.baidu.com/place/detail?uid=8e1a64927777d11fc7f025e3&output=html&source=placeapi_v2", "children": [], "lat": 34.25638261032924, "lng": 108.81953285131475}}, {"name": "\u9b45\u65cf\u7f51\u7edc\u8f69\u79c0\u5e97", "location": {"lat": 34.25994657392439, "lng": 108.79789911577953}, "address": "\u9655\u897f\u7701\u897f\u5b89\u5e02\u957f\u5b89\u533a\u738b\u5bfa\u91d1\u6c47\u5ba2\u623f\u90e8(\u738b\u5bfa\u5357\u8857\u4e1c)", "province": "\u9655\u897f\u7701", "city": "\u897f\u5b89\u5e02", "area": "\u957f\u5b89\u533a", "street_id": "3e1c52ae8f258009a2d2302a", "detail": 1, "uid": "3e1c52ae8f258009a2d2302a", "detail_info": {"tag": "\u4f11\u95f2\u5a31\u4e50;\u7f51\u5427", "type": "life", "detail_url": "http://api.map.baidu.com/place/detail?uid=3e1c52ae8f258009a2d2302a&output=html&source=placeapi_v2", "overall_rating": "1.0", "image_num": "7", "comment_num": "3", "children": [], "lat": 34.25994657392439, "lng": 108.79789911577953}}, {"name": "\u9655\u5317\u7a91\u6d1e\u519c\u5bb6\u4e50", "location": {"lat": 34.27597840431596, "lng": 108.81265063935982}, "address": "\u4e09\u6865\u5929\u53f0\u4e94\u8def99\u53f7\u4ed8\u4e00\u53f7", "province": "\u9655\u897f\u7701", "city": "\u897f\u5b89\u5e02", "area": "\u672a\u592e\u533a", "street_id": "b43ae86fc535690a09a8d4b2", "detail": 1, "uid": "b43ae86fc535690a09a8d4b2", "detail_info": {"tag": "\u4f11\u95f2\u5a31\u4e50;\u519c\u5bb6\u9662", "navi_location": {"lng": 108.82375674848, "lat": 34.280415982576}, "type": "hotel", "detail_url": "http://api.map.baidu.com/place/detail?uid=b43ae86fc535690a09a8d4b2&output=html&source=placeapi_v2", "service_rating": "0", "facility_rating": "0", "hygiene_rating": "0", "image_num": "3", "comment_num": "0", "favorite_num": "0", "checkin_num": "0", "children": [], "lat": 34.27597840431596, "lng": 108.81265063935982}}, {"name": "\u65fa\u89d2\u8336\u697c", "location": {"lat": 34.25218849819409, "lng": 108.82044337489403}, "address": "\u897f\u5b89\u5e02\u672a\u592e\u533a\u5bcc\u6e90\u4e09\u8def\u4e0e\u7b2c\u56db\u5df7\u4ea4\u53c9\u8def\u53e3\u897f\u4fa7(\u5b87\u535a\u8fde\u9501\u9152\u5e97\u897f\u5357\u4fa7\u7ea6100\u7c73)", "province": "\u9655\u897f\u7701", "city": "\u897f\u5b89\u5e02", "area": "\u672a\u592e\u533a", "street_id": "4a342bc5dca92f08cc06a4bc", "detail": 1, "uid": "4a342bc5dca92f08cc06a4bc", "detail_info": {"tag": "\u7f8e\u98df;\u8336\u5ea7", "type": "cater", "detail_url": "http://api.map.baidu.com/place/detail?uid=4a342bc5dca92f08cc06a4bc&output=html&source=placeapi_v2", "overall_rating": "0.0", "children": [], "lat": 34.25218849819409, "lng": 108.82044337489403}}, {"name": "\u6ca3\u4e1c\u57ce\u5e02\u5e7f\u573a", "location": {"lat": 34.26142858890006, "lng": 108.76876726915272}, "address": "\u897f\u5b89\u5e02\u957f\u5b89\u533a\u79d1\u6e90\u4e8c\u8def\u4e0e\u6ca3\u4e1c\u5927\u9053\u4ea4\u53c9\u8def\u53e3\u4e1c\u4fa7(\u4e2d\u56fd\u56fd\u9645\u4e1d\u8def\u4e2d\u5fc3\u5317\u4fa7\u7ea6100\u7c73)", "province": "\u9655\u897f\u7701", "city": "\u897f\u5b89\u5e02", "area": "\u957f\u5b89\u533a", "detail": 1, "uid": "ebdd5904184ae53ae812e4f6", "detail_info": {"tag": "\u623f\u5730\u4ea7;\u5199\u5b57\u697c", "navi_location": {"lng": 108.77974022135, "lat": 34.265701509993}, "type": "house", "detail_url": "http://api.map.baidu.com/place/detail?uid=ebdd5904184ae53ae812e4f6&output=html&source=placeapi_v2", "overall_rating": "3.3", "children": [], "lat": 34.26142858890006, "lng": 108.76876726915272}}, {"name": "\u798f\u9038\u9601", "location": {"lat": 34.25647008612692, "lng": 108.81728273008765}, "address": "\u9655\u897f\u7701\u897f\u5b89\u5e02\u672a\u592e\u533a\u548c\u5e73\u6751\u897f\u5b9d\u758f\u5bfc\u7ebf(\u548c\u5e73\u6625\u5929\u5c0f\u533a\u5357\u95e8\u5411\u897f200\u7c73)", "province": "\u9655\u897f\u7701", "city": "\u897f\u5b89\u5e02", "area": "\u672a\u592e\u533a", "telephone": "(029)89111939,15686218030", "detail": 1, "uid": "c1f231d92c90455f9e82ea73", "detail_info": {"tag": "\u7f8e\u98df;\u8336\u5ea7", "type": "cater", "detail_url": "http://api.map.baidu.com/place/detail?uid=c1f231d92c90455f9e82ea73&output=html&source=placeapi_v2", "children": [], "lat": 34.25647008612692, "lng": 108.81728273008765}}, {"name": "\u960e\u5341\u751f\u6001\u56ed", "location": {"lat": 34.27884658768463, "lng": 108.80967520806851}, "address": "\u9655\u897f\u7701\u897f\u5b89\u5e02\u672a\u592e\u533a\u5929\u53f0\u516b\u8def\u4ed8\u4e8c\u8def", "province": "\u9655\u897f\u7701", "city": "\u897f\u5b89\u5e02", "area": "\u672a\u592e\u533a", "detail": 1, "uid": "d00f84960755303fc16c1485", "detail_info": {"tag": "\u4f11\u95f2\u5a31\u4e50;\u519c\u5bb6\u9662", "type": "life", "detail_url": "http://api.map.baidu.com/place/detail?uid=d00f84960755303fc16c1485&output=html&source=placeapi_v2", "image_num": "1", "children": [], "lat": 34.27884658768463, "lng": 108.80967520806851}}, {"name": "\u4f2f\u4e50\u57ce\u5e02\u5e7f\u573a", "location": {"lat": 34.26049531440978, "lng": 108.81934650690329}, "address": "\u897f\u5b89\u5e02\u672a\u592e\u533a\u6ca3\u4e1c\u5927\u9053\u4e0e\u897f\u5b9d\u758f\u5bfc\u7ebf\u4ea4\u53c9\u8def\u53e3\u5f80\u897f\u7ea6100\u7c73(\u9ad8\u65b0\u4e00\u4e2d\u6ca3\u4e1c\u4e2d\u5b66\u4e1c\u5317\u4fa7)", "province": "\u9655\u897f\u7701", "city": "\u897f\u5b89\u5e02", "area": "\u672a\u592e\u533a", "street_id": "0ac7a28722354b142806ce24", "detail": 1, "uid": "0ac7a28722354b142806ce24", "detail_info": {"tag": "\u623f\u5730\u4ea7;\u5176\u4ed6", "navi_location": {"lng": 108.83043115842, "lat": 34.265642053438}, "type": "house", "detail_url": "http://api.map.baidu.com/place/detail?uid=0ac7a28722354b142806ce24&output=html&source=placeapi_v2", "children": [], "lat": 34.26049531440978, "lng": 108.81934650690329}}, {"name": "\u8001\u5e74\u4eba\u670d\u52a1\u4e2d\u5fc3", "location": {"lat": 34.268529593979174, "lng": 108.82050116210283}, "address": "\u897f\u5b89\u5e02\u672a\u592e\u533a\u5929\u53f0\u8def\u4e0e\u5929\u53f0\u4e09\u8def\u4ea4\u53c9\u8def\u53e3\u897f\u5317\u4fa7(\u5927\u79e6\u533b\u9662)", "province": "\u9655\u897f\u7701", "city": "\u897f\u5b89\u5e02", "area": "\u672a\u592e\u533a", "detail": 1, "uid": "4bf9e370d4a0f8e62b02e186", "detail_info": {"tag": "\u6587\u5316\u4f20\u5a92;\u6587\u5316\u5bab", "type": "life", "detail_url": "http://api.map.baidu.com/place/detail?uid=4bf9e370d4a0f8e62b02e186&output=html&source=placeapi_v2", "image_num": "1", "children": [], "lat": 34.268529593979174, "lng": 108.82050116210283}}, {"name": "\u4e1d\u8def\u56fd\u9645\u7535\u5f71\u57ce", "location": {"lat": 34.262758109565645, "lng": 108.82449527481812}, "address": "\u9655\u897f\u7701\u897f\u5b89\u5e02\u672a\u592e\u533a\u548c\u5e73\u5de5\u4e1a\u56ed\u533a\u4e8c\u53f7\u8def\u9644\u8fd1", "province": "\u9655\u897f\u7701", "city": "\u897f\u5b89\u5e02", "area": "\u672a\u592e\u533a", "detail": 1, "uid": "4dd9c296cc483c160bf5eb10", "detail_info": {"tag": "\u4f11\u95f2\u5a31\u4e50;\u7535\u5f71\u9662", "type": "life", "detail_url": "http://api.map.baidu.com/place/detail?uid=4dd9c296cc483c160bf5eb10&output=html&source=placeapi_v2", "image_num": "1", "children": [], "lat": 34.262758109565645, "lng": 108.82449527481812}}, {"name": "\u4e2d\u8001\u5e74\u5a31\u4e50\u4e2d\u5fc3", "location": {"lat": 34.26498329873154, "lng": 108.81607200867747}, "address": "\u5929\u53f0\u4e8c\u8def361\u53f7\u9644\u8fd1", "province": "\u9655\u897f\u7701", "city": "\u897f\u5b89\u5e02", "area": "\u672a\u592e\u533a", "street_id": "e7033bc790568c67b11e368b", "detail": 1, "uid": "e7033bc790568c67b11e368b", "detail_info": {"tag": "\u6587\u5316\u4f20\u5a92;\u6587\u5316\u5bab", "type": "life", "detail_url": "http://api.map.baidu.com/place/detail?uid=e7033bc790568c67b11e368b&output=html&source=placeapi_v2", "image_num": "2", "children": [], "lat": 34.26498329873154, "lng": 108.81607200867747}}, {"name": "\u95f5\u65d7\u5be8\u6751\u6c11\u59d4\u5458\u4f1a\u8001\u5e74\u6d3b\u52a8\u4e2d\u5fc3", "location": {"lat": 34.248164788584354, "lng": 108.81885640056582}, "address": "\u9655\u897f\u7701\u897f\u5b89\u5e02\u672a\u592e\u533a\u548c\u5e73\u5de5\u4e1a\u56ed\u4e00\u53f7\u8def", "province": "\u9655\u897f\u7701", "city": "\u897f\u5b89\u5e02", "area": "\u672a\u592e\u533a", "street_id": "353afdd4a301bb99b817e75e", "detail": 1, "uid": "353afdd4a301bb99b817e75e", "detail_info": {"tag": "\u6587\u5316\u4f20\u5a92;\u6587\u5316\u5bab", "type": "life", "detail_url": "http://api.map.baidu.com/place/detail?uid=353afdd4a301bb99b817e75e&output=html&source=placeapi_v2", "image_num": "2", "children": [], "lat": 34.248164788584354, "lng": 108.81885640056582}}, {"name": "\u8363\u5a01\u540d\u7235(\u5929\u53f0\u8def\u5e97)", "location": {"lat": 34.27388457272536, "lng": 108.8205355428186}, "address": "\u5929\u53f0\u8def46\u53f7", "province": "\u9655\u897f\u7701", "city": "\u897f\u5b89\u5e02", "area": "\u672a\u592e\u533a", "detail": 1, "uid": "84b11340f37f5edc1f1d1183", "detail_info": {"tag": "\u8d2d\u7269;\u5546\u94fa", "type": "life", "detail_url": "http://api.map.baidu.com/place/detail?uid=84b11340f37f5edc1f1d1183&output=html&source=placeapi_v2", "image_num": "1", "children": [], "lat": 34.27388457272536, "lng": 108.8205355428186}}, {"name": "\u7ebf\u5207\u5272", "location": {"lat": 34.253478164100024, "lng": 108.8223595882012}, "address": "\u9655\u897f\u7701\u897f\u5b89\u5e02\u672a\u592e\u533a\u6606\u660e\u8def\u897f\u5ef6\u4f38\u6bb5\u8096\u91cc\u6751134\u53f7", "province": "\u9655\u897f\u7701", "city": "\u897f\u5b89\u5e02", "area": "\u672a\u592e\u533a", "street_id": "d1ccbf11404adf086ca3cc19", "telephone": "13700241283", "detail": 1, "uid": "d1ccbf11404adf086ca3cc19", "detail_info": {"tag": "\u751f\u6d3b\u670d\u52a1;\u5176\u4ed6", "type": "life", "detail_url": "http://api.map.baidu.com/place/detail?uid=d1ccbf11404adf086ca3cc19&output=html&source=placeapi_v2", "image_num": "15", "children": [], "lat": 34.253478164100024, "lng": 108.8223595882012}}, {"name": "\u667a\u6167\u5bb6\u5ead\u670d\u52a1\u4e2d\u5fc3", "location": {"lat": 34.2570061150372, "lng": 108.82024439033633}, "address": "\u9655\u897f\u7701\u897f\u5b89\u5e02\u672a\u592e\u533a\u548c\u5e73\u6751\u4e1c6\u5df7-\u4e1c\u6bb5\u9644\u8fd1", "province": "\u9655\u897f\u7701", "city": "\u897f\u5b89\u5e02", "area": "\u672a\u592e\u533a", "detail": 1, "uid": "ec913223478e0aceeb12e4d6", "detail_info": {"tag": "\u751f\u6d3b\u670d\u52a1;\u5176\u4ed6", "type": "life", "detail_url": "http://api.map.baidu.com/place/detail?uid=ec913223478e0aceeb12e4d6&output=html&source=placeapi_v2", "image_num": "2", "children": [], "lat": 34.2570061150372, "lng": 108.82024439033633}}, {"name": "\u5e99\u5e97\u5e84", "location": {"lat": 34.268479150682005, "lng": 108.78167346547356}, "address": "\u897f\u5b89\u5e02\u957f\u5b89\u533a\u7eaa\u6768\u5be8\u65b0\u8857\u897f200\u7c73", "province": "\u9655\u897f\u7701", "city": "\u897f\u5b89\u5e02", "area": "\u957f\u5b89\u533a", "detail": 1, "uid": "4d2ecba264df253f71455b0e", "detail_info": {"tag": "\u884c\u653f\u5730\u6807;\u6751\u5e84", "type": "life", "detail_url": "http://api.map.baidu.com/place/detail?uid=4d2ecba264df253f71455b0e&output=html&source=placeapi_v2", "image_num": "1", "children": [], "lat": 34.268479150682005, "lng": 108.78167346547356}}, {"name": "\u7231\u821e\u827a\u672f", "location": {"lat": 34.27018834456207, "lng": 108.77549559882308}, "address": "\u9655\u897f\u7701\u897f\u5b89\u5e02\u957f\u5b89\u533a\u6ca3\u4e1c\u4e09\u8def", "province": "\u9655\u897f\u7701", "city": "\u897f\u5b89\u5e02", "area": "\u957f\u5b89\u533a", "detail": 1, "uid": "997346cf3bd91cb2bd484279", "detail_info": {"tag": "\u6559\u80b2\u57f9\u8bad;\u57f9\u8bad\u673a\u6784", "type": "life", "detail_url": "http://api.map.baidu.com/place/detail?uid=997346cf3bd91cb2bd484279&output=html&source=placeapi_v2", "image_num": "1", "children": [], "lat": 34.27018834456207, "lng": 108.77549559882308}}, {"name": "\u6c47\u90fd\u6d17\u6d74", "location": {"lat": 34.30442709116952, "lng": 108.81914539496789}, "address": "\u7d2b\u8346\u57ce\u5317\u6c99\u53e3\u6751", "province": "\u9655\u897f\u7701", "city": "\u897f\u5b89\u5e02", "area": "\u672a\u592e\u533a", "detail": 1, "uid": "5bde0a34c583328b2a02e16b", "detail_info": {"tag": "\u4f11\u95f2\u5a31\u4e50;\u6d17\u6d74\u6309\u6469", "type": "life", "detail_url": "http://api.map.baidu.com/place/detail?uid=5bde0a34c583328b2a02e16b&output=html&source=placeapi_v2", "image_num": "3", "children": [], "lat": 34.30442709116952, "lng": 108.81914539496789}}, {"name": "ACE\u73a9\u805a\u7f51\u5496(\u540e\u56f4\u5be8\u5e97)", "location": {"lat": 34.303721642911555, "lng": 108.80781559690334}, "address": "\u897f\u5b89\u5e02\u672a\u592e\u533a\u4e09\u6865\u8857\u529e\u542f\u822a\u4f73\u82d114\u53f7\u697c\u5e95\u5546\u4e09\u5c42", "province": "\u9655\u897f\u7701", "city": "\u897f\u5b89\u5e02", "area": "\u672a\u592e\u533a", "detail": 1, "uid": "dcbd3d4bee5024a2a1a934d9", "detail_info": {"tag": "\u4f11\u95f2\u5a31\u4e50;\u7f51\u5427", "navi_location": {"lng": 108.81892434453, "lat": 34.307962959253}, "type": "life", "detail_url": "http://api.map.baidu.com/place/detail?uid=dcbd3d4bee5024a2a1a934d9&output=html&source=placeapi_v2", "overall_rating": "5.0", "image_num": "33", "comment_num": "4", "children": [], "lat": 34.303721642911555, "lng": 108.80781559690334}}, {"name": "\u683c\u83b1\u7f8e\u4e3b\u9898KTV", "location": {"lat": 34.301361077247634, "lng": 108.81106834369962}, "address": "\u9655\u897f\u7701\u897f\u5b89\u5e02\u672a\u592e\u533a\u540e\u56f4\u5be8\u7acb\u4ea4B\u533a11\u53f7\u697c4\u697c", "province": "\u9655\u897f\u7701", "city": "\u897f\u5b89\u5e02", "area": "\u672a\u592e\u533a", "street_id": "70c0d5ff4962b610be4842bf", "telephone": "(029)84521999", "detail": 1, "uid": "70c0d5ff4962b610be4842bf", "detail_info": {"tag": "\u4f11\u95f2\u5a31\u4e50;ktv", "navi_location": {"lng": 108.82196113907, "lat": 34.305924623829}, "type": "life", "detail_url": "http://api.map.baidu.com/place/detail?uid=70c0d5ff4962b610be4842bf&output=html&source=placeapi_v2", "price": "117", "overall_rating": "3.4", "image_num": "5", "comment_num": "20", "children": [], "lat": 34.301361077247634, "lng": 108.81106834369962}}, {"name": "\u542f\u822a\u7f51\u7edc", "location": {"lat": 34.301777857359966, "lng": 108.81127449158969}, "address": "\u9655\u897f\u7701\u897f\u5b89\u5e02\u672a\u592e\u533a\u540e\u56f4\u5be8\u7acb\u4ea4", "province": "\u9655\u897f\u7701", "city": "\u897f\u5b89\u5e02", "area": "\u672a\u592e\u533a", "detail": 1, "uid": "4a62de4b2758cccb4051c083", "detail_info": {"tag": "\u4f11\u95f2\u5a31\u4e50;\u7f51\u5427", "type": "life", "detail_url": "http://api.map.baidu.com/place/detail?uid=4a62de4b2758cccb4051c083&output=html&source=placeapi_v2", "overall_rating": "3.6", "image_num": "7", "comment_num": "16", "children": [], "lat": 34.301777857359966, "lng": 108.81127449158969}}, {"name": "\u56db\u5b63\u6d74\u6c60", "location": {"lat": 34.305529674565726, "lng": 108.81598061915204}, "address": "\u9655\u897f\u7701\u897f\u5b89\u5e02\u672a\u592e\u533a\u5929\u7ae0\u5927\u9053", "province": "\u9655\u897f\u7701", "city": "\u897f\u5b89\u5e02", "area": "\u672a\u592e\u533a", "detail": 1, "uid": "85b3bbba339a89d5ddee8b4f", "detail_info": {"tag": "\u4f11\u95f2\u5a31\u4e50;\u6d17\u6d74\u6309\u6469", "navi_location": {"lng": 108.82710520203, "lat": 34.310087644538}, "type": "life", "detail_url": "http://api.map.baidu.com/place/detail?uid=85b3bbba339a89d5ddee8b4f&output=html&source=placeapi_v2", "image_num": "4", "children": [], "lat": 34.305529674565726, "lng": 108.81598061915204}}, {"name": "\u65b0\u5e97\u6e29\u6cc9\u6d74\u6c60", "location": {"lat": 34.302482223071735, "lng": 108.79966471885841}, "address": "\u897f\u5b89\u5e02\u672a\u592e\u533a", "province": "\u9655\u897f\u7701", "city": "\u897f\u5b89\u5e02", "area": "\u672a\u592e\u533a", "detail": 1, "uid": "bdfdaec1bf29d27e0bccddce", "detail_info": {"tag": "\u4f11\u95f2\u5a31\u4e50;\u6d17\u6d74\u6309\u6469", "type": "life", "detail_url": "http://api.map.baidu.com/place/detail?uid=bdfdaec1bf29d27e0bccddce&output=html&source=placeapi_v2", "image_num": "2", "children": [], "lat": 34.302482223071735, "lng": 108.79966471885841}}, {"name": "\u5178\u5510\u76f2\u4eba\u63a8\u62ff", "location": {"lat": 34.29180866453335, "lng": 108.81945747858566}, "address": "\u9655\u897f\u7701\u897f\u5b89\u5e02\u672a\u592e\u533a\u5f81\u548c\u516d\u8def", "province": "\u9655\u897f\u7701", "city": "\u897f\u5b89\u5e02", "area": "\u672a\u592e\u533a", "detail": 1, "uid": "c8c5e45d75f91b8fcac3dbdf", "detail_info": {"tag": "\u4f11\u95f2\u5a31\u4e50;\u6d17\u6d74\u6309\u6469", "type": "life", "detail_url": "http://api.map.baidu.com/place/detail?uid=c8c5e45d75f91b8fcac3dbdf&output=html&source=placeapi_v2", "image_num": "3", "children": [], "lat": 34.29180866453335, "lng": 108.81945747858566}}, {"name": "\u6f2b\u5ba2\u7f51\u5427", "location": {"lat": 34.30282577370142, "lng": 108.80931752831751}, "address": "\u540e\u536b\u5be8\u5730\u94c1\u53e3\u542f\u822a\u65f6\u4ee3\u5e7f\u573a\u897f\u6237", "province": "\u9655\u897f\u7701", "city": "\u897f\u5b89\u5e02", "area": "\u672a\u592e\u533a", "detail": 1, "uid": "e06dc3820ace89e9631809cd", "detail_info": {"tag": "\u4f11\u95f2\u5a31\u4e50;\u7f51\u5427", "type": "life", "detail_url": "http://api.map.baidu.com/place/detail?uid=e06dc3820ace89e9631809cd&output=html&source=placeapi_v2", "overall_rating": "0.0", "image_num": "2", "children": [], "lat": 34.30282577370142, "lng": 108.80931752831751}}, {"name": "\u7eff\u5eb7\u8db3\u7597", "location": {"lat": 34.30335884869286, "lng": 108.80127891226913}, "address": "\u897f\u5b89\u5e02\u672a\u592e\u533a\u4e09\u6865\u8857\u9053\u529e\u65b0\u5e97\u5c0f\u533a\u4e00\u533a\u56db\u680b\u4e00\u5355\u5143\u4e00\u697c", "province": "\u9655\u897f\u7701", "city": "\u897f\u5b89\u5e02", "area": "\u672a\u592e\u533a", "detail": 1, "uid": "67bfea4214a02e3145e27451", "detail_info": {"tag": "\u4f11\u95f2\u5a31\u4e50;\u6d17\u6d74\u6309\u6469", "type": "life", "detail_url": "http://api.map.baidu.com/place/detail?uid=67bfea4214a02e3145e27451&output=html&source=placeapi_v2", "image_num": "1", "children": [], "lat": 34.30335884869286, "lng": 108.80127891226913}}, {"name": "\u90d1\u8fdc\u5143\u4e13\u4e1a\u4fee\u811a\u623f", "location": {"lat": 34.292738660187005, "lng": 108.81886999043098}, "address": "\u897f\u5b89\u5e02\u672a\u592e\u533a", "province": "\u9655\u897f\u7701", "city": "\u897f\u5b89\u5e02", "area": "\u672a\u592e\u533a", "detail": 1, "uid": "e643f8864c166773afee7a19", "detail_info": {"tag": "\u4f11\u95f2\u5a31\u4e50;\u6d17\u6d74\u6309\u6469", "type": "life", "detail_url": "http://api.map.baidu.com/place/detail?uid=e643f8864c166773afee7a19&output=html&source=placeapi_v2", "image_num": "3", "children": [], "lat": 34.292738660187005, "lng": 108.81886999043098}}, {"name": "\u6c38\u5eb7\u8db3\u9053", "location": {"lat": 34.29332230400272, "lng": 108.82008981386737}, "address": "\u9655\u897f\u7701\u897f\u5b89\u5e02\u672a\u592e\u533a\u5f81\u548c\u516d\u8def", "province": "\u9655\u897f\u7701", "city": "\u897f\u5b89\u5e02", "area": "\u672a\u592e\u533a", "detail": 1, "uid": "ef7df61e67938a165b3ac8eb", "detail_info": {"tag": "\u4f11\u95f2\u5a31\u4e50;\u6d17\u6d74\u6309\u6469", "type": "life", "detail_url": "http://api.map.baidu.com/place/detail?uid=ef7df61e67938a165b3ac8eb&output=html&source=placeapi_v2", "image_num": "4", "children": [], "lat": 34.29332230400272, "lng": 108.82008981386737}}, {"name": "\u53d9\u53cb\u9601\u8336\u9986", "location": {"lat": 34.29181258682618, "lng": 108.81974610988817}, "address": "\u534e\u6da6\u4e8c\u5341\u56db\u57ce1-1001", "province": "\u9655\u897f\u7701", "city": "\u897f\u5b89\u5e02", "area": "\u672a\u592e\u533a", "street_id": "3c1cd6b211ba8e76102935ad", "detail": 1, "uid": "3c1cd6b211ba8e76102935ad", "detail_info": {"tag": "\u7f8e\u98df;\u8336\u5ea7", "navi_location": {"lng": 108.83069396568, "lat": 34.296287040274}, "type": "cater", "detail_url": "http://api.map.baidu.com/place/detail?uid=3c1cd6b211ba8e76102935ad&output=html&source=placeapi_v2", "children": [], "lat": 34.29181258682618, "lng": 108.81974610988817}}, {"name": "\u6c90\u548c\u6c57\u84b8\u5de5\u574a", "location": {"lat": 34.30210667987042, "lng": 108.8105805985024}, "address": "\u9655\u897f\u7701\u897f\u5b89\u5e02\u672a\u592e\u533a\u540e\u56f4\u5be8\u7acb\u4ea4", "province": "\u9655\u897f\u7701", "city": "\u897f\u5b89\u5e02", "area": "\u672a\u592e\u533a", "telephone": "13759928626", "detail": 1, "uid": "64282215425d232443afe652", "detail_info": {"tag": "\u4f11\u95f2\u5a31\u4e50;\u6d17\u6d74\u6309\u6469", "type": "life", "detail_url": "http://api.map.baidu.com/place/detail?uid=64282215425d232443afe652&output=html&source=placeapi_v2", "image_num": "4", "children": [], "lat": 34.30210667987042, "lng": 108.8105805985024}}, {"name": "\u65b0\u519b\u5be8\u6e29\u6cc9\u6d74\u6c60", "location": {"lat": 34.307334986662774, "lng": 108.81774497214185}, "address": "\u897f\u5b89\u5e02\u672a\u592e\u533a\u5929\u7ae0\u5927\u9053\u4e0e\u5b59\u6b66\u8def\u4ea4\u53c9\u8def\u53e3\u5f80\u4e1c\u5357\u7ea650\u7c73", "province": "\u9655\u897f\u7701", "city": "\u897f\u5b89\u5e02", "area": "\u672a\u592e\u533a", "detail": 1, "uid": "79d31d6df05cc127a0a93490", "detail_info": {"tag": "\u4f11\u95f2\u5a31\u4e50;\u6d17\u6d74\u6309\u6469", "type": "life", "detail_url": "http://api.map.baidu.com/place/detail?uid=79d31d6df05cc127a0a93490&output=html&source=placeapi_v2", "image_num": "2", "children": [], "lat": 34.307334986662774, "lng": 108.81774497214185}}, {"name": "\u6c47\u8d24\u96c5\u82d1\u8336\u697c(\u534e\u6da6\u4e8c\u5341\u56db\u57ce\u5e97)", "location": {"lat": 34.291964765528185, "lng": 108.81699494896485}, "address": "\u534e\u6da6\u4e8c\u5341\u56db\u57ce24\u5e621\u5355\u51432\u5c42\u5546\u94fa", "province": "\u9655\u897f\u7701", "city": "\u897f\u5b89\u5e02", "area": "\u672a\u592e\u533a", "telephone": "18509283488", "detail": 1, "uid": "748eb88c998a4c03c51e5127", "detail_info": {"tag": "\u7f8e\u98df;\u8336\u5ea7", "type": "cater", "detail_url": "http://api.map.baidu.com/place/detail?uid=748eb88c998a4c03c51e5127&output=html&source=placeapi_v2", "overall_rating": "4.0", "comment_num": "1", "children": [], "lat": 34.291964765528185, "lng": 108.81699494896485}}, {"name": "\u6881\u5747\u5782\u9493\u56ed", "location": {"lat": 34.30996158312025, "lng": 108.80345351307555}, "address": "\u897f\u5b89\u5e02\u672a\u592e\u533a", "province": "\u9655\u897f\u7701", "city": "\u897f\u5b89\u5e02", "area": "\u672a\u592e\u533a", "detail": 1, "uid": "feb450148a8ac522581093d7", "detail_info": {"tag": "\u4f11\u95f2\u5a31\u4e50;\u5176\u4ed6", "type": "life", "detail_url": "http://api.map.baidu.com/place/detail?uid=feb450148a8ac522581093d7&output=html&source=placeapi_v2", "image_num": "1", "children": [], "lat": 34.30996158312025, "lng": 108.80345351307555}}, {"name": "\u5927\u4f17\u6e29\u6cc9\u6d74\u6c60", "location": {"lat": 34.296827995842726, "lng": 108.80772959450903}, "address": "\u9655\u897f\u7701\u897f\u5b89\u5e02\u672a\u592e\u533a\u5929\u53f0\u4e5d\u8def\u897f\u5b89\u5e02\u7b2c\u516d\u5341\u516b\u4e2d\u5b66\u9644\u8fd1", "province": "\u9655\u897f\u7701", "city": "\u897f\u5b89\u5e02", "area": "\u672a\u592e\u533a", "street_id": "5b88d329234252974e2fdf26", "detail": 1, "uid": "5b88d329234252974e2fdf26", "detail_info": {"tag": "\u4f11\u95f2\u5a31\u4e50;\u6d17\u6d74\u6309\u6469", "type": "life", "detail_url": "http://api.map.baidu.com/place/detail?uid=5b88d329234252974e2fdf26&output=html&source=placeapi_v2", "image_num": "1", "children": [], "lat": 34.296827995842726, "lng": 108.80772959450903}}, {"name": "\u9e3f\u946b\u6d74\u5e84\u56ed", "location": {"lat": 34.296491471198955, "lng": 108.8100617471739}, "address": "\u672a\u592e\u533a\u4e5d\u8def\u5317150\u7c73", "province": "\u9655\u897f\u7701", "city": "\u897f\u5b89\u5e02", "area": "\u672a\u592e\u533a", "detail": 1, "uid": "0d1d3405563b25eec9c3dbc2", "detail_info": {"tag": "\u4f11\u95f2\u5a31\u4e50;\u6d17\u6d74\u6309\u6469", "type": "life", "detail_url": "http://api.map.baidu.com/place/detail?uid=0d1d3405563b25eec9c3dbc2&output=html&source=placeapi_v2", "image_num": "1", "children": [], "lat": 34.296491471198955, "lng": 108.8100617471739}}, {"name": "\u6ee1\u7f18\u8336\u793e", "location": {"lat": 34.302442549885996, "lng": 108.80941644817831}, "address": "\u897f\u5b89\u5e02\u672a\u592e\u533a\u897f\u54b8\u8def501\u53f7\u542f\u822a\u65f6\u4ee3\u5e7f\u573ab\u5ea71\u5c42\u9644\u8fd1", "province": "\u9655\u897f\u7701", "city": "\u897f\u5b89\u5e02", "area": "\u672a\u592e\u533a", "detail": 1, "uid": "90a1c56873d783492dfaa764", "detail_info": {"tag": "\u7f8e\u98df;\u8336\u5ea7", "type": "cater", "detail_url": "http://api.map.baidu.com/place/detail?uid=90a1c56873d783492dfaa764&output=html&source=placeapi_v2", "children": [], "lat": 34.302442549885996, "lng": 108.80941644817831}}, {"name": "SUBARU", "location": {"lat": 34.290942825050564, "lng": 108.81589423774096}, "address": "\u9655\u897f\u7701\u897f\u5b89\u5e02\u672a\u592e\u533a\u897f\u5b9d\u9ad8\u901f\u758f\u5bfc\u8def54\u53f7\u9644\u8fd1", "province": "\u9655\u897f\u7701", "city": "\u897f\u5b89\u5e02", "area": "\u672a\u592e\u533a", "detail": 1, "uid": "d21574549bc7cb331811d524", "detail_info": {"tag": "\u7f8e\u98df;\u9152\u5427", "type": "cater", "detail_url": "http://api.map.baidu.com/place/detail?uid=d21574549bc7cb331811d524&output=html&source=placeapi_v2", "image_num": "1", "children": [], "lat": 34.290942825050564, "lng": 108.81589423774096}}, {"name": "\u5f20\u6c0f\u4e13\u4e1a\u4fee\u811a", "location": {"lat": 34.292090763461516, "lng": 108.82099294490331}, "address": "\u9655\u897f\u7701\u897f\u5b89\u5e02\u672a\u592e\u533a\u5f81\u548c\u516d\u8def\u534e\u6da6\u4e8c\u5341\u56db\u57ce\u4e00\u671fA\u7ec4\u56e21\u5c42", "province": "\u9655\u897f\u7701", "city": "\u897f\u5b89\u5e02", "area": "\u672a\u592e\u533a", "street_id": "2251469e3294b6f1fb2d61ef", "detail": 1, "uid": "2251469e3294b6f1fb2d61ef", "detail_info": {"tag": "\u4f11\u95f2\u5a31\u4e50;\u6d17\u6d74\u6309\u6469", "type": "life", "detail_url": "http://api.map.baidu.com/place/detail?uid=2251469e3294b6f1fb2d61ef&output=html&source=placeapi_v2", "image_num": "7", "children": [], "lat": 34.292090763461516, "lng": 108.82099294490331}}, {"name": "\u7eaf\u8403\u76f2\u4eba\u63a8\u62ff(\u534e\u6da6\u4e8c\u5341\u56db\u57ce\u5e97)", "location": {"lat": 34.29190413445105, "lng": 108.81886104848535}, "address": "\u9655\u897f\u7701\u897f\u5b89\u5e02\u672a\u592e\u533a\u5f81\u548c\u516d\u8def", "province": "\u9655\u897f\u7701", "city": "\u897f\u5b89\u5e02", "area": "\u672a\u592e\u533a", "detail": 1, "uid": "b7ff180a4a2fe67f03897205", "detail_info": {"tag": "\u4f11\u95f2\u5a31\u4e50;\u6d17\u6d74\u6309\u6469", "navi_location": {"lng": 108.83008781437, "lat": 34.296663509415}, "type": "life", "detail_url": "http://api.map.baidu.com/place/detail?uid=b7ff180a4a2fe67f03897205&output=html&source=placeapi_v2", "image_num": "3", "children": [], "lat": 34.29190413445105, "lng": 108.81886104848535}}, {"name": "\u897f\u5b89\u65f6\u4ee3\u534e\u7eb3\u56fd\u9645\u5f71\u57ce(\u542f\u822a\u5e97)", "location": {"lat": 34.3021989730259, "lng": 108.80899369698365}, "address": "\u897f\u5b89\u5e02\u672a\u592e\u533a\u6ca3\u4e1c\u65b0\u57ce\u542f\u822a\u65f6\u4ee3\u5e7f\u573ac\u5ea74F", "province": "\u9655\u897f\u7701", "city": "\u897f\u5b89\u5e02", "area": "\u672a\u592e\u533a", "street_id": "9d89b64b2da75777c7f50db9", "telephone": "(029)89506662", "detail": 1, "uid": "9d89b64b2da75777c7f50db9", "detail_info": {"tag": "\u4f11\u95f2\u5a31\u4e50;\u7535\u5f71\u9662", "navi_location": {"lng": 108.81876718508, "lat": 34.307953278226}, "type": "life", "detail_url": "http://api.map.baidu.com/place/detail?uid=9d89b64b2da75777c7f50db9&output=html&source=placeapi_v2", "price": "40", "overall_rating": "2.0", "service_rating": "0", "environment_rating": "0", "comment_num": "100", "children": [], "lat": 34.3021989730259, "lng": 108.80899369698365}}, {"name": "\u53d1\u53d1\u53d1\u6d3b\u52a8\u4e2d\u5fc3", "location": {"lat": 34.29714298113632, "lng": 108.80851892914337}, "address": "\u5929\u53f0\u4e5d\u8def\u4e0e\u5929\u53f0\u516b\u8def\u4ed8\u4e00\u8def\u4ea4\u53c9\u53e3\u897f\u5317100\u7c73", "province": "\u9655\u897f\u7701", "city": "\u897f\u5b89\u5e02", "area": "\u672a\u592e\u533a", "street_id": "e7ed8fbdd5b37240c61b75c7", "detail": 1, "uid": "e7ed8fbdd5b37240c61b75c7", "detail_info": {"tag": "\u6587\u5316\u4f20\u5a92;\u6587\u5316\u5bab", "navi_location": {"lng": 108.8197482425, "lat": 34.301797332424}, "type": "enterprise", "detail_url": "http://api.map.baidu.com/place/detail?uid=e7ed8fbdd5b37240c61b75c7&output=html&source=placeapi_v2", "children": [], "lat": 34.29714298113632, "lng": 108.80851892914337}}, {"name": "\u4e1c\u672c\u57ce\u667a", "location": {"lat": 34.28142057385667, "lng": 108.81971024504313}, "address": "\u897f\u5b89\u5e02\u672a\u592e\u533a\u5929\u53f0\u8def(OYO\u4e5d\u6e90\u9152\u5e97\u4e1c\u5357\u4fa7\u7ea6200\u7c73)", "province": "\u9655\u897f\u7701", "city": "\u897f\u5b89\u5e02", "area": "\u672a\u592e\u533a", "telephone": "(029)84366688", "detail": 1, "uid": "cdccf560752ed0b92cb96d42", "detail_info": {"tag": "\u8d2d\u7269;\u5176\u4ed6", "type": "shopping", "detail_url": "http://api.map.baidu.com/place/detail?uid=cdccf560752ed0b92cb96d42&output=html&source=placeapi_v2", "children": [], "lat": 34.28142057385667, "lng": 108.81971024504313}}, {"name": "\u8363\u5a01\u00b7\u4f5b\u5c71\u5e02\u7545\u54cd\u5a31\u4e50\u6709\u9650\u516c\u53f8(\u9655\u897f\u76db\u6770\u57ce\u5e02\u5e97)", "location": {"lat": 34.2949822858013, "lng": 108.8128580162498}, "address": "\u4e09\u6865\u540d\u8f66\u5c55\u89c8\u9986(\u5929\u53f0\u8def\u897f)", "province": "\u9655\u897f\u7701", "city": "\u897f\u5b89\u5e02", "area": "\u672a\u592e\u533a", "detail": 1, "uid": "085a47c07a511c575b109344", "detail_info": {"tag": "\u8d2d\u7269;\u5176\u4ed6", "type": "shopping", "detail_url": "http://api.map.baidu.com/place/detail?uid=085a47c07a511c575b109344&output=html&source=placeapi_v2", "children": [], "lat": 34.2949822858013, "lng": 108.8128580162498}}, {"name": "\u827e\u5c0f\u6a61\u4eb2\u5b50\u7ed8\u672c\u6210\u957f\u4e2d\u5fc3", "location": {"lat": 34.29263365619379, "lng": 108.82037852598941}, "address": "\u534e\u6da624\u57ce5\u53f7\u697c\u5546\u94fa", "province": "\u9655\u897f\u7701", "city": "\u897f\u5b89\u5e02", "area": "\u672a\u592e\u533a", "detail": 1, "uid": "514e2fd60beb2e08c91b95f0", "detail_info": {"tag": "\u6559\u80b2\u57f9\u8bad;\u57f9\u8bad\u673a\u6784", "type": "education", "detail_url": "http://api.map.baidu.com/place/detail?uid=514e2fd60beb2e08c91b95f0&output=html&source=placeapi_v2", "overall_rating": "4.5", "comment_num": "2", "children": [], "lat": 34.29263365619379, "lng": 108.82037852598941}}, {"name": "\u94c2\u5170\u4e4b\u94a5\u7f8e\u5bb9SPA\u9986", "location": {"lat": 34.3029219876677, "lng": 108.80902948944572}, "address": "\u4e09\u6865\u8857\u9053\u540e\u536b\u5be8\u542f\u822a\u65f6\u4ee3\u5e7f\u573a\u5546\u4e1a\u6b65\u884c\u8857", "province": "\u9655\u897f\u7701", "city": "\u897f\u5b89\u5e02", "area": "\u672a\u592e\u533a", "detail": 1, "uid": "dd17f1dddbfa9a6b85420ecf", "detail_info": {"tag": "\u4e3d\u4eba;\u7f8e\u5bb9", "type": "beauty", "detail_url": "http://api.map.baidu.com/place/detail?uid=dd17f1dddbfa9a6b85420ecf&output=html&source=placeapi_v2", "children": [], "lat": 34.3029219876677, "lng": 108.80902948944572}}, {"name": "\u52a8\u611fe\u65cf", "location": {"lat": 34.29662702096362, "lng": 108.80826737989277}, "address": "\u897f\u5b89\u5e02\u672a\u592e\u533a\u5929\u53f0\u4e5d\u8def\u4e0e\u5929\u53f0\u516b\u8def\u4ed8\u4e00\u8def\u4ea4\u53c9\u53e3\u897f50\u7c73", "province": "\u9655\u897f\u7701", "city": "\u897f\u5b89\u5e02", "area": "\u672a\u592e\u533a", "detail": 1, "uid": "caea8d9c6b9984f40e3ddac7", "detail_info": {"tag": "\u8d2d\u7269;\u5176\u4ed6", "type": "shopping", "detail_url": "http://api.map.baidu.com/place/detail?uid=caea8d9c6b9984f40e3ddac7&output=html&source=placeapi_v2", "children": [], "lat": 34.29662702096362, "lng": 108.80826737989277}}, {"name": "\u5c0f\u7535(\u5927\u79e6\u9762\u5e84\u8f66\u57ce\u5e97)", "location": {"lat": 34.296539047532, "lng": 108.81354505855275}, "address": "\u5929\u53f0\u4e5d\u8def\u4e0e\u5929\u53f0\u8def\u8def\u53e3\u897f50\u7c73", "province": "\u9655\u897f\u7701", "city": "\u897f\u5b89\u5e02", "area": "\u672a\u592e\u533a", "detail": 1, "uid": "314d0ed705dcc530c3364440", "detail_info": {"tag": "\u751f\u6d3b\u670d\u52a1;\u5176\u4ed6", "type": "life", "detail_url": "http://api.map.baidu.com/place/detail?uid=314d0ed705dcc530c3364440&output=html&source=placeapi_v2", "image_num": "1", "children": [], "lat": 34.296539047532, "lng": 108.81354505855275}}, {"name": "\u8001\u8857\u8336\u94fa", "location": {"lat": 34.30210512780749, "lng": 108.81138101260868}, "address": "\u9655\u897f\u7701\u897f\u5b89\u5e02\u672a\u592e\u533a\u540e\u56f4\u5be8\u7acb\u4ea4", "province": "\u9655\u897f\u7701", "city": "\u897f\u5b89\u5e02", "area": "\u672a\u592e\u533a", "detail": 1, "uid": "2479e3bc23d7470f400245e3", "detail_info": {"tag": "\u7f8e\u98df;\u86cb\u7cd5\u751c\u54c1\u5e97", "type": "cater", "detail_url": "http://api.map.baidu.com/place/detail?uid=2479e3bc23d7470f400245e3&output=html&source=placeapi_v2", "overall_rating": "5.0", "comment_num": "1", "children": [], "lat": 34.30210512780749, "lng": 108.81138101260868}}, {"name": "BELIYS COFFEE", "location": {"lat": 34.30745085897343, "lng": 108.7923254337842}, "address": "\u897f\u5b89\u5e02\u672a\u592e\u533a\u592a\u5e73\u8def\u4e0e\u4e09\u6865\u65b0\u8857\u4ea4\u53c9\u8def\u53e3\u5357\u4fa7(\u6052\u5927\u90fd\u5e02\u5e7f\u573a)", "province": "\u9655\u897f\u7701", "city": "\u897f\u5b89\u5e02", "area": "\u672a\u592e\u533a", "detail": 1, "uid": "a945efe0bc550b1da11de990", "detail_info": {"tag": "\u7f8e\u98df;\u5496\u5561\u5385", "type": "cater", "detail_url": "http://api.map.baidu.com/place/detail?uid=a945efe0bc550b1da11de990&output=html&source=placeapi_v2", "children": [], "lat": 34.30745085897343, "lng": 108.7923254337842}}, {"name": "\u8336\u6653\u751f\u8fd0\u8425\u4e2d\u5fc3", "location": {"lat": 34.29312913711211, "lng": 108.82371265755054}, "address": "\u4e09\u6865\u8def\u8f85\u8def\u4e07\u8c61\u57ceC\u5ea72901\u53f7", "province": "\u9655\u897f\u7701", "city": "\u897f\u5b89\u5e02", "area": "\u672a\u592e\u533a", "telephone": "(029)89286367", "detail": 1, "uid": "67b0fea8d9d3f6bacc06a464", "detail_info": {"tag": "\u7f8e\u98df", "type": "cater", "detail_url": "http://api.map.baidu.com/place/detail?uid=67b0fea8d9d3f6bacc06a464&output=html&source=placeapi_v2", "children": [], "lat": 34.29312913711211, "lng": 108.82371265755054}}, {"name": "\u83dc\u9e1f\u7f51\u7edc\u897f\u5b89\u6ca3\u4e1c\u56ed\u533a", "location": {"lat": 34.32085078577508, "lng": 108.80984153316884}, "address": "\u897f\u5b89\u5e02\u672a\u592e\u533a\u4e30\u4e1a\u5927\u9053\u4e0e\u5929\u7ae0\u4e8c\u8def\u4ea4\u53c9\u8def\u53e3\u5f80\u4e1c\u5357\u7ea6100\u7c73", "province": "\u9655\u897f\u7701", "city": "\u897f\u5b89\u5e02", "area": "\u672a\u592e\u533a", "detail": 1, "uid": "845e7fdc2b342c15eaf853cf", "detail_info": {"tag": "\u4f11\u95f2\u5a31\u4e50;\u7f51\u5427", "navi_location": {"lng": 108.82206166125, "lat": 34.325471049842}, "type": "life", "detail_url": "http://api.map.baidu.com/place/detail?uid=845e7fdc2b342c15eaf853cf&output=html&source=placeapi_v2", "overall_rating": "3.0", "image_num": "1", "comment_num": "2", "children": [], "lat": 34.32085078577508, "lng": 108.80984153316884}}, {"name": "\u827e\u5427\u7f51\u7edc", "location": {"lat": 34.33394726075881, "lng": 108.82312594273623}, "address": "\u9655\u897f\u7701\u897f\u5b89\u5e02\u672a\u592e\u533a\u4e30\u4ea7\u8def\u897f\u6bb5", "province": "\u9655\u897f\u7701", "city": "\u897f\u5b89\u5e02", "area": "\u672a\u592e\u533a", "street_id": "2cd60264df108e61f23cba75", "telephone": "15091855589", "detail": 1, "uid": "2cd60264df108e61f23cba75", "detail_info": {"tag": "\u4f11\u95f2\u5a31\u4e50;\u7f51\u5427", "type": "life", "detail_url": "http://api.map.baidu.com/place/detail?uid=2cd60264df108e61f23cba75&output=html&source=placeapi_v2", "overall_rating": "0.0", "image_num": "10", "comment_num": "1", "children": [], "lat": 34.33394726075881, "lng": 108.82312594273623}}, {"name": "\u4e8c\u5e9c\u8425\u6e29\u6cc9\u6d74\u6c60", "location": {"lat": 34.33473632051916, "lng": 108.82417732410264}, "address": "\u9655\u897f\u7701\u897f\u5b89\u5e02\u672a\u592e\u533a\u5174\u98de\u767e\u8d27\u5546\u5e97(\u4e30\u4ea7\u8def\u5317)", "province": "\u9655\u897f\u7701", "city": "\u897f\u5b89\u5e02", "area": "\u672a\u592e\u533a", "street_id": "4549574f2ad91ff2f01937d0", "detail": 1, "uid": "4549574f2ad91ff2f01937d0", "detail_info": {"tag": "\u4f11\u95f2\u5a31\u4e50;\u6d17\u6d74\u6309\u6469", "type": "life", "detail_url": "http://api.map.baidu.com/place/detail?uid=4549574f2ad91ff2f01937d0&output=html&source=placeapi_v2", "image_num": "6", "children": [], "lat": 34.33473632051916, "lng": 108.82417732410264}}, {"name": "\u9c7c\u56ed\u519c\u5e84", "location": {"lat": 34.325684349768885, "lng": 108.79262572452532}, "address": "\u7ed5\u57ce\u9ad8\u901f\u516c\u8def\u9c7c\u4e61\u56ed\u5782\u9493\u56ed\u9644\u8fd1", "province": "\u9655\u897f\u7701", "city": "\u897f\u5b89\u5e02", "area": "\u672a\u592e\u533a", "detail": 1, "uid": "49cd9423f29a0f4c1e1d11fb", "detail_info": {"tag": "\u4f11\u95f2\u5a31\u4e50;\u5176\u4ed6", "type": "life", "detail_url": "http://api.map.baidu.com/place/detail?uid=49cd9423f29a0f4c1e1d11fb&output=html&source=placeapi_v2", "image_num": "1", "children": [], "lat": 34.325684349768885, "lng": 108.79262572452532}}, {"name": "\u84dd\u6ce2\u6e7e\u6c34\u4e16\u754c", "location": {"lat": 34.37178528134855, "lng": 108.77395141108215}, "address": "\u671d\u9633\u4e94\u8def\u4e2d\u6bb5", "province": "\u9655\u897f\u7701", "city": "\u54b8\u9633\u5e02", "area": "\u6e2d\u57ce\u533a", "street_id": "0aad7538b4def78ca4c756d0", "telephone": "(029)38018222,(029)38195555", "detail": 1, "uid": "0aad7538b4def78ca4c756d0", "detail_info": {"tag": "\u4f11\u95f2\u5a31\u4e50;\u6d17\u6d74\u6309\u6469", "navi_location": {"lng": 108.7856020933, "lat": 34.376146020172}, "type": "life", "detail_url": "http://api.map.baidu.com/place/detail?uid=0aad7538b4def78ca4c756d0&output=html&source=placeapi_v2", "price": "138", "overall_rating": "4.4", "image_num": "30", "comment_num": "100", "children": [], "lat": 34.37178528134855, "lng": 108.77395141108215}}, {"name": "\u6f2b\u6b65\u4e91\u7aef", "location": {"lat": 34.36700297033755, "lng": 108.7757702212745}, "address": "\u54b8\u9633\u5e02\u6e2d\u57ce\u533a\u91d1\u65ed\u8def\u671d\u9633\u4e94\u8def\u9526\u714c\u9152\u5e97\u4e09\u697c", "province": "\u9655\u897f\u7701", "city": "\u54b8\u9633\u5e02", "area": "\u6e2d\u57ce\u533a", "detail": 1, "uid": "0b32713a2271b3e9eb12e424", "detail_info": {"tag": "\u4f11\u95f2\u5a31\u4e50;\u6d17\u6d74\u6309\u6469", "type": "life", "detail_url": "http://api.map.baidu.com/place/detail?uid=0b32713a2271b3e9eb12e424&output=html&source=placeapi_v2", "image_num": "1", "children": [], "lat": 34.36700297033755, "lng": 108.7757702212745}}, {"name": "\u5927\u4f17\u6e29\u6cc9\u6d74\u6c60", "location": {"lat": 34.37077941414787, "lng": 108.76555860018112}, "address": "\u9655\u897f\u7701\u54b8\u9633\u5e02\u6e2d\u57ce\u533a\u6e2d\u57ce\u8857\u9053\u957f\u9675\u8def\u9e3f\u90fd\u8d2d\u7269\u5e7f\u573a\u4e1c100\u7c73", "province": "\u9655\u897f\u7701", "city": "\u54b8\u9633\u5e02", "area": "\u6e2d\u57ce\u533a", "street_id": "29b9e8515db5d920f6c59c0a", "detail": 1, "uid": "29b9e8515db5d920f6c59c0a", "detail_info": {"tag": "\u4f11\u95f2\u5a31\u4e50;\u6d17\u6d74\u6309\u6469", "navi_location": {"lng": 108.77674965092, "lat": 34.375231296793}, "type": "life", "detail_url": "http://api.map.baidu.com/place/detail?uid=29b9e8515db5d920f6c59c0a&output=html&source=placeapi_v2", "overall_rating": "0.0", "image_num": "3", "children": [], "lat": 34.37077941414787, "lng": 108.76555860018112}}, {"name": "\u9f99\u6cc9\u6d74\u6c60", "location": {"lat": 34.37521498816602, "lng": 108.77653325553594}, "address": "\u957f\u9675\u8def\u535750\u7c73", "province": "\u9655\u897f\u7701", "city": "\u54b8\u9633\u5e02", "area": "\u6e2d\u57ce\u533a", "detail": 1, "uid": "5ea02c9683343f6db75f1e81", "detail_info": {"tag": "\u4f11\u95f2\u5a31\u4e50;\u6d17\u6d74\u6309\u6469", "type": "life", "detail_url": "http://api.map.baidu.com/place/detail?uid=5ea02c9683343f6db75f1e81&output=html&source=placeapi_v2", "image_num": "2", "children": [], "lat": 34.37521498816602, "lng": 108.77653325553594}}, {"name": "\u6728\u5b50\u8db3\u7597", "location": {"lat": 34.37526691385854, "lng": 108.77679462372713}, "address": "\u54b8\u9633\u5e02\u6e2d\u57ce\u533a", "province": "\u9655\u897f\u7701", "city": "\u54b8\u9633\u5e02", "area": "\u6e2d\u57ce\u533a", "detail": 1, "uid": "5d0c26264ff58a3317948e5b", "detail_info": {"tag": "\u4f11\u95f2\u5a31\u4e50;\u6d17\u6d74\u6309\u6469", "type": "life", "detail_url": "http://api.map.baidu.com/place/detail?uid=5d0c26264ff58a3317948e5b&output=html&source=placeapi_v2", "image_num": "2", "children": [], "lat": 34.37526691385854, "lng": 108.77679462372713}}, {"name": "\u5fa1\u6cb3\u4e0a\u9662", "location": {"lat": 34.372825509569005, "lng": 108.78902667259996}, "address": "\u9655\u897f\u7701\u54b8\u9633\u5e02\u6e2d\u57ce\u533a\u91d1\u65ed\u5927\u905366\u53f7", "province": "\u9655\u897f\u7701", "city": "\u54b8\u9633\u5e02", "area": "\u6e2d\u57ce\u533a", "street_id": "7ac0374cd42f22989222e0c2", "telephone": "(029)33587777", "detail": 1, "uid": "7ac0374cd42f22989222e0c2", "detail_info": {"tag": "\u623f\u5730\u4ea7;\u5176\u4ed6", "navi_location": {"lng": 108.8003776496, "lat": 34.377186718445}, "type": "house", "detail_url": "http://api.map.baidu.com/place/detail?uid=7ac0374cd42f22989222e0c2&output=html&source=placeapi_v2", "overall_rating": "5", "children": [], "lat": 34.372825509569005, "lng": 108.78902667259996}}, {"name": "\u946b\u9999\u8336\u574a", "location": {"lat": 34.375661879206966, "lng": 108.77656968355262}, "address": "\u54b8\u9633\u5e02\u6e2d\u57ce\u533a", "province": "\u9655\u897f\u7701", "city": "\u54b8\u9633\u5e02", "area": "\u6e2d\u57ce\u533a", "detail": 1, "uid": "5a960859e70621b69e95de0e", "detail_info": {"tag": "\u7f8e\u98df;\u8336\u5ea7", "type": "cater", "detail_url": "http://api.map.baidu.com/place/detail?uid=5a960859e70621b69e95de0e&output=html&source=placeapi_v2", "children": [], "lat": 34.375661879206966, "lng": 108.77656968355262}}, {"name": "\u6ca3\u6e2d\u751f\u6001\u666f\u89c2\u533a", "location": {"lat": 34.347551243075806, "lng": 108.77328815840073}, "address": "\u9655\u897f\u7701\u54b8\u9633\u5e02\u79e6\u90fd\u533a\u6cb3\u5824\u8def\u9644\u8fd1", "province": "\u9655\u897f\u7701", "city": "\u54b8\u9633\u5e02", "area": "\u79e6\u90fd\u533a", "detail": 1, "uid": "4c1003cf551bd21cefdfcadb", "detail_info": {"tag": "\u65c5\u6e38\u666f\u70b9;\u5176\u4ed6", "type": "scope", "detail_url": "http://api.map.baidu.com/place/detail?uid=4c1003cf551bd21cefdfcadb&output=html&source=placeapi_v2", "overall_rating": "0.0", "comment_num": "1", "children": [], "lat": 34.347551243075806, "lng": 108.77328815840073}}, {"name": "\u9890\u5c0a\u6c34\u7597(\u7eff\u5730\u5047\u65e5\u9152\u5e97\u5e97)", "location": {"lat": 34.196140733579384, "lng": 108.87899701043001}, "address": "\u9655\u897f\u7701\u897f\u5b89\u5e02\u96c1\u5854\u533a\u9ad8\u65b0\u533a\u9526\u4e1a\u8def5\u53f7\u897f\u5b89\u7eff\u5730\u5047\u65e5\u9152\u5e974\u697c", "province": "\u9655\u897f\u7701", "city": "\u897f\u5b89\u5e02", "area": "\u96c1\u5854\u533a", "street_id": "6c00051b35ccc7da081cc782", "telephone": "(029)68689999", "detail": 1, "uid": "6c00051b35ccc7da081cc782", "detail_info": {"tag": "\u4f11\u95f2\u5a31\u4e50;\u6d17\u6d74\u6309\u6469", "type": "life", "detail_url": "http://api.map.baidu.com/place/detail?uid=6c00051b35ccc7da081cc782&output=html&source=placeapi_v2", "price": "787", "overall_rating": "3.4", "image_num": "18", "comment_num": "16", "children": [], "lat": 34.196140733579384, "lng": 108.87899701043001}}, {"name": "\u5927\u8db3\u795e\u519c(\u79d1\u6280\u516d\u8def\u5e97)", "location": {"lat": 34.2138387103733, "lng": 108.88083198761707}, "address": "\u9655\u897f\u7701\u897f\u5b89\u5e02\u96c1\u5854\u533a\u9ad8\u65b0\u533a\u9ad8\u65b0\u533a\u79d1\u6280\u516d\u8def\u6570\u5b57\u7a7a\u95f4\u5927\u53a62\u697c", "province": "\u9655\u897f\u7701", "city": "\u897f\u5b89\u5e02", "area": "\u96c1\u5854\u533a", "street_id": "9f97b1c581a6b11fb74f54a9", "telephone": "(029)88376222", "detail": 1, "uid": "9f97b1c581a6b11fb74f54a9", "detail_info": {"tag": "\u4f11\u95f2\u5a31\u4e50;\u6d17\u6d74\u6309\u6469", "navi_location": {"lng": 108.89095744309, "lat": 34.217858270082}, "type": "life", "detail_url": "http://api.map.baidu.com/place/detail?uid=9f97b1c581a6b11fb74f54a9&output=html&source=placeapi_v2", "price": "177", "overall_rating": "4.8", "image_num": "58", "comment_num": "100", "children": [], "lat": 34.2138387103733, "lng": 108.88083198761707}}, {"name": "\u8317\u5c45\u8336\u697c(\u9526\u4e1a\u8def\u5e97)", "location": {"lat": 34.195109506515664, "lng": 108.85307343142692}, "address": "\u897f\u5b89\u5e02\u96c1\u5854\u533a\u9526\u4e1a\u8def\u4e0e\u4e08\u516b\u516d\u8def\u4ea4\u53c9\u8def\u53e3\u5f80\u4e1c\u7ea650\u7c73(\u9526\u4e1a76)", "province": "\u9655\u897f\u7701", "city": "\u897f\u5b89\u5e02", "area": "\u96c1\u5854\u533a", "street_id": "b1fc5a6aae08717d6168585d", "telephone": "(029)88442025", "detail": 1, "uid": "b1fc5a6aae08717d6168585d", "detail_info": {"tag": "\u7f8e\u98df;\u8336\u5ea7", "type": "cater", "detail_url": "http://api.map.baidu.com/place/detail?uid=b1fc5a6aae08717d6168585d&output=html&source=placeapi_v2", "overall_rating": "5.0", "comment_num": "2", "children": [], "lat": 34.195109506515664, "lng": 108.85307343142692}}, {"name": "V SHOW\u7cbe\u54c1KTV(\u9526\u4e1a\u5e97)", "location": {"lat": 34.194854807250515, "lng": 108.87321108300702}, "address": "\u897f\u5b89\u5e02\u96c1\u5854\u533a\u9526\u4e1a\u8def\u9526\u4e1a\u65f6\u4ee3B\u5ea7", "province": "\u9655\u897f\u7701", "city": "\u897f\u5b89\u5e02", "area": "\u96c1\u5854\u533a", "street_id": "3be3c948b6596d08d22dd6d6", "detail": 1, "uid": "3be3c948b6596d08d22dd6d6", "detail_info": {"tag": "\u4f11\u95f2\u5a31\u4e50;ktv", "navi_location": {"lng": 108.88495341429, "lat": 34.199389725553}, "type": "life", "detail_url": "http://api.map.baidu.com/place/detail?uid=3be3c948b6596d08d22dd6d6&output=html&source=placeapi_v2", "price": "174", "overall_rating": "4.2", "image_num": "3", "comment_num": "60", "children": [], "lat": 34.194854807250515, "lng": 108.87321108300702}}, {"name": "\u7231\u6735\u56fd\u9645\u8f7b\u5962spa", "location": {"lat": 34.1946429238509, "lng": 108.87315056398181}, "address": "\u9655\u897f\u7701\u897f\u5b89\u5e02\u96c1\u5854\u533a\u9526\u4e1a\u8def\u8f85\u8def", "province": "\u9655\u897f\u7701", "city": "\u897f\u5b89\u5e02", "area": "\u96c1\u5854\u533a", "telephone": "(029)81145586", "detail": 1, "uid": "198963782218b0361e1d11fd", "detail_info": {"tag": "\u4f11\u95f2\u5a31\u4e50;\u6d17\u6d74\u6309\u6469", "type": "life", "detail_url": "http://api.map.baidu.com/place/detail?uid=198963782218b0361e1d11fd&output=html&source=placeapi_v2", "overall_rating": "4.9", "image_num": "1", "comment_num": "7", "children": [], "lat": 34.1946429238509, "lng": 108.87315056398181}}, {"name": "\u6cf0\u7136\u57ce", "location": {"lat": 34.212648704844135, "lng": 108.83520232911195}, "address": "\u9655\u897f\u7701\u897f\u5b89\u5e02\u96c1\u5854\u533a\u5929\u8c37\u4e03\u8def", "province": "\u9655\u897f\u7701", "city": "\u897f\u5b89\u5e02", "area": "\u96c1\u5854\u533a", "telephone": "(029)87386001,(029)87586001", "detail": 1, "uid": "3fa98b266e74c5808c1a894f", "detail_info": {"tag": "\u4f11\u95f2\u5a31\u4e50;\u5176\u4ed6", "type": "life", "detail_url": "http://api.map.baidu.com/place/detail?uid=3fa98b266e74c5808c1a894f&output=html&source=placeapi_v2", "overall_rating": "4.6", "image_num": "2", "comment_num": "10", "children": [], "lat": 34.212648704844135, "lng": 108.83520232911195}}, {"name": "\u73a9\u5bb6\u56fd\u5ea6\u7535\u7ade\u9986(\u9ad8\u65b0\u76ca\u7530\u5e97)", "location": {"lat": 34.19670800154645, "lng": 108.87742151314913},