"{'name': '皇家天使养生SPA美容会所(绿地世纪城店)', 'location': {'lat': 34.202071, 'lng': 108.883222}, 'address': '西安市雁塔区锦业路1号丈八三路绿地世纪城B区10102号', 'province': '陕西省', 'city': '西安市', 'area': '雁塔区', 'street_id': 'c6cffc00537bcc832cb9088b', 'telephone': '(029)65690009', 'detail': 1, 'uid': 'c6cffc00537bcc832cb9088b', 'detail_info': {'tag': '丽人;美容', 'type': 'beauty', 'detail_url': 'http://api.map.baidu.com/place/detail?uid=c6cffc00537bcc832cb9088b&output=html&source=placeapi_v2', 'price': '100.0', 'overall_rating': '4.7', 'comment_num': '10', 'children': []}}"
"{'name': '苗方清颜专业祛痘(科技路店)', 'location': {'lat': 34.241563, 'lng': 108.879353}, 'address': '西安市雁塔区都市印象西门', 'province': '陕西省', 'city': '西安市', 'area': '雁塔区', 'street_id': 'fad913c987b65af92d4733b1', 'telephone': '(029)89384876', 'detail': 1, 'uid': 'fad913c987b65af92d4733b1', 'detail_info': {'tag': '丽人;美容', 'type': 'beauty', 'detail_url': 'http://api.map.baidu.com/place/detail?uid=fad913c987b65af92d4733b1&output=html&source=placeapi_v2', 'price': '95.0', 'overall_rating': '4.2', 'comment_num': '14', 'children': []}}"
"{'name': '凯伦美业(大寨路店)', 'location': {'lat': 34.250589, 'lng': 108.890447}, 'address': '大寨路中建群贤汇2号楼1单元底商', 'province': '陕西省', 'city': '西安市', 'area': '雁塔区', 'telephone': '(029)81324049', 'detail': 1, 'uid': '43ffceb7a24b9c539703195d', 'detail_info': {'tag': '丽人;美发', 'type': 'beauty', 'detail_url': 'http://api.map.baidu.com/place/detail?uid=43ffceb7a24b9c539703195d&output=html&source=placeapi_v2', 'price': '125.0', 'overall_rating': '4.6', 'comment_num': '50', 'children': []}}"
"{'name': '美合国际皮肤管理中心', 'location': {'lat': 34.237658, 'lng': 108.888125}, 'address': '陕西省西安市雁塔区团结南路10号睿中心B座8层', 'province': '陕西省', 'city': '西安市', 'area': '雁塔区', 'telephone': '(029)89521166,4008552227', 'detail': 1, 'uid': '7fb0d1b345eab3ea2fb17e3d', 'detail_info': {'tag': '丽人;美容', 'type': 'beauty', 'detail_url': 'http://api.map.baidu.com/place/detail?uid=7fb0d1b345eab3ea2fb17e3d&output=html&source=placeapi_v2', 'price': '307.0', 'overall_rating': '5.0', 'comment_num': '66', 'children': []}}"
"{'name': '蕾特恩专业祛痘(鱼化寨店)', 'location': {'lat': 34.240682, 'lng': 108.879555}, 'address': '西安市雁塔区丈八北路与鱼斗路交叉路口往北约50米(都市印象)', 'province': '陕西省', 'city': '西安市', 'area': '雁塔区', 'street_id': '7de7b6f1675ad59d21026245', 'telephone': '(029)88869648', 'detail': 1, 'uid': '7de7b6f1675ad59d21026245', 'detail_info': {'tag': '丽人;美容', 'type': 'beauty', 'detail_url': 'http://api.map.baidu.com/place/detail?uid=7de7b6f1675ad59d21026245&output=html&source=placeapi_v2', 'price': '45.0', 'overall_rating': '4.8', 'comment_num': '5', 'children': []}}"
"{'name': '希美得美容专业机构', 'location': {'lat': 34.237977, 'lng': 108.887654}, 'address': '唐兴路与团结南路交叉口睿中心B座16层(高新医院)', 'province': '陕西省', 'city': '西安市', 'area': '雁塔区', 'detail': 1, 'uid': '9f9b4bd46bdc983d7169d3c1', 'detail_info': {'tag': '丽人;美容', 'type': 'beauty', 'detail_url': 'http://api.map.baidu.com/place/detail?uid=9f9b4bd46bdc983d7169d3c1&output=html&source=placeapi_v2', 'overall_rating': '4.6', 'comment_num': '5', 'children': []}}"
"{'name': '懿号理发馆', 'location': {'lat': 34.248434, 'lng': 108.882048}, 'address': '科技路299伟业公馆七号楼7-3-103', 'province': '陕西省', 'city': '西安市', 'area': '雁塔区', 'telephone': '18629311509', 'detail': 1, 'uid': '8e2ce47c7c88042a4354d7c7', 'detail_info': {'tag': '丽人;美发', 'type': 'beauty', 'detail_url': 'http://api.map.baidu.com/place/detail?uid=8e2ce47c7c88042a4354d7c7&output=html&source=placeapi_v2', 'price': '70.0', 'overall_rating': '4.4', 'comment_num': '16', 'children': []}}"
"{'name': '金锦实理容工作室(高新分店)', 'location': {'lat': 34.242652, 'lng': 108.89051}, 'address': '高新区科技路(杰座广场西侧)', 'province': '陕西省', 'city': '西安市', 'area': '雁塔区', 'street_id': 'a7c56ee09553f9b3a3acc46d', 'telephone': '(029)88193387', 'detail': 1, 'uid': 'a7c56ee09553f9b3a3acc46d', 'detail_info': {'tag': '丽人;美容', 'type': 'beauty', 'detail_url': 'http://api.map.baidu.com/place/detail?uid=a7c56ee09553f9b3a3acc46d&output=html&source=placeapi_v2', 'price': '88.0', 'overall_rating': '4.3', 'comment_num': '7', 'children': []}}"
"{'name': '梵丝阁形象沙龙', 'location': {'lat': 34.244017, 'lng': 108.883584}, 'address': '高新六路北口伟业公馆西门1幢楼一单元二层二楼206', 'province': '陕西省', 'city': '西安市', 'area': '雁塔区', 'telephone': '(029)84588712,13359389662', 'detail': 1, 'uid': '7545008fe1c7f00ea7c7566f', 'detail_info': {'tag': '丽人;美发', 'type': 'beauty', 'detail_url': 'http://api.map.baidu.com/place/detail?uid=7545008fe1c7f00ea7c7566f&output=html&source=placeapi_v2', 'price': '80.0', 'overall_rating': '4.8', 'comment_num': '19', 'children': []}}"
"{'name': '瑞杰斯护肤造型', 'location': {'lat': 34.244905, 'lng': 108.883377}, 'address': '陕西省西安市雁塔区高新六路', 'province': '陕西省', 'city': '西安市', 'area': '雁塔区', 'detail': 1, 'uid': 'b5a7729a23b83580882fb523', 'detail_info': {'tag': '丽人;美容', 'type': 'beauty', 'detail_url': 'http://api.map.baidu.com/place/detail?uid=b5a7729a23b83580882fb523&output=html&source=placeapi_v2', 'overall_rating': '4.1', 'comment_num': '16', 'children': []}}"
"{'name': '永琪美容美发(大寨路店)', 'location': {'lat': 34.250584, 'lng': 108.889088}, 'address': '大寨路3号10101室(团结路与大寨路十字)', 'province': '陕西省', 'city': '西安市', 'area': '雁塔区', 'street_id': '38e43579ecf7e58f9b68b4c8', 'telephone': '(029)84114621', 'detail': 1, 'uid': '38e43579ecf7e58f9b68b4c8', 'detail_info': {'tag': '丽人;美发', 'navi_location': {'lng': 108.88921562691, 'lat': 34.250798545215}, 'type': 'beauty', 'detail_url': 'http://api.map.baidu.com/place/detail?uid=38e43579ecf7e58f9b68b4c8&output=html&source=placeapi_v2', 'price': '64.0', 'overall_rating': '3.3', 'comment_num': '13', 'children': []}}"
"{'name': '黛姿悦美容美体中心(绿地缤纷荟店)', 'location': {'lat': 34.200296, 'lng': 108.887405}, 'address': '锦业路丈八二路十字路口绿地缤纷荟3F', 'province': '陕西省', 'city': '西安市', 'area': '雁塔区', 'telephone': '(029)81142757', 'detail': 1, 'uid': '7db9e6c0ed3cafd9a2d2307f', 'detail_info': {'tag': '丽人;美容', 'type': 'beauty', 'detail_url': 'http://api.map.baidu.com/place/detail?uid=7db9e6c0ed3cafd9a2d2307f&output=html&source=placeapi_v2', 'price': '71.0', 'overall_rating': '4.9', 'comment_num': '14', 'children': []}}"
"{'name': '花之吻美容会所(紫薇店)', 'location': {'lat': 34.245882, 'lng': 108.887795}, 'address': '西安市雁塔区文兴巷与团结南路交叉路口西南侧(紫薇臻品)', 'province': '陕西省', 'city': '西安市', 'area': '雁塔区', 'street_id': '497d7693165a70dccb213dba', 'telephone': '(029)89635608', 'detail': 1, 'uid': '497d7693165a70dccb213dba', 'detail_info': {'tag': '丽人;美容', 'type': 'beauty', 'detail_url': 'http://api.map.baidu.com/place/detail?uid=497d7693165a70dccb213dba&output=html&source=placeapi_v2', 'price': '61.0', 'overall_rating': '5.0', 'comment_num': '1', 'children': []}}"
"{'name': '东尚私人定制', 'location': {'lat': 34.245591, 'lng': 108.853527}, 'address': '丰盛路1号', 'province': '陕西省', 'city': '西安市', 'area': '雁塔区', 'detail': 1, 'uid': 'bc33873b52f9f52ae011033b', 'detail_info': {'tag': '丽人;美发', 'type': 'beauty', 'detail_url': 'http://api.map.baidu.com/place/detail?uid=bc33873b52f9f52ae011033b&output=html&source=placeapi_v2', 'overall_rating': '1.0', 'comment_num': '1', 'children': []}}"
"{'name': '摩登潮牌造型hairsalon(高新店)', 'location': {'lat': 34.200549, 'lng': 108.880646}, 'address': '丈八三路5号绿地世纪城仕嘉公寓A区44号', 'province': '陕西省', 'city': '西安市', 'area': '雁塔区', 'detail': 1, 'uid': '431516a4e2e05c5c21022077', 'detail_info': {'tag': '丽人;美发', 'type': 'beauty', 'detail_url': 'http://api.map.baidu.com/place/detail?uid=431516a4e2e05c5c21022077&output=html&source=placeapi_v2', 'price': '41.0', 'overall_rating': '4.9', 'comment_num': '17', 'children': []}}"
"{'name': '诚美美容养生馆(科技六路店)', 'location': {'lat': 34.217271, 'lng': 108.882488}, 'address': '科技六路西口枫林意树北门12栋2单元1层', 'province': '陕西省', 'city': '西安市', 'area': '雁塔区', 'street_id': '7cfcf7201766278f52e5c53f', 'telephone': '(029)88814503', 'detail': 1, 'uid': '7cfcf7201766278f52e5c53f', 'detail_info': {'tag': '丽人;美容', 'navi_location': {'lng': 108.8824733949, 'lat': 34.217531820424}, 'type': 'beauty', 'detail_url': 'http://api.map.baidu.com/place/detail?uid=7cfcf7201766278f52e5c53f&output=html&source=placeapi_v2', 'overall_rating': '5.0', 'comment_num': '1', 'children': []}}"
"{'name': '花之吻美容会所(玫格芙琳店)', 'location': {'lat': 34.25056, 'lng': 108.891606}, 'address': '丈八大寨路中华世纪城北门', 'province': '陕西省', 'city': '西安市', 'area': '雁塔区', 'telephone': '(029)88699789', 'detail': 1, 'uid': '12e0b7741f2a7297b917e76d', 'detail_info': {'tag': '丽人;美容', 'type': 'beauty', 'detail_url': 'http://api.map.baidu.com/place/detail?uid=12e0b7741f2a7297b917e76d&output=html&source=placeapi_v2', 'price': '61.0', 'overall_rating': '2.9', 'comment_num': '7', 'children': []}}"
"{'name': '克丽缇娜(枫林意树店)', 'location': {'lat': 34.217118, 'lng': 108.883252}, 'address': '西安市雁塔区科技六路与高新六路交叉路口西南侧(天地源·枫林意树)', 'province': '陕西省', 'city': '西安市', 'area': '雁塔区', 'telephone': '(029)84503525', 'detail': 1, 'uid': '6d83cbdd72d7f455354aaebc', 'detail_info': {'tag': '丽人;美容', 'type': 'beauty', 'detail_url': 'http://api.map.baidu.com/place/detail?uid=6d83cbdd72d7f455354aaebc&output=html&source=placeapi_v2', 'overall_rating': '5.0', 'comment_num': '42', 'children': []}}"
"{'name': '永琪美容美发(科技路店)', 'location': {'lat': 34.242596, 'lng': 108.890066}, 'address': '陕西省西安市雁塔区科技路西段256号', 'province': '陕西省', 'city': '西安市', 'area': '雁塔区', 'street_id': '64dac0276c43d77ce50738f4', 'telephone': '(029)88895436', 'detail': 1, 'uid': '64dac0276c43d77ce50738f4', 'detail_info': {'tag': '丽人;美发', 'type': 'beauty', 'detail_url': 'http://api.map.baidu.com/place/detail?uid=64dac0276c43d77ce50738f4&output=html&source=placeapi_v2', 'price': '854.0', 'overall_rating': '2.4', 'comment_num': '23', 'children': []}}"
"{'name': '秀域科技美容(科技六路店)', 'location': {'lat': 34.217185, 'lng': 108.885919}, 'address': '西安市雁塔区枫林意树北门', 'province': '陕西省', 'city': '西安市', 'area': '雁塔区', 'street_id': '764efb2ae2a648a03686f41b', 'telephone': '(029)89525286', 'detail': 1, 'uid': '764efb2ae2a648a03686f41b', 'detail_info': {'tag': '丽人;美容', 'type': 'beauty', 'detail_url': 'http://api.map.baidu.com/place/detail?uid=764efb2ae2a648a03686f41b&output=html&source=placeapi_v2', 'price': '1500.0', 'overall_rating': '4.2', 'comment_num': '5', 'children': []}}"
"{'name': '永琪美容美发(绿地世纪城店)', 'location': {'lat': 34.202858, 'lng': 108.88179}, 'address': '丈八三路绿地世纪城A区46号', 'province': '陕西省', 'city': '西安市', 'area': '雁塔区', 'street_id': '7634fe265ee63f89f822130d', 'telephone': '(029)68250561', 'detail': 1, 'uid': '7634fe265ee63f89f822130d', 'detail_info': {'tag': '丽人;美发', 'navi_location': {'lng': 108.88182967636, 'lat': 34.202779300379}, 'type': 'beauty', 'detail_url': 'http://api.map.baidu.com/place/detail?uid=7634fe265ee63f89f822130d&output=html&source=placeapi_v2', 'price': '473.0', 'overall_rating': '1.9', 'comment_num': '10', 'children': []}}"
"{'name': '贝迪斯美容美体', 'location': {'lat': 34.243928, 'lng': 108.879299}, 'address': '陕西省西安市雁塔区丈八北路466', 'province': '陕西省', 'city': '西安市', 'area': '雁塔区', 'street_id': '2ebf096d6bf68b0ae8e582a4', 'telephone': '18049284923', 'detail': 1, 'uid': '2ebf096d6bf68b0ae8e582a4', 'detail_info': {'tag': '丽人;美容', 'type': 'beauty', 'detail_url': 'http://api.map.baidu.com/place/detail?uid=2ebf096d6bf68b0ae8e582a4&output=html&source=placeapi_v2', 'overall_rating': '4.9', 'comment_num': '14', 'children': []}}"
"{'name': '北京丝诺美容美发(科技路店)', 'location': {'lat': 34.245866, 'lng': 108.87935}, 'address': '西安市雁塔区丈八北路与文兴巷交叉路口东南侧(枫韵蓝湾社区)', 'province': '陕西省', 'city': '西安市', 'area': '雁塔区', 'street_id': 'f60c689cfc8415fa0b69d9cc', 'detail': 1, 'uid': 'f60c689cfc8415fa0b69d9cc', 'detail_info': {'tag': '丽人;美容', 'type': 'beauty', 'detail_url': 'http://api.map.baidu.com/place/detail?uid=f60c689cfc8415fa0b69d9cc&output=html&source=placeapi_v2', 'price': '88.0', 'overall_rating': '4.4', 'comment_num': '16', 'children': []}}"
"{'name': '韩国志允美容美发', 'location': {'lat': 34.187791, 'lng': 108.886144}, 'address': '陕西省西安市雁塔区锦业二路12南90米', 'province': '陕西省', 'city': '西安市', 'area': '雁塔区', 'telephone': '(029)89284208,13312131577', 'detail': 1, 'uid': '4ec94f848d02666f40ab9a4d', 'detail_info': {'tag': '丽人;美容', 'type': 'beauty', 'detail_url': 'http://api.map.baidu.com/place/detail?uid=4ec94f848d02666f40ab9a4d&output=html&source=placeapi_v2', 'overall_rating': '3.5', 'children': []}}"
"{'name': '永琪美容美发(枫林意树店)', 'location': {'lat': 34.217163, 'lng': 108.885695}, 'address': '西安市雁塔区枫林意树北门200号', 'province': '陕西省', 'city': '西安市', 'area': '雁塔区', 'street_id': '870ac98392a47aa3abf72956', 'telephone': '(029)81778456', 'detail': 1, 'uid': '870ac98392a47aa3abf72956', 'detail_info': {'tag': '丽人;美发', 'type': 'beauty', 'detail_url': 'http://api.map.baidu.com/place/detail?uid=870ac98392a47aa3abf72956&output=html&source=placeapi_v2', 'price': '107.0', 'overall_rating': '1.2', 'comment_num': '6', 'children': []}}"
"{'name': '克丽缇娜(紫薇臻品店)', 'location': {'lat': 34.244472, 'lng': 108.887898}, 'address': '科技路紫薇臻品3栋1单元1层', 'province': '陕西省', 'city': '西安市', 'area': '雁塔区', 'street_id': '2b5cebbee1c1a162471a32df', 'telephone': '(029)89542897,18149099011', 'detail': 1, 'uid': '2b5cebbee1c1a162471a32df', 'detail_info': {'tag': '丽人;美容', 'type': 'beauty', 'detail_url': 'http://api.map.baidu.com/place/detail?uid=2b5cebbee1c1a162471a32df&output=html&source=placeapi_v2', 'price': '86.0', 'overall_rating': '4.9', 'comment_num': '17', 'children': []}}"
"{'name': '姬颜氏美丽汇(科技路西口铂悦店)', 'location': {'lat': 34.243101, 'lng': 108.880988}, 'address': '高新区科技路西口铂悦小区2号楼2单元2802', 'province': '陕西省', 'city': '西安市', 'area': '雁塔区', 'telephone': '(029)62767577', 'detail': 1, 'uid': 'ffa4ad255f9c282557bfff7b', 'detail_info': {'tag': '丽人;美容', 'type': 'beauty', 'detail_url': 'http://api.map.baidu.com/place/detail?uid=ffa4ad255f9c282557bfff7b&output=html&source=placeapi_v2', 'overall_rating': '4.6', 'comment_num': '15', 'children': []}}"
"{'name': '靓倩美容连锁养生会馆', 'location': {'lat': 34.209815, 'lng': 108.857782}, 'address': '科技八路美寓华庭7号楼3单元604室', 'province': '陕西省', 'city': '西安市', 'area': '雁塔区', 'telephone': '15029574400,(029)62710856', 'detail': 1, 'uid': '4381c13df072d1456cc02c3d', 'detail_info': {'tag': '丽人;美容', 'type': 'beauty', 'detail_url': 'http://api.map.baidu.com/place/detail?uid=4381c13df072d1456cc02c3d&output=html&source=placeapi_v2', 'price': '259.0', 'overall_rating': '5.0', 'comment_num': '9', 'children': []}}"
"{'name': '圣梦', 'location': {'lat': 34.250593, 'lng': 108.887302}, 'address': '陕西省西安市雁塔区大寨路2号', 'province': '陕西省', 'city': '西安市', 'area': '雁塔区', 'street_id': '8ecfeede08f6a66a5fbe864a', 'detail': 1, 'uid': '8ecfeede08f6a66a5fbe864a', 'detail_info': {'tag': '丽人;美容', 'navi_location': {'lng': 108.88716557875, 'lat': 34.250848952584}, 'type': 'beauty', 'detail_url': 'http://api.map.baidu.com/place/detail?uid=8ecfeede08f6a66a5fbe864a&output=html&source=placeapi_v2', 'price': '256.0', 'children': []}}"
"{'name': '希克造型', 'location': {'lat': 34.200487, 'lng': 108.887165}, 'address': '陕西省西安市雁塔区丈八沟街道绿地世纪城丈八三路与锦业路十字向向西两百米', 'province': '陕西省', 'city': '西安市', 'area': '雁塔区', 'detail': 1, 'uid': 'e90c967720034b7471210b43', 'detail_info': {'tag': '丽人;美发', 'type': 'beauty', 'detail_url': 'http://api.map.baidu.com/place/detail?uid=e90c967720034b7471210b43&output=html&source=placeapi_v2', 'children': []}}"
"{'name': 'XTH西太后輕奢美肌·抗衰', 'location': {'lat': 34.240608, 'lng': 108.88874}, 'address': '陕西省西安市雁塔区高新枫叶新都市嵘园D座1-102号', 'province': '陕西省', 'city': '西安市', 'area': '雁塔区', 'telephone': '(029)88445332', 'detail': 1, 'uid': '4171dd93236177cd3517dc87', 'detail_info': {'tag': '丽人;美容', 'type': 'beauty', 'detail_url': 'http://api.map.baidu.com/place/detail?uid=4171dd93236177cd3517dc87&output=html&source=placeapi_v2', 'overall_rating': '5.0', 'comment_num': '2', 'children': []}}"
"{'name': '雅兰婷国际美容美发连锁(高科新花园店)', 'location': {'lat': 34.24128, 'lng': 108.88811}, 'address': '陕西省西安市雁塔区高新区高科新花园6号10201室', 'province': '陕西省', 'city': '西安市', 'area': '雁塔区', 'street_id': 'b3460b3c02972f0088fc06ee', 'telephone': '(029)88231153,(029)89192605', 'detail': 1, 'uid': 'b3460b3c02972f0088fc06ee', 'detail_info': {'tag': '丽人;美容', 'type': 'beauty', 'detail_url': 'http://api.map.baidu.com/place/detail?uid=b3460b3c02972f0088fc06ee&output=html&source=placeapi_v2', 'price': '102.0', 'overall_rating': '4.0', 'comment_num': '5', 'children': []}}"
"{'name': '王氏果菜美容院(科技三路十六院店)', 'location': {'lat': 34.228364, 'lng': 108.881132}, 'address': '陕西省西安市雁塔区科技三路78号城市风景夏日景色8-1-10101室', 'province': '陕西省', 'city': '西安市', 'area': '雁塔区', 'telephone': '(029)81870499', 'detail': 1, 'uid': '79daa2a7758774ccb6f42f49', 'detail_info': {'tag': '丽人;美容', 'type': 'beauty', 'detail_url': 'http://api.map.baidu.com/place/detail?uid=79daa2a7758774ccb6f42f49&output=html&source=placeapi_v2', 'children': []}}"
"{'name': '卡尔发型设计沙龙', 'location': {'lat': 34.242447, 'lng': 108.87978}, 'address': '鱼化寨街道科技路西口82号', 'province': '陕西省', 'city': '西安市', 'area': '雁塔区', 'street_id': 'fd71b8c81cb9027aca1b954c', 'telephone': '(029)68558180', 'detail': 1, 'uid': 'fd71b8c81cb9027aca1b954c', 'detail_info': {'tag': '丽人;美发', 'navi_location': {'lng': 108.87974711942, 'lat': 34.242621998656}, 'type': 'beauty', 'detail_url': 'http://api.map.baidu.com/place/detail?uid=fd71b8c81cb9027aca1b954c&output=html&source=placeapi_v2', 'price': '347.0', 'overall_rating': '4.5', 'comment_num': '37', 'children': []}}"
"{'name': '希克造型(绿地世纪城店)', 'location': {'lat': 34.200506, 'lng': 108.879941}, 'address': '丈八三路绿地世纪城A区48-1-10218号(西安饭庄对面)', 'province': '陕西省', 'city': '西安市', 'area': '雁塔区', 'street_id': '0128fa82098f41127c29bd08', 'telephone': '(029)68250512', 'detail': 1, 'uid': '0128fa82098f41127c29bd08', 'detail_info': {'tag': '丽人;美发', 'type': 'beauty', 'detail_url': 'http://api.map.baidu.com/place/detail?uid=0128fa82098f41127c29bd08&output=html&source=placeapi_v2', 'price': '83.0', 'overall_rating': '4.3', 'comment_num': '135', 'children': []}}"
"{'name': '柏雅丝曼美容美体抗衰连锁(睿中心店)', 'location': {'lat': 34.237919, 'lng': 108.887425}, 'address': '丈八沟街道西安市雁塔区团结南路睿中心6楼606室柏雅丝曼美容美体抗衰连锁', 'province': '陕西省', 'city': '西安市', 'area': '雁塔区', 'telephone': '(029)89184811,19992855830', 'detail': 1, 'uid': 'ae4bd276cd6772cc83a00c6a', 'detail_info': {'tag': '丽人;美容', 'navi_location': {'lng': 108.88684352454, 'lat': 34.238347648545}, 'type': 'beauty', 'detail_url': 'http://api.map.baidu.com/place/detail?uid=ae4bd276cd6772cc83a00c6a&output=html&source=placeapi_v2', 'overall_rating': '5.0', 'comment_num': '1', 'children': []}}"
"{'name': '兰茜美甲(高新店)', 'location': {'lat': 34.24268, 'lng': 108.883237}, 'address': '高新六路北口米罗蓝山小区第一幢1单元1层10103号', 'province': '陕西省', 'city': '西安市', 'area': '雁塔区', 'street_id': '4a62e8a6e848f030901fc955', 'telephone': '13572049092', 'detail': 1, 'uid': '4a62e8a6e848f030901fc955', 'detail_info': {'tag': '丽人;美甲', 'navi_location': {'lng': 108.88376371554, 'lat': 34.242790517422}, 'type': 'beauty', 'detail_url': 'http://api.map.baidu.com/place/detail?uid=4a62e8a6e848f030901fc955&output=html&source=placeapi_v2', 'price': '159.0', 'overall_rating': '4.2', 'comment_num': '25', 'children': []}}"
"{'name': '瘦吧减肥专门店(枫韵蓝湾店)', 'location': {'lat': 34.245971, 'lng': 108.880154}, 'address': '西安市雁塔区文兴巷与丈八北路交叉路口往东南约50米(枫韵蓝湾社区)', 'province': '陕西省', 'city': '西安市', 'area': '雁塔区', 'street_id': '57ce12f40189232079b55c29', 'telephone': '13835929832', 'detail': 1, 'uid': '57ce12f40189232079b55c29', 'detail_info': {'tag': '丽人;美体', 'type': 'beauty', 'detail_url': 'http://api.map.baidu.com/place/detail?uid=57ce12f40189232079b55c29&output=html&source=placeapi_v2', 'price': '140.0', 'overall_rating': '3.3', 'comment_num': '4', 'children': []}}"
"{'name': 'MY BEAUTY NAIL美甲美睫(伟业店)', 'location': {'lat': 34.243502, 'lng': 108.885434}, 'address': '科技路伟业公馆南门104商铺(每一天便利店隔壁)', 'province': '陕西省', 'city': '西安市', 'area': '雁塔区', 'telephone': '18629609336,(029)88763477', 'detail': 1, 'uid': 'a3a6cfe13d03862a2ffaa7ad', 'detail_info': {'tag': '丽人;美甲', 'type': 'beauty', 'detail_url': 'http://api.map.baidu.com/place/detail?uid=a3a6cfe13d03862a2ffaa7ad&output=html&source=placeapi_v2', 'price': '290.0', 'overall_rating': '5.0', 'comment_num': '45', 'children': []}}"
"{'name': '丝谣SIYAO形象管理沙龙', 'location': {'lat': 34.230506, 'lng': 108.892749}, 'address': '陕西省西安市雁塔区科技二路与沣惠南路十字西南角泰华金贸国际7号楼105', 'province': '陕西省', 'city': '西安市', 'area': '雁塔区', 'telephone': '15249068259,(029)68985888', 'detail': 1, 'uid': '201ff6d2b28875931c3894f4', 'detail_info': {'tag': '丽人;美发', 'type': 'beauty', 'detail_url': 'http://api.map.baidu.com/place/detail?uid=201ff6d2b28875931c3894f4&output=html&source=placeapi_v2', 'price': '94.0', 'overall_rating': '4.9', 'comment_num': '28', 'children': []}}"
"{'name': '诗瑞儿品质养生专家', 'location': {'lat': 34.240852, 'lng': 108.888114}, 'address': '西安市雁塔区西门团结南路2号高科新花园东门', 'province': '陕西省', 'city': '西安市', 'area': '雁塔区', 'detail': 1, 'uid': '047f33566c2a6444f90cadbb', 'detail_info': {'tag': '丽人;美容', 'type': 'beauty', 'detail_url': 'http://api.map.baidu.com/place/detail?uid=047f33566c2a6444f90cadbb&output=html&source=placeapi_v2', 'overall_rating': '4.5', 'comment_num': '2', 'children': []}}"
"{'name': '秀域科技美容(碧泽园店)', 'location': {'lat': 34.251276, 'lng': 108.879619}, 'address': '西安市雁塔区丈八北路575号旭景碧泽园1号楼5号房东1间', 'province': '陕西省', 'city': '西安市', 'area': '雁塔区', 'street_id': 'd219bb1ddfe3ca92f40e77f0', 'detail': 1, 'uid': 'd219bb1ddfe3ca92f40e77f0', 'detail_info': {'tag': '丽人;美容', 'type': 'beauty', 'detail_url': 'http://api.map.baidu.com/place/detail?uid=d219bb1ddfe3ca92f40e77f0&output=html&source=placeapi_v2', 'price': '500.0', 'overall_rating': '2.0', 'comment_num': '3', 'children': []}}"
"{'name': '香薇妮丝女子减肥院(科技四路店)', 'location': {'lat': 34.226185, 'lng': 108.880557}, 'address': '西高新丈八北路与科技四路西口东北角夏日景色1层', 'province': '陕西省', 'city': '西安市', 'area': '雁塔区', 'street_id': 'da60ac7deed7828bf4eafcfa', 'telephone': '(029)88824666', 'detail': 1, 'uid': 'da60ac7deed7828bf4eafcfa', 'detail_info': {'tag': '丽人;美体', 'type': 'beauty', 'detail_url': 'http://api.map.baidu.com/place/detail?uid=da60ac7deed7828bf4eafcfa&output=html&source=placeapi_v2', 'price': '38.0', 'overall_rating': '5.0', 'comment_num': '11', 'children': []}}"
"{'name': '嘉佰俪瘦身(丁家桥店)', 'location': {'lat': 34.230315, 'lng': 108.881582}, 'address': '高新区科技二路丁家桥龙记观澜山二号楼二单元803', 'province': '陕西省', 'city': '西安市', 'area': '雁塔区', 'telephone': '15529446158', 'detail': 1, 'uid': '6164e597e2b3c5af40afe62b', 'detail_info': {'tag': '丽人;美体', 'type': 'beauty', 'detail_url': 'http://api.map.baidu.com/place/detail?uid=6164e597e2b3c5af40afe62b&output=html&source=placeapi_v2', 'price': '303.0', 'overall_rating': '5.0', 'comment_num': '6', 'children': []}}"
"{'name': '华美科妍专祛痘斑敏', 'location': {'lat': 34.242798, 'lng': 108.880007}, 'address': '陕西省西安市雁塔区科技路82号东南50米', 'province': '陕西省', 'city': '西安市', 'area': '雁塔区', 'telephone': '(029)68558469', 'detail': 1, 'uid': '88d4104ad7348a65d4851f33', 'detail_info': {'tag': '丽人;美容', 'type': 'beauty', 'detail_url': 'http://api.map.baidu.com/place/detail?uid=88d4104ad7348a65d4851f33&output=html&source=placeapi_v2', 'price': '51.0', 'overall_rating': '4.5', 'comment_num': '2', 'children': []}}"
"{'name': '七七日系美甲工作室', 'location': {'lat': 34.242926, 'lng': 108.879977}, 'address': '科技路西口都市印象SOLO街区18栋24楼', 'province': '陕西省', 'city': '西安市', 'area': '雁塔区', 'telephone': '18292495335', 'detail': 1, 'uid': '1969e27fadc937fcebe582c6', 'detail_info': {'tag': '丽人;美甲', 'type': 'beauty', 'detail_url': 'http://api.map.baidu.com/place/detail?uid=1969e27fadc937fcebe582c6&output=html&source=placeapi_v2', 'overall_rating': '4.6', 'comment_num': '14', 'children': []}}"
"{'name': '紫焱体雕(高一店)', 'location': {'lat': 34.238806, 'lng': 108.890534}, 'address': '沣惠南路中华世纪城南门里100米', 'province': '陕西省', 'city': '西安市', 'area': '雁塔区', 'detail': 1, 'uid': '19c819a9c9554098276e985c', 'detail_info': {'tag': '丽人;美容', 'type': 'beauty', 'detail_url': 'http://api.map.baidu.com/place/detail?uid=19c819a9c9554098276e985c&output=html&source=placeapi_v2', 'overall_rating': '5.0', 'comment_num': '1', 'children': []}}"
"{'name': '瑞杰斯护肤造型养生', 'location': {'lat': 34.250798, 'lng': 108.885551}, 'address': '大寨路东方米兰8号楼', 'province': '陕西省', 'city': '西安市', 'area': '雁塔区', 'street_id': 'ab8052dd3b181cadbadf8f7e', 'detail': 1, 'uid': 'ab8052dd3b181cadbadf8f7e', 'detail_info': {'tag': '丽人;美容', 'type': 'beauty', 'detail_url': 'http://api.map.baidu.com/place/detail?uid=ab8052dd3b181cadbadf8f7e&output=html&source=placeapi_v2', 'price': '154.0', 'overall_rating': '4.0', 'comment_num': '40', 'children': []}}"
"{'name': '永琪美容美发(民洁路店)', 'location': {'lat': 34.250679, 'lng': 108.883171}, 'address': '雁塔区莱安逸珲', 'province': '陕西省', 'city': '西安市', 'area': '雁塔区', 'detail': 1, 'uid': '9029d928b437eaa04e2fdf24', 'detail_info': {'tag': '丽人;美发', 'navi_location': {'lng': 108.88324489291, 'lat': 34.250725627246}, 'type': 'beauty', 'detail_url': 'http://api.map.baidu.com/place/detail?uid=9029d928b437eaa04e2fdf24&output=html&source=placeapi_v2', 'price': '108.0', 'overall_rating': '5.0', 'comment_num': '1', 'children': []}}"
"{'name': '丝域养发馆(臻品店)', 'location': {'lat': 34.243542, 'lng': 108.886206}, 'address': '陕西西安市科技路紫薇臻品17-2-102号', 'province': '陕西省', 'city': '西安市', 'area': '雁塔区', 'street_id': 'ef57d00aa556f85fcae33c93', 'telephone': '(029)81331120,(029)88770232,15991458737', 'detail': 1, 'uid': 'ef57d00aa556f85fcae33c93', 'detail_info': {'tag': '丽人;美发', 'navi_location': {'lng': 108.88619586783, 'lat': 34.24328289603}, 'type': 'beauty', 'detail_url': 'http://api.map.baidu.com/place/detail?uid=ef57d00aa556f85fcae33c93&output=html&source=placeapi_v2', 'price': '136.0', 'overall_rating': '4.9', 'comment_num': '15', 'children': []}}"
"{'name': '人人美(团结南路)', 'location': {'lat': 34.224316, 'lng': 108.887197}, 'address': '西安市雁塔区南窑头社区西区80排2号', 'province': '陕西省', 'city': '西安市', 'area': '雁塔区', 'street_id': '617f0c36ce2aca9a430245db', 'telephone': '18292571513', 'detail': 1, 'uid': '617f0c36ce2aca9a430245db', 'detail_info': {'tag': '丽人;美容', 'type': 'beauty', 'detail_url': 'http://api.map.baidu.com/place/detail?uid=617f0c36ce2aca9a430245db&output=html&source=placeapi_v2', 'price': '46.0', 'overall_rating': '4.5', 'comment_num': '15', 'children': []}}"
"{'name': '煌媛造型', 'location': {'lat': 34.199487, 'lng': 108.848284}, 'address': '丈八七路锦业公寓1号楼105底商', 'province': '陕西省', 'city': '西安市', 'area': '雁塔区', 'street_id': 'a752e05f5c981d5294ec843c', 'telephone': '13630284200', 'detail': 1, 'uid': 'a752e05f5c981d5294ec843c', 'detail_info': {'tag': '丽人;美发', 'type': 'beauty', 'detail_url': 'http://api.map.baidu.com/place/detail?uid=a752e05f5c981d5294ec843c&output=html&source=placeapi_v2', 'price': '30.0', 'overall_rating': '3.5', 'comment_num': '8', 'children': []}}"
"{'name': '香延形象设计中心', 'location': {'lat': 34.188792, 'lng': 108.888866}, 'address': '陕西省西安市雁塔区逸翠·尚府北区8栋楼', 'province': '陕西省', 'city': '西安市', 'area': '雁塔区', 'street_id': 'b942777580288c488e772701', 'telephone': '18629426131', 'detail': 1, 'uid': 'b942777580288c488e772701', 'detail_info': {'tag': '丽人;美发', 'navi_location': {'lng': 108.88829101631, 'lat': 34.18832150729}, 'type': 'beauty', 'detail_url': 'http://api.map.baidu.com/place/detail?uid=b942777580288c488e772701&output=html&source=placeapi_v2', 'overall_rating': '3.5', 'comment_num': '5', 'children': []}}"
"{'name': '甲之兰美甲(高新店)', 'location': {'lat': 34.200823, 'lng': 108.87989}, 'address': '高新区锦业路绿地世纪城艺饕街A区', 'province': '陕西省', 'city': '西安市', 'area': '雁塔区', 'street_id': '5a54f1eda3629d65e6073873', 'telephone': '(029)65652799,(029)65690107', 'detail': 1, 'uid': '5a54f1eda3629d65e6073873', 'detail_info': {'tag': '丽人;美甲', 'navi_location': {'lng': 108.88130027079, 'lat': 34.200711528465}, 'type': 'beauty', 'detail_url': 'http://api.map.baidu.com/place/detail?uid=5a54f1eda3629d65e6073873&output=html&source=placeapi_v2', 'price': '142.0', 'overall_rating': '4.4', 'comment_num': '9', 'children': []}}"
"{'name': '玛莎造型(丈八四路八分店)', 'location': {'lat': 34.209498, 'lng': 108.875086}, 'address': '丈八四路缤纷南郡东门商铺', 'province': '陕西省', 'city': '西安市', 'area': '雁塔区', 'street_id': 'c34f5b05344d19dbc51b752a', 'telephone': '15173068170,15009265883', 'detail': 1, 'uid': 'c34f5b05344d19dbc51b752a', 'detail_info': {'tag': '丽人;美发', 'type': 'beauty', 'detail_url': 'http://api.map.baidu.com/place/detail?uid=c34f5b05344d19dbc51b752a&output=html&source=placeapi_v2', 'price': '67.0', 'overall_rating': '2.8', 'comment_num': '5', 'children': []}}"
"{'name': '优瘦身国际减肥连锁(枫韵蓝湾店)', 'location': {'lat': 34.245163, 'lng': 108.88321}, 'address': '丈八北路东侧枫韵蓝湾1期29-1-104', 'province': '陕西省', 'city': '西安市', 'area': '雁塔区', 'telephone': '18066610927', 'detail': 1, 'uid': 'd67eb705f15b8fe63310afd8', 'detail_info': {'tag': '丽人;美体', 'type': 'beauty', 'detail_url': 'http://api.map.baidu.com/place/detail?uid=d67eb705f15b8fe63310afd8&output=html&source=placeapi_v2', 'price': '79.0', 'overall_rating': '4.0', 'comment_num': '1', 'children': []}}"
"{'name': '格林造型(旗舰店)', 'location': {'lat': 34.228379, 'lng': 108.880628}, 'address': '西安市雁塔区夏日景色8号楼', 'province': '陕西省', 'city': '西安市', 'area': '雁塔区', 'street_id': '9b7ff9a336ec190aa4da3951', 'telephone': '18066831252', 'detail': 1, 'uid': '9b7ff9a336ec190aa4da3951', 'detail_info': {'tag': '丽人;美发', 'navi_location': {'lng': 108.88038685578, 'lat': 34.228682243719}, 'type': 'beauty', 'detail_url': 'http://api.map.baidu.com/place/detail?uid=9b7ff9a336ec190aa4da3951&output=html&source=placeapi_v2', 'overall_rating': '3.6', 'comment_num': '8', 'children': []}}"
"{'name': '奕美造型(丈八路店)', 'location': {'lat': 34.245494, 'lng': 108.879631}, 'address': '西安市雁塔区丈八北路与文兴巷交叉路口往东南约50米(枫韵蓝湾社区)', 'province': '陕西省', 'city': '西安市', 'area': '雁塔区', 'street_id': '550fd5f9073aeb60921fc984', 'telephone': '18710707728', 'detail': 1, 'uid': '550fd5f9073aeb60921fc984', 'detail_info': {'tag': '丽人;美发', 'type': 'beauty', 'detail_url': 'http://api.map.baidu.com/place/detail?uid=550fd5f9073aeb60921fc984&output=html&source=placeapi_v2', 'price': '85.0', 'overall_rating': '4.0', 'comment_num': '5', 'children': []}}"
"{'name': '爱立丝美发工作室', 'location': {'lat': 34.246087, 'lng': 108.879882}, 'address': '西安市雁塔区文兴巷与丈八北路交叉路口往东南约50米(枫韵蓝湾社区)', 'province': '陕西省', 'city': '西安市', 'area': '雁塔区', 'street_id': 'e889a7443ab49bac8605bf5a', 'telephone': '(029)84672830', 'detail': 1, 'uid': 'e889a7443ab49bac8605bf5a', 'detail_info': {'tag': '丽人;美发', 'type': 'beauty', 'detail_url': 'http://api.map.baidu.com/place/detail?uid=e889a7443ab49bac8605bf5a&output=html&source=placeapi_v2', 'price': '96.0', 'overall_rating': '5.0', 'comment_num': '7', 'children': []}}"
"{'name': 'Charming Nail茶奈美甲美睫工作室', 'location': {'lat': 34.2428, 'lng': 108.880993}, 'address': '科技路西口铂悦小区1号楼1单元2018室(地铁三号线D出口)', 'province': '陕西省', 'city': '西安市', 'area': '雁塔区', 'detail': 1, 'uid': '9ee60228f6fe2e1deaf8534c', 'detail_info': {'tag': '丽人;美甲', 'type': 'beauty', 'detail_url': 'http://api.map.baidu.com/place/detail?uid=9ee60228f6fe2e1deaf8534c&output=html&source=placeapi_v2', 'price': '127.0', 'overall_rating': '5.0', 'comment_num': '1', 'children': []}}"
"{'name': '爱+手脚美甲美睫', 'location': {'lat': 34.200869, 'lng': 108.881431}, 'address': '丈八三路绿地世纪城A区艺饕街A10239', 'province': '陕西省', 'city': '西安市', 'area': '雁塔区', 'telephone': '(029)65652827', 'detail': 1, 'uid': '456a3c6efde61afe5abbbcd9', 'detail_info': {'tag': '丽人;美甲', 'type': 'beauty', 'detail_url': 'http://api.map.baidu.com/place/detail?uid=456a3c6efde61afe5abbbcd9&output=html&source=placeapi_v2', 'price': '358.0', 'overall_rating': '4.8', 'comment_num': '40', 'children': []}}"
"{'name': '永琪美容美发', 'location': {'lat': 34.227826, 'lng': 108.880027}, 'address': '科技二路78号城市风景夏日景色2期9号楼二单元40111商铺', 'province': '陕西省', 'city': '西安市', 'area': '雁塔区', 'street_id': 'dc8dafe55486ec9ae856fa94', 'detail': 1, 'uid': 'dc8dafe55486ec9ae856fa94', 'detail_info': {'tag': '丽人;美发', 'type': 'beauty', 'detail_url': 'http://api.map.baidu.com/place/detail?uid=dc8dafe55486ec9ae856fa94&output=html&source=placeapi_v2', 'price': '35.0', 'overall_rating': '4.0', 'comment_num': '1', 'children': []}}"
"{'name': '盖氏丹辰良咔瘦身(西安总代理)', 'location': {'lat': 34.243913, 'lng': 108.883593}, 'address': '高新区高新六路与科技路交叉口伟业公馆西门(农夫鲜果园南隔壁)', 'province': '陕西省', 'city': '西安市', 'area': '雁塔区', 'telephone': '13298171798,13022808128', 'detail': 1, 'uid': 'c3b88a86ead7fd1fee74f82e', 'detail_info': {'tag': '丽人;美体', 'type': 'beauty', 'detail_url': 'http://api.map.baidu.com/place/detail?uid=c3b88a86ead7fd1fee74f82e&output=html&source=placeapi_v2', 'overall_rating': '5.0', 'comment_num': '5', 'children': []}}"
"{'name': '一田STUDIO造型工作室', 'location': {'lat': 34.24598, 'lng': 108.887132}, 'address': '团结南路紫薇臻品北一门商铺', 'province': '陕西省', 'city': '西安市', 'area': '雁塔区', 'telephone': '15991657483,(029)88698562', 'detail': 1, 'uid': 'e2db5ce50c912ac5eddfcada', 'detail_info': {'tag': '丽人;美发', 'type': 'beauty', 'detail_url': 'http://api.map.baidu.com/place/detail?uid=e2db5ce50c912ac5eddfcada&output=html&source=placeapi_v2', 'overall_rating': '4.0', 'comment_num': '4', 'children': []}}"
"{'name': '尚丽美发室', 'location': {'lat': 34.224462, 'lng': 108.845299}, 'address': '西安市雁塔区漳浒寨雷家寨安置小区8号楼', 'province': '陕西省', 'city': '西安市', 'area': '雁塔区', 'telephone': '13669263700', 'detail': 1, 'uid': 'f1301dcdc02c560e63180992', 'detail_info': {'tag': '丽人;美发', 'type': 'beauty', 'detail_url': 'http://api.map.baidu.com/place/detail?uid=f1301dcdc02c560e63180992&output=html&source=placeapi_v2', 'overall_rating': '5.0', 'comment_num': '1', 'children': []}}"
"{'name': '诗觅美甲化妆造型纹绣', 'location': {'lat': 34.242856, 'lng': 108.88065}, 'address': '科技路76号铂悦公寓1601', 'province': '陕西省', 'city': '西安市', 'area': '雁塔区', 'telephone': '15829395113', 'detail': 1, 'uid': '68108d8fe670c1a48433041c', 'detail_info': {'tag': '丽人;美甲', 'type': 'beauty', 'detail_url': 'http://api.map.baidu.com/place/detail?uid=68108d8fe670c1a48433041c&output=html&source=placeapi_v2', 'children': []}}"
"{'name': '铭卓时尚精剪沙龙', 'location': {'lat': 34.248228, 'lng': 108.886465}, 'address': '陕西省西安市雁塔区团结南路中建国熙台北门11号楼商铺二楼', 'province': '陕西省', 'city': '西安市', 'area': '雁塔区', 'telephone': '13772154255', 'detail': 1, 'uid': '7ebd3b9b9034ea7cc42ba1e6', 'detail_info': {'tag': '丽人;美发', 'type': 'beauty', 'detail_url': 'http://api.map.baidu.com/place/detail?uid=7ebd3b9b9034ea7cc42ba1e6&output=html&source=placeapi_v2', 'price': '79.0', 'overall_rating': '4.4', 'comment_num': '12', 'children': []}}"
"{'name': '幕颜(富裕路店)', 'location': {'lat': 34.233938, 'lng': 108.854164}, 'address': '陕西省西安市雁塔区彩虹路', 'province': '陕西省', 'city': '西安市', 'area': '雁塔区', 'detail': 1, 'uid': 'dba075b14c765950a8175aac', 'detail_info': {'tag': '丽人;美容', 'type': 'beauty', 'detail_url': 'http://api.map.baidu.com/place/detail?uid=dba075b14c765950a8175aac&output=html&source=placeapi_v2', 'children': []}}"
"{'name': 'ameli+skin皮肤管理中心', 'location': {'lat': 34.242799, 'lng': 108.881038}, 'address': '科技路西口铂悦小区2号楼2单元1402', 'province': '陕西省', 'city': '西安市', 'area': '雁塔区', 'detail': 1, 'uid': '11921a453533a1f87dc87676', 'detail_info': {'tag': '丽人;美容', 'type': 'beauty', 'detail_url': 'http://api.map.baidu.com/place/detail?uid=11921a453533a1f87dc87676&output=html&source=placeapi_v2', 'children': []}}"
"{'name': 'REJES护肤造型养生', 'location': {'lat': 34.250678, 'lng': 108.885595}, 'address': '响塘村路与大寨路交叉口东南100米', 'province': '陕西省', 'city': '西安市', 'area': '雁塔区', 'detail': 1, 'uid': '776d7f96ea295b5bfe0eb072', 'detail_info': {'tag': '丽人;美容', 'type': 'beauty', 'detail_url': 'http://api.map.baidu.com/place/detail?uid=776d7f96ea295b5bfe0eb072&output=html&source=placeapi_v2', 'children': []}}"
"{'name': '暮色造型(西安店)', 'location': {'lat': 34.243976, 'lng': 108.879309}, 'address': '陕西省西安市雁塔区科技路西口华润万家7楼709室(移动营业厅北侧电梯)', 'province': '陕西省', 'city': '西安市', 'area': '雁塔区', 'street_id': '5ebb0c888101447ec9fa5fba', 'telephone': '18691837579', 'detail': 1, 'uid': '5ebb0c888101447ec9fa5fba', 'detail_info': {'tag': '丽人;美发', 'type': 'beauty', 'detail_url': 'http://api.map.baidu.com/place/detail?uid=5ebb0c888101447ec9fa5fba&output=html&source=placeapi_v2', 'price': '84.0', 'overall_rating': '4.6', 'comment_num': '22', 'children': []}}"
"{'name': '拾光发型BARBERSHOP', 'location': {'lat': 34.245059, 'lng': 108.883212}, 'address': '伟业公馆西门商铺境商地产隔壁电梯上二楼', 'province': '陕西省', 'city': '西安市', 'area': '雁塔区', 'detail': 1, 'uid': '435abf889ea9a094b45f1efb', 'detail_info': {'tag': '丽人;美发', 'type': 'beauty', 'detail_url': 'http://api.map.baidu.com/place/detail?uid=435abf889ea9a094b45f1efb&output=html&source=placeapi_v2', 'price': '112.0', 'overall_rating': '4.8', 'comment_num': '18', 'children': []}}"
"{'name': '珍铭园美容会所', 'location': {'lat': 34.242813, 'lng': 108.880589}, 'address': '科技路西口铂悦小区2号楼2单元405', 'province': '陕西省', 'city': '西安市', 'area': '雁塔区', 'detail': 1, 'uid': '966edd15b7b69423373a7196', 'detail_info': {'tag': '丽人;美容', 'type': 'life', 'detail_url': 'http://api.map.baidu.com/place/detail?uid=966edd15b7b69423373a7196&output=html&source=placeapi_v2', 'image_num': '1', 'children': []}}"
"{'name': 'QIHUI肌肤管理(高新都市印象店)', 'location': {'lat': 34.24308, 'lng': 108.880126}, 'address': '高新区科技路西口都市印象SOLO街区18号楼2008室', 'province': '陕西省', 'city': '西安市', 'area': '雁塔区', 'telephone': '15909297742', 'detail': 1, 'uid': '693dea1e42306e4e29fc48a7', 'detail_info': {'tag': '丽人;美容', 'type': 'beauty', 'detail_url': 'http://api.map.baidu.com/place/detail?uid=693dea1e42306e4e29fc48a7&output=html&source=placeapi_v2', 'children': []}}"
"{'name': '戴蒙儿童造型(莱安逸珲店)', 'location': {'lat': 34.248486, 'lng': 108.881958}, 'address': '大寨路6号莱安逸珲3号门大桥下', 'province': '陕西省', 'city': '西安市', 'area': '雁塔区', 'detail': 1, 'uid': '6d09bc85ab381f3981288a3e', 'detail_info': {'tag': '丽人;美发', 'type': 'beauty', 'detail_url': 'http://api.map.baidu.com/place/detail?uid=6d09bc85ab381f3981288a3e&output=html&source=placeapi_v2', 'children': []}}"
"{'name': '潮都造型', 'location': {'lat': 34.189036, 'lng': 108.89169}, 'address': '西安市雁塔区唐延南路i都会4号楼1单元10112', 'province': '陕西省', 'city': '西安市', 'area': '雁塔区', 'telephone': '(029)81138576', 'detail': 1, 'uid': 'ea1c4f98423e11a09cec2bde', 'detail_info': {'tag': '丽人;美发', 'type': 'beauty', 'detail_url': 'http://api.map.baidu.com/place/detail?uid=ea1c4f98423e11a09cec2bde&output=html&source=placeapi_v2', 'children': []}}"
"{'name': 'A8造型(鱼斗路店)', 'location': {'lat': 34.233803, 'lng': 108.859006}, 'address': '陕西省西安市雁塔区鱼斗路158号', 'province': '陕西省', 'city': '西安市', 'area': '雁塔区', 'street_id': 'a9fd33ad0108824f6f3e1b10', 'detail': 1, 'uid': '4d6bcd46a2aa5d50a1d23092', 'detail_info': {'tag': '丽人;美发', 'type': 'beauty', 'detail_url': 'http://api.map.baidu.com/place/detail?uid=4d6bcd46a2aa5d50a1d23092&output=html&source=placeapi_v2', 'overall_rating': '0.0', 'comment_num': '1', 'children': []}}"
"{'name': '悦颜时尚殿堂', 'location': {'lat': 34.245949, 'lng': 108.879694}, 'address': '陕西省西安市雁塔区丈八北路10号南80米', 'province': '陕西省', 'city': '西安市', 'area': '雁塔区', 'detail': 1, 'uid': 'a2fad99961ea4e8e75e5b695', 'detail_info': {'tag': '丽人;美容', 'type': 'beauty', 'detail_url': 'http://api.map.baidu.com/place/detail?uid=a2fad99961ea4e8e75e5b695&output=html&source=placeapi_v2', 'children': []}}"
"{'name': '徐东美发', 'location': {'lat': 34.214006, 'lng': 108.877502}, 'address': '西安市雁塔区科技七路与鱼化一路交叉路口往东约100米(国宾中央区)', 'province': '陕西省', 'city': '西安市', 'area': '雁塔区', 'detail': 1, 'uid': 'e407841a8560f8298bfc0652', 'detail_info': {'tag': '丽人;美发', 'type': 'beauty', 'detail_url': 'http://api.map.baidu.com/place/detail?uid=e407841a8560f8298bfc0652&output=html&source=placeapi_v2', 'children': []}}"
"{'name': '芃儿坦美容养生SPA', 'location': {'lat': 34.242823, 'lng': 108.883067}, 'address': '陕西省西安市雁塔区高新区高新六路北口与科技路十字米罗蓝山A座101号商铺', 'province': '陕西省', 'city': '西安市', 'area': '雁塔区', 'street_id': '5608fc60f1ef1c7d5b10930e', 'telephone': '(029)88335959', 'detail': 1, 'uid': '5608fc60f1ef1c7d5b10930e', 'detail_info': {'tag': '丽人;美容', 'type': 'beauty', 'detail_url': 'http://api.map.baidu.com/place/detail?uid=5608fc60f1ef1c7d5b10930e&output=html&source=placeapi_v2', 'overall_rating': '0.0', 'comment_num': '1', 'children': []}}"
"{'name': '匠心专业美发连锁', 'location': {'lat': 34.20056, 'lng': 108.85492}, 'address': '西安市雁塔区锦业路与西三环交叉路口往东约100米(尚品美地城-西区)', 'province': '陕西省', 'city': '西安市', 'area': '雁塔区', 'detail': 1, 'uid': '429fdf9fe26ba833c51e5116', 'detail_info': {'tag': '丽人;美发', 'type': 'beauty', 'detail_url': 'http://api.map.baidu.com/place/detail?uid=429fdf9fe26ba833c51e5116&output=html&source=placeapi_v2', 'children': []}}"
"{'name': '奢丽尔皮肤护理中心', 'location': {'lat': 34.248467, 'lng': 108.8866}, 'address': '陕西省西安市雁塔区德兴巷', 'province': '陕西省', 'city': '西安市', 'area': '雁塔区', 'detail': 1, 'uid': 'a9df9315250fe32b4154d75c', 'detail_info': {'tag': '丽人;美容', 'type': 'beauty', 'detail_url': 'http://api.map.baidu.com/place/detail?uid=a9df9315250fe32b4154d75c&output=html&source=placeapi_v2', 'children': []}}"
"{'name': '惟颐', 'location': {'lat': 34.241361, 'lng': 108.879355}, 'address': '陕西省西安市雁塔区鱼斗路49号东80米', 'province': '陕西省', 'city': '西安市', 'area': '雁塔区', 'detail': 1, 'uid': '87bcf1123e7233f872455b5a', 'detail_info': {'tag': '丽人;美发', 'type': 'beauty', 'detail_url': 'http://api.map.baidu.com/place/detail?uid=87bcf1123e7233f872455b5a&output=html&source=placeapi_v2', 'children': []}}"
"{'name': 'KT造型修护中心(科技路西口店)', 'location': {'lat': 34.242798, 'lng': 108.880007}, 'address': '科技路西口都市印象SOLO街区二楼(肯德基东侧)', 'province': '陕西省', 'city': '西安市', 'area': '雁塔区', 'street_id': '20a617113d470806240bd069', 'telephone': '(029)87546949,18629250685', 'detail': 1, 'uid': '20a617113d470806240bd069', 'detail_info': {'tag': '丽人;美发', 'type': 'beauty', 'detail_url': 'http://api.map.baidu.com/place/detail?uid=20a617113d470806240bd069&output=html&source=placeapi_v2', 'price': '180.0', 'overall_rating': '5.0', 'comment_num': '3', 'children': []}}"
"{'name': '品味潮牌沙龙', 'location': {'lat': 34.247879, 'lng': 108.884466}, 'address': '雁塔区高新六路北段2号', 'province': '陕西省', 'city': '西安市', 'area': '雁塔区', 'street_id': '9b573fc5a32528a0902ca31d', 'telephone': '15991684463', 'detail': 1, 'uid': '9b573fc5a32528a0902ca31d', 'detail_info': {'tag': '丽人;美发', 'type': 'beauty', 'detail_url': 'http://api.map.baidu.com/place/detail?uid=9b573fc5a32528a0902ca31d&output=html&source=placeapi_v2', 'overall_rating': '4.5', 'comment_num': '6', 'children': []}}"
"{'name': '丝润形象沙龙', 'location': {'lat': 34.248366, 'lng': 108.886045}, 'address': '西安市雁塔区德兴巷与高新六路交叉路口往东约100米(中建国熙台)', 'province': '陕西省', 'city': '西安市', 'area': '雁塔区', 'detail': 1, 'uid': '874849fed5dfe9a50aa8d487', 'detail_info': {'tag': '丽人;美发', 'type': 'beauty', 'detail_url': 'http://api.map.baidu.com/place/detail?uid=874849fed5dfe9a50aa8d487&output=html&source=placeapi_v2', 'children': []}}"
"{'name': '嘉诺沙龙形象设计', 'location': {'lat': 34.248389, 'lng': 108.887797}, 'address': '团结南路113号附近', 'province': '陕西省', 'city': '西安市', 'area': '雁塔区', 'detail': 1, 'uid': '4826c1d0c6685a528c55ec9c', 'detail_info': {'tag': '丽人;美发', 'type': 'beauty', 'detail_url': 'http://api.map.baidu.com/place/detail?uid=4826c1d0c6685a528c55ec9c&output=html&source=placeapi_v2', 'overall_rating': '0.0', 'comment_num': '1', 'children': []}}"
"{'name': '纪美时装美甲', 'location': {'lat': 34.243696, 'lng': 108.882245}, 'address': '西安市雁塔区科技路与高新六路交叉路口往西北约50米(枫韵蓝湾社区)', 'province': '陕西省', 'city': '西安市', 'area': '雁塔区', 'telephone': '15389450569', 'detail': 1, 'uid': 'fa4bab42bd1996aa8adb7376', 'detail_info': {'tag': '丽人;美容', 'type': 'beauty', 'detail_url': 'http://api.map.baidu.com/place/detail?uid=fa4bab42bd1996aa8adb7376&output=html&source=placeapi_v2', 'children': []}}"
"{'name': '美宝莲美发直营连锁(华润万家店)', 'location': {'lat': 34.243812, 'lng': 108.87938}, 'address': '科技路西口华润万家15楼1508室', 'province': '陕西省', 'city': '西安市', 'area': '雁塔区', 'telephone': '13891445955,13669283017', 'detail': 1, 'uid': 'da753d08b5690b019703197b', 'detail_info': {'tag': '丽人;美发', 'type': 'beauty', 'detail_url': 'http://api.map.baidu.com/place/detail?uid=da753d08b5690b019703197b&output=html&source=placeapi_v2', 'price': '227.0', 'overall_rating': '4.2', 'comment_num': '8', 'children': []}}"
"{'name': '遇见美甲美睫', 'location': {'lat': 34.243825, 'lng': 108.882555}, 'address': '科技路枫韵蓝湾小区3号楼一单元商铺', 'province': '陕西省', 'city': '西安市', 'area': '雁塔区', 'telephone': '18821677230', 'detail': 1, 'uid': '3da1bbdc9e43d96ed92f28a3', 'detail_info': {'tag': '丽人;美甲', 'type': 'beauty', 'detail_url': 'http://api.map.baidu.com/place/detail?uid=3da1bbdc9e43d96ed92f28a3&output=html&source=placeapi_v2', 'children': []}}"
"{'name': '十指好色铺(大寨路店)', 'location': {'lat': 34.251224, 'lng': 108.883639}, 'address': '大寨路晶鑫商业广场A座一楼(进商场屈臣氏旁边)(大寨路与民洁路)', 'province': '陕西省', 'city': '西安市', 'area': '雁塔区', 'detail': 1, 'uid': 'a97b8066919efe882a02e1e5', 'detail_info': {'tag': '丽人;美甲', 'type': 'life', 'detail_url': 'http://api.map.baidu.com/place/detail?uid=a97b8066919efe882a02e1e5&output=html&source=placeapi_v2', 'image_num': '1', 'children': []}}"
"{'name': '茉莉彩妆(西郊店)', 'location': {'lat': 34.250634, 'lng': 108.886979}, 'address': '大寨路东方米兰2号楼2单元1304室', 'province': '陕西省', 'city': '西安市', 'area': '雁塔区', 'street_id': '1b4e7120f107f9baf8f0cbf5', 'detail': 1, 'uid': '1b4e7120f107f9baf8f0cbf5', 'detail_info': {'tag': '丽人;美甲', 'type': 'beauty', 'detail_url': 'http://api.map.baidu.com/place/detail?uid=1b4e7120f107f9baf8f0cbf5&output=html&source=placeapi_v2', 'children': []}}"
"{'name': '蓝桥美发连锁机构', 'location': {'lat': 34.246546, 'lng': 108.886234}, 'address': '陕西省西安市雁塔区文兴巷', 'province': '陕西省', 'city': '西安市', 'area': '雁塔区', 'telephone': '15002977729', 'detail': 1, 'uid': 'f3e2d9898f8889419f09f7bf', 'detail_info': {'tag': '丽人;美发', 'type': 'beauty', 'detail_url': 'http://api.map.baidu.com/place/detail?uid=f3e2d9898f8889419f09f7bf&output=html&source=placeapi_v2', 'children': []}}"
"{'name': '茉季美甲店', 'location': {'lat': 34.250746, 'lng': 108.887537}, 'address': '大寨路盛景园小区北门02商铺', 'province': '陕西省', 'city': '西安市', 'area': '雁塔区', 'detail': 1, 'uid': '15b319d52f2d9721cc06a4e2', 'detail_info': {'tag': '丽人;美甲', 'type': 'beauty', 'detail_url': 'http://api.map.baidu.com/place/detail?uid=15b319d52f2d9721cc06a4e2&output=html&source=placeapi_v2', 'children': []}}"
"{'name': '葛师傅理发店', 'location': {'lat': 34.243734, 'lng': 108.872876}, 'address': '科技路西口物化市场', 'province': '陕西省', 'city': '西安市', 'area': '雁塔区', 'detail': 1, 'uid': '74939e12b774031ed518b7b0', 'detail_info': {'tag': '丽人;美发', 'type': 'beauty', 'detail_url': 'http://api.map.baidu.com/place/detail?uid=74939e12b774031ed518b7b0&output=html&source=placeapi_v2', 'children': []}}"
"{'name': '爱秀造型(外事学院南校区店)', 'location': {'lat': 34.239873, 'lng': 108.875429}, 'address': '鱼化寨街道鱼斗路61号左岸春天A座3楼', 'province': '陕西省', 'city': '西安市', 'area': '雁塔区', 'street_id': '0f2e9a703d4952ef283a9f82', 'detail': 1, 'uid': '0f2e9a703d4952ef283a9f82', 'detail_info': {'tag': '丽人;美发', 'type': 'beauty', 'detail_url': 'http://api.map.baidu.com/place/detail?uid=0f2e9a703d4952ef283a9f82&output=html&source=placeapi_v2', 'price': '85.0', 'overall_rating': '0.0', 'children': []}}"
"{'name': '武氏减肥(丈八北路店)', 'location': {'lat': 34.246907, 'lng': 108.880517}, 'address': '高新区丈八北路美立方小区1号楼102室', 'province': '陕西省', 'city': '西安市', 'area': '雁塔区', 'street_id': 'be2ec7dc442bcdfabb17e7b8', 'telephone': '(029)87978857', 'detail': 1, 'uid': 'be2ec7dc442bcdfabb17e7b8', 'detail_info': {'tag': '丽人;美体', 'type': 'beauty', 'detail_url': 'http://api.map.baidu.com/place/detail?uid=be2ec7dc442bcdfabb17e7b8&output=html&source=placeapi_v2', 'overall_rating': '0.0', 'children': []}}"
"{'name': 'KK造型', 'location': {'lat': 34.242704, 'lng': 108.88017}, 'address': '陕西省西安市雁塔区御都俪景(丈八北路地铁站南50米)', 'province': '陕西省', 'city': '西安市', 'area': '雁塔区', 'street_id': '9922e7a92e5cdc02ed74f86b', 'detail': 1, 'uid': '9922e7a92e5cdc02ed74f86b', 'detail_info': {'tag': '丽人;美发', 'type': 'beauty', 'detail_url': 'http://api.map.baidu.com/place/detail?uid=9922e7a92e5cdc02ed74f86b&output=html&source=placeapi_v2', 'overall_rating': '5.0', 'comment_num': '3', 'children': []}}"
"{'name': '美度发艺', 'location': {'lat': 34.246671, 'lng': 108.89188}, 'address': '西安市雁塔区沣惠南路(桃园社区西侧约10米)', 'province': '陕西省', 'city': '西安市', 'area': '雁塔区', 'street_id': '1175c4ed4ad0e7b915764384', 'detail': 1, 'uid': '1175c4ed4ad0e7b915764384', 'detail_info': {'tag': '丽人;美发', 'type': 'beauty', 'detail_url': 'http://api.map.baidu.com/place/detail?uid=1175c4ed4ad0e7b915764384&output=html&source=placeapi_v2', 'children': []}}"
"{'name': '玖肆刺青工作室', 'location': {'lat': 34.242879, 'lng': 108.876936}, 'address': '陕西省西安市雁塔区鱼化寨街道天朗蓝湖树3号楼2单元04~05室', 'province': '陕西省', 'city': '西安市', 'area': '雁塔区', 'telephone': '17392532740', 'detail': 1, 'uid': 'd822f8cdc5e501be25d2bb9c', 'detail_info': {'tag': '丽人;其他', 'type': 'beauty', 'detail_url': 'http://api.map.baidu.com/place/detail?uid=d822f8cdc5e501be25d2bb9c&output=html&source=placeapi_v2', 'overall_rating': '0.0', 'comment_num': '1', 'children': []}}"
"{'name': '经典专业美发', 'location': {'lat': 34.242409, 'lng': 108.867144}, 'address': '陕西省西安市雁塔区八家巷甜甜幼儿园附近', 'province': '陕西省', 'city': '西安市', 'area': '雁塔区', 'street_id': 'e63abdaec5cdaad78a36ee1f', 'detail': 1, 'uid': 'e63abdaec5cdaad78a36ee1f', 'detail_info': {'tag': '丽人;美发', 'navi_location': {'lng': 108.86728208664, 'lat': 34.24246027626}, 'type': 'beauty', 'detail_url': 'http://api.map.baidu.com/place/detail?uid=e63abdaec5cdaad78a36ee1f&output=html&source=placeapi_v2', 'children': []}}"
"{'name': '紫炫造型发型会所', 'location': {'lat': 34.233815, 'lng': 108.871032}, 'address': '西安市雁塔区', 'province': '陕西省', 'city': '西安市', 'area': '雁塔区', 'detail': 1, 'uid': '1d7392e9cc9cc2681d5800c1', 'detail_info': {'tag': '丽人;美发', 'type': 'life', 'detail_url': 'http://api.map.baidu.com/place/detail?uid=1d7392e9cc9cc2681d5800c1&output=html&source=placeapi_v2', 'image_num': '1', 'children': []}}"
"{'name': '品格发型工作室(陈家庄店)', 'location': {'lat': 34.242439, 'lng': 108.8852}, 'address': '西安市雁塔区科技路与高新六路交叉路口往东南约100米(陈家庄小区)', 'province': '陕西省', 'city': '西安市', 'area': '雁塔区', 'street_id': '1b2236f167bfc1e5256e98aa', 'telephone': '15191234409', 'detail': 1, 'uid': '1b2236f167bfc1e5256e98aa', 'detail_info': {'tag': '丽人;美发', 'type': 'beauty', 'detail_url': 'http://api.map.baidu.com/place/detail?uid=1b2236f167bfc1e5256e98aa&output=html&source=placeapi_v2', 'price': '66.0', 'children': []}}"
"{'name': '瑞丽诗美学植发医疗美容', 'location': {'lat': 34.244986, 'lng': 108.888692}, 'address': '陕西省西安市雁塔区科技路西段239号中华世纪城工商银行旁', 'province': '陕西省', 'city': '西安市', 'area': '雁塔区', 'street_id': '713d117e52882fb0725e8004', 'telephone': '4000998880', 'detail': 1, 'uid': '713d117e52882fb0725e8004', 'detail_info': {'tag': '医疗;其他', 'navi_location': {'lng': 108.88854714747, 'lat': 34.24502476622}, 'type': 'hospital', 'detail_url': 'http://api.map.baidu.com/place/detail?uid=713d117e52882fb0725e8004&output=html&source=placeapi_v2', 'overall_rating': '5.0', 'image_num': '10', 'comment_num': '2', 'children': []}}"
"{'name': '每日瑜伽', 'location': {'lat': 34.228845, 'lng': 108.891049}, 'address': '陕西省西安市雁塔区科技三路57号融城云谷B座22层', 'province': '陕西省', 'city': '西安市', 'area': '雁塔区', 'telephone': '(029)82305104', 'detail': 1, 'uid': '613bb859b385de44d5b74eac', 'detail_info': {'tag': '运动健身;健身中心', 'type': 'life', 'detail_url': 'http://api.map.baidu.com/place/detail?uid=613bb859b385de44d5b74eac&output=html&source=placeapi_v2', 'overall_rating': '5.0', 'image_num': '3', 'comment_num': '4', 'children': []}}"
"{'name': '千水莲瑜伽大寨路会馆', 'location': {'lat': 34.251275, 'lng': 108.889051}, 'address': '大寨路金辉融桥城2期25-1201号', 'province': '陕西省', 'city': '西安市', 'area': '雁塔区', 'street_id': '6545db4b21a3f3a3b7f42f4e', 'telephone': '13891436101', 'detail': 1, 'uid': '6545db4b21a3f3a3b7f42f4e', 'detail_info': {'tag': '运动健身;健身中心', 'type': 'life', 'detail_url': 'http://api.map.baidu.com/place/detail?uid=6545db4b21a3f3a3b7f42f4e&output=html&source=placeapi_v2', 'price': '736', 'overall_rating': '4.8', 'image_num': '10', 'comment_num': '20', 'children': []}}"
"{'name': '一木瑜伽生活馆', 'location': {'lat': 34.243884, 'lng': 108.879358}, 'address': '陕西省西安市雁塔区科技路259号丈八北路地铁口B口北20米1505室(华润万家楼上)', 'province': '陕西省', 'city': '西安市', 'area': '雁塔区', 'telephone': '(029)88647193', 'detail': 1, 'uid': '0330e1f411cd3ced7dc876b5', 'detail_info': {'tag': '运动健身;健身中心', 'type': 'life', 'detail_url': 'http://api.map.baidu.com/place/detail?uid=0330e1f411cd3ced7dc876b5&output=html&source=placeapi_v2', 'image_num': '1', 'children': []}}"
"{'name': '酷发艺专业美发中心', 'location': {'lat': 34.275328, 'lng': 108.864492}, 'address': '大庆路与枣园南路交口向西1400米路北', 'province': '陕西省', 'city': '西安市', 'area': '莲湖区', 'street_id': '43a4999800bc266f130daae1', 'telephone': '18182413629', 'detail': 1, 'uid': '43a4999800bc266f130daae1', 'detail_info': {'tag': '丽人;美发', 'type': 'beauty', 'detail_url': 'http://api.map.baidu.com/place/detail?uid=43a4999800bc266f130daae1&output=html&source=placeapi_v2', 'overall_rating': '3.0', 'comment_num': '7', 'children': []}}"
"{'name': '翎塑美发', 'location': {'lat': 34.274599, 'lng': 108.865393}, 'address': '大庆路恒大翡翠华庭北门西侧100米', 'province': '陕西省', 'city': '西安市', 'area': '莲湖区', 'detail': 1, 'uid': '7131787b63107b7d2bb97c28', 'detail_info': {'tag': '丽人;美发', 'type': 'beauty', 'detail_url': 'http://api.map.baidu.com/place/detail?uid=7131787b63107b7d2bb97c28&output=html&source=placeapi_v2', 'overall_rating': '5.0', 'comment_num': '6', 'children': []}}"
"{'name': '天悦美容养生会所', 'location': {'lat': 34.270207, 'lng': 108.890115}, 'address': '团结中路43号翡丽城第2幢', 'province': '陕西省', 'city': '西安市', 'area': '莲湖区', 'street_id': 'a0e023133774bec19e9d6863', 'telephone': '(029)84612282', 'detail': 1, 'uid': 'a0e023133774bec19e9d6863', 'detail_info': {'tag': '丽人;美容', 'type': 'beauty', 'detail_url': 'http://api.map.baidu.com/place/detail?uid=a0e023133774bec19e9d6863&output=html&source=placeapi_v2', 'price': '119.0', 'overall_rating': '4.8', 'comment_num': '11', 'children': []}}"
"{'name': '张小梅美雕美容', 'location': {'lat': 34.264834, 'lng': 108.887944}, 'address': '西安市莲湖区隆基大厦1楼', 'province': '陕西省', 'city': '西安市', 'area': '莲湖区', 'street_id': 'ebe04f0b700a6714a0046455', 'telephone': '(029)84255821', 'detail': 1, 'uid': 'ebe04f0b700a6714a0046455', 'detail_info': {'tag': '丽人;美容', 'navi_location': {'lng': 108.88807109585, 'lat': 34.264985109034}, 'type': 'beauty', 'detail_url': 'http://api.map.baidu.com/place/detail?uid=ebe04f0b700a6714a0046455&output=html&source=placeapi_v2', 'price': '72.0', 'overall_rating': '5.0', 'comment_num': '4', 'children': []}}"
"{'name': '起点专业美发(孙武路)', 'location': {'lat': 34.311857, 'lng': 108.844535}, 'address': '陕西省西安市未央区建章路高堡子三桥服饰广场南电梯二楼', 'province': '陕西省', 'city': '西安市', 'area': '未央区', 'street_id': '70ac44ebf291ff941ce999d2', 'detail': 1, 'uid': '70ac44ebf291ff941ce999d2', 'detail_info': {'tag': '丽人;美发', 'type': 'beauty', 'detail_url': 'http://api.map.baidu.com/place/detail?uid=70ac44ebf291ff941ce999d2&output=html&source=placeapi_v2', 'overall_rating': '4.5', 'comment_num': '2', 'children': []}}"
"{'name': '咪咪专业脱毛连锁机构(万象城店)', 'location': {'lat': 34.296441, 'lng': 108.835858}, 'address': '三桥万象城金街C座2701-2710室', 'province': '陕西省', 'city': '西安市', 'area': '未央区', 'telephone': '(029)84532370,18192587396', 'detail': 1, 'uid': '2a2a02d9ef26bc17a11de9e6', 'detail_info': {'tag': '丽人;美容', 'type': 'beauty', 'detail_url': 'http://api.map.baidu.com/place/detail?uid=2a2a02d9ef26bc17a11de9e6&output=html&source=placeapi_v2', 'price': '255.0', 'overall_rating': '5.0', 'comment_num': '1', 'children': []}}"
"{'name': '廊廊发型屋', 'location': {'lat': 34.27094, 'lng': 108.890065}, 'address': '团结中路43号翡丽城第7栋1-1-10111号', 'province': '陕西省', 'city': '西安市', 'area': '莲湖区', 'street_id': '1ea604fcc771e813430245a6', 'telephone': '17782562970', 'detail': 1, 'uid': '1ea604fcc771e813430245a6', 'detail_info': {'tag': '丽人;美发', 'type': 'beauty', 'detail_url': 'http://api.map.baidu.com/place/detail?uid=1ea604fcc771e813430245a6&output=html&source=placeapi_v2', 'price': '29.0', 'overall_rating': '4.8', 'comment_num': '38', 'children': []}}"
"{'name': '克丽缇娜(万科金色悦城店)', 'location': {'lat': 34.29222, 'lng': 108.866004}, 'address': '枣园西路万科金色悦城14号楼商铺', 'province': '陕西省', 'city': '西安市', 'area': '莲湖区', 'street_id': 'ac8d5942db77825c9c09f7e7', 'telephone': '(029)88879783', 'detail': 1, 'uid': 'ac8d5942db77825c9c09f7e7', 'detail_info': {'tag': '丽人;美容', 'type': 'beauty', 'detail_url': 'http://api.map.baidu.com/place/detail?uid=ac8d5942db77825c9c09f7e7&output=html&source=placeapi_v2', 'overall_rating': '4.8', 'comment_num': '4', 'children': []}}"
"{'name': '浪波湾发艺轩', 'location': {'lat': 34.275308, 'lng': 108.869058}, 'address': '陕西省西安市莲湖区华府西城港湾一期(华府·西城港湾东南)', 'province': '陕西省', 'city': '西安市', 'area': '莲湖区', 'street_id': '27847a45669cae01d4851f0e', 'telephone': '13468937104', 'detail': 1, 'uid': '27847a45669cae01d4851f0e', 'detail_info': {'tag': '丽人;美发', 'type': 'beauty', 'detail_url': 'http://api.map.baidu.com/place/detail?uid=27847a45669cae01d4851f0e&output=html&source=placeapi_v2', 'children': []}}"
"{'name': '美颜华美容养生馆(高堡子店)', 'location': {'lat': 34.311469, 'lng': 108.850248}, 'address': '孙武路附近', 'province': '陕西省', 'city': '西安市', 'area': '未央区', 'street_id': 'e47e324e34d9670a5af6be56', 'telephone': '(029)89145123', 'detail': 1, 'uid': 'e47e324e34d9670a5af6be56', 'detail_info': {'tag': '丽人;美容', 'type': 'beauty', 'detail_url': 'http://api.map.baidu.com/place/detail?uid=e47e324e34d9670a5af6be56&output=html&source=placeapi_v2', 'price': '243.0', 'overall_rating': '4.8', 'comment_num': '5', 'children': []}}"
"{'name': '梦幻悦己美甲店', 'location': {'lat': 34.295508, 'lng': 108.836713}, 'address': '三桥路万象城金街二楼10255(近雅戈尔)', 'province': '陕西省', 'city': '西安市', 'area': '未央区', 'telephone': '17782693103,18161900233', 'detail': 1, 'uid': '948f86b04635cefa2d473312', 'detail_info': {'tag': '丽人;美甲', 'type': 'beauty', 'detail_url': 'http://api.map.baidu.com/place/detail?uid=948f86b04635cefa2d473312&output=html&source=placeapi_v2', 'price': '45.0', 'overall_rating': '4.2', 'comment_num': '18', 'children': []}}"
"{'name': '发现美美发', 'location': {'lat': 34.28008, 'lng': 108.868331}, 'address': '西安市莲湖区丰盛路与枣园南路交叉路口往东北约100米(丰盛园)', 'province': '陕西省', 'city': '西安市', 'area': '莲湖区', 'detail': 1, 'uid': 'ac7dc14da2fc29e7dfee8bee', 'detail_info': {'tag': '丽人;美发', 'type': 'beauty', 'detail_url': 'http://api.map.baidu.com/place/detail?uid=ac7dc14da2fc29e7dfee8bee&output=html&source=placeapi_v2', 'children': []}}"
"{'name': '西安和福堂美容美体有限公司', 'location': {'lat': 34.293754, 'lng': 108.859694}, 'address': '陕西省西安市未央区阿房路', 'province': '陕西省', 'city': '西安市', 'area': '未央区', 'telephone': '(029)84539495', 'detail': 1, 'uid': '507ca7a487bd56a14354d7a7', 'detail_info': {'tag': '丽人;美容', 'type': 'beauty', 'detail_url': 'http://api.map.baidu.com/place/detail?uid=507ca7a487bd56a14354d7a7&output=html&source=placeapi_v2', 'overall_rating': '0.0', 'comment_num': '1', 'children': []}}"
"{'name': '艺克拉护肤造型健康管理中心', 'location': {'lat': 34.251902, 'lng': 108.888677}, 'address': '西安市雁塔区团结南路与大寨路交叉路口往北约50米(融侨城2期)', 'province': '陕西省', 'city': '西安市', 'area': '雁塔区', 'detail': 1, 'uid': 'd2e668a73b904e594d2fdf11', 'detail_info': {'tag': '丽人;美容', 'type': 'beauty', 'detail_url': 'http://api.map.baidu.com/place/detail?uid=d2e668a73b904e594d2fdf11&output=html&source=placeapi_v2', 'children': []}}"
"{'name': '壹家人美发工作室', 'location': {'lat': 34.278964, 'lng': 108.865364}, 'address': '枣园南路陕胶家园新4号楼1单元104(法士特齿轮厂对面、106终点站)', 'province': '陕西省', 'city': '西安市', 'area': '莲湖区', 'telephone': '18629445007,15109275008', 'detail': 1, 'uid': '9f2952ab12238b9c1d1d1107', 'detail_info': {'tag': '丽人;美发', 'type': 'beauty', 'detail_url': 'http://api.map.baidu.com/place/detail?uid=9f2952ab12238b9c1d1d1107&output=html&source=placeapi_v2', 'price': '40.0', 'overall_rating': '4.2', 'comment_num': '5', 'children': []}}"
"{'name': '小马修鞋美容店', 'location': {'lat': 34.280876, 'lng': 108.873944}, 'address': '枣园坊小区11栋', 'province': '陕西省', 'city': '西安市', 'area': '莲湖区', 'street_id': 'd404e102e82317842d4733ef', 'telephone': '13720552058', 'detail': 1, 'uid': 'd404e102e82317842d4733ef', 'detail_info': {'tag': '丽人;美容', 'type': 'beauty', 'detail_url': 'http://api.map.baidu.com/place/detail?uid=d404e102e82317842d4733ef&output=html&source=placeapi_v2', 'children': []}}"
"{'name': '鞋博士皮鞋美容', 'location': {'lat': 34.279468, 'lng': 108.852544}, 'address': '陕西省西安市未央区阿房二路', 'province': '陕西省', 'city': '西安市', 'area': '未央区', 'detail': 1, 'uid': 'bc7ddc64a6c52b32ae080f66', 'detail_info': {'tag': '购物;商铺', 'type': 'shopping', 'detail_url': 'http://api.map.baidu.com/place/detail?uid=bc7ddc64a6c52b32ae080f66&output=html&source=placeapi_v2', 'children': []}}"
"{'name': '诗美洛造型', 'location': {'lat': 34.255465, 'lng': 108.893596}, 'address': '高新区唐延路北段金辉国际广场二楼', 'province': '陕西省', 'city': '西安市', 'area': '雁塔区', 'telephone': '(029)84586929,15319400087', 'detail': 1, 'uid': '1f83b2306e7b56915fd4fe3a', 'detail_info': {'tag': '丽人;美发', 'navi_location': {'lng': 108.89346405681, 'lat': 34.255644549148}, 'type': 'beauty', 'detail_url': 'http://api.map.baidu.com/place/detail?uid=1f83b2306e7b56915fd4fe3a&output=html&source=placeapi_v2', 'price': '43.0', 'overall_rating': '4.9', 'comment_num': '12', 'children': []}}"
"{'name': '诗艾丽美容美体中心', 'location': {'lat': 34.296507, 'lng': 108.829829}, 'address': '陕西省西安市未央区征和六路', 'province': '陕西省', 'city': '西安市', 'area': '未央区', 'detail': 1, 'uid': '4aab226767c197d54afd3f87', 'detail_info': {'tag': '丽人;美容', 'type': 'beauty', 'detail_url': 'http://api.map.baidu.com/place/detail?uid=4aab226767c197d54afd3f87&output=html&source=placeapi_v2', 'children': []}}"
"{'name': '金凤艾佑全息养生馆', 'location': {'lat': 34.277798, 'lng': 108.877736}, 'address': '陕西省西安市莲湖区汉城北路54附近', 'province': '陕西省', 'city': '西安市', 'area': '莲湖区', 'telephone': '13152028500', 'detail': 1, 'uid': 'cd283a004f9fac0d74026994', 'detail_info': {'tag': '丽人;美容', 'type': 'beauty', 'detail_url': 'http://api.map.baidu.com/place/detail?uid=cd283a004f9fac0d74026994&output=html&source=placeapi_v2', 'children': []}}"
"{'name': '蕲艾经络养生店', 'location': {'lat': 34.285626, 'lng': 108.891663}, 'address': '陕西省西安市莲湖区丰衍路', 'province': '陕西省', 'city': '西安市', 'area': '莲湖区', 'detail': 1, 'uid': 'f1e12be7cbebb28d2202209a', 'detail_info': {'tag': '丽人;美容', 'type': 'beauty', 'detail_url': 'http://api.map.baidu.com/place/detail?uid=f1e12be7cbebb28d2202209a&output=html&source=placeapi_v2', 'children': []}}"
"{'name': 'SUHE苏禾韩式皮肤管理(万象城店)', 'location': {'lat': 34.296633, 'lng': 108.835578}, 'address': '三桥万象城C座1208(亚朵酒店楼上)', 'province': '陕西省', 'city': '西安市', 'area': '未央区', 'detail': 1, 'uid': '953657df722a6abbc909f0c5', 'detail_info': {'tag': '丽人;美容', 'type': 'beauty', 'detail_url': 'http://api.map.baidu.com/place/detail?uid=953657df722a6abbc909f0c5&output=html&source=placeapi_v2', 'price': '199.0', 'overall_rating': '5.0', 'comment_num': '24', 'children': []}}"
"{'name': '涵梓美容美发', 'location': {'lat': 34.279737, 'lng': 108.853239}, 'address': '陕西省西安市未央区阿房二路', 'province': '陕西省', 'city': '西安市', 'area': '未央区', 'detail': 1, 'uid': '3248b5d899186f5c5bf6be6a', 'detail_info': {'tag': '丽人;美容', 'type': 'beauty', 'detail_url': 'http://api.map.baidu.com/place/detail?uid=3248b5d899186f5c5bf6be6a&output=html&source=placeapi_v2', 'overall_rating': '0.0', 'comment_num': '1', 'children': []}}"
"{'name': '晓凡素美美容院', 'location': {'lat': 34.291015, 'lng': 108.892366}, 'address': '大兴西路社区大唐世家5-101室', 'province': '陕西省', 'city': '西安市', 'area': '莲湖区', 'street_id': 'e6405951b3b988f74207c115', 'detail': 1, 'uid': 'e6405951b3b988f74207c115', 'detail_info': {'tag': '丽人;美容', 'type': 'beauty', 'detail_url': 'http://api.map.baidu.com/place/detail?uid=e6405951b3b988f74207c115&output=html&source=placeapi_v2', 'overall_rating': '0.0', 'comment_num': '1', 'children': []}}"
"{'name': '凡蒂沙龙(三桥店)', 'location': {'lat': 34.294695, 'lng': 108.837249}, 'address': '西安市未央区金桥国际a排8号', 'province': '陕西省', 'city': '西安市', 'area': '未央区', 'street_id': '52e8085826f523d2c8213d7f', 'telephone': '15619396838', 'detail': 1, 'uid': '52e8085826f523d2c8213d7f', 'detail_info': {'tag': '丽人;美发', 'type': 'beauty', 'detail_url': 'http://api.map.baidu.com/place/detail?uid=52e8085826f523d2c8213d7f&output=html&source=placeapi_v2', 'overall_rating': '3.9', 'comment_num': '10', 'children': []}}"
"{'name': '迷尚色美甲生活馆', 'location': {'lat': 34.252716, 'lng': 108.883511}, 'address': '民洁路枫林华府15栋1单元10108室', 'province': '陕西省', 'city': '西安市', 'area': '雁塔区', 'street_id': '6567909dca8ad89a774ff1a7', 'telephone': '(029)62719161,18092505540', 'detail': 1, 'uid': '6567909dca8ad89a774ff1a7', 'detail_info': {'tag': '丽人;美甲', 'type': 'beauty', 'detail_url': 'http://api.map.baidu.com/place/detail?uid=6567909dca8ad89a774ff1a7&output=html&source=placeapi_v2', 'price': '102.0', 'overall_rating': '4.5', 'comment_num': '15', 'children': []}}"
"{'name': '娟娟美容院', 'location': {'lat': 34.290337, 'lng': 108.871451}, 'address': '陕西省西安市莲湖区枣园北路三民汉风苑东区13号楼1单元204', 'province': '陕西省', 'city': '西安市', 'area': '莲湖区', 'street_id': '502c359f7c3fe99bbca822bb', 'detail': 1, 'uid': '502c359f7c3fe99bbca822bb', 'detail_info': {'tag': '丽人;美容', 'type': 'beauty', 'detail_url': 'http://api.map.baidu.com/place/detail?uid=502c359f7c3fe99bbca822bb&output=html&source=placeapi_v2', 'overall_rating': '0.0', 'comment_num': '0', 'children': []}}"
"{'name': '艾尚造型(创意店)', 'location': {'lat': 34.277806, 'lng': 108.877314}, 'address': '陕西省西安市莲湖区汉城北路54西90米', 'province': '陕西省', 'city': '西安市', 'area': '莲湖区', 'telephone': '18191820061', 'detail': 1, 'uid': '45f720ffe7da48cef503b8b9', 'detail_info': {'tag': '丽人;美发', 'type': 'beauty', 'detail_url': 'http://api.map.baidu.com/place/detail?uid=45f720ffe7da48cef503b8b9&output=html&source=placeapi_v2', 'children': []}}"
"{'name': '悦己·舒心美容美体生活馆', 'location': {'lat': 34.291616, 'lng': 108.863624}, 'address': '陕西省西市市莲湖区崇智路38号二楼', 'province': '陕西省', 'city': '西安市', 'area': '莲湖区', 'detail': 1, 'uid': '1c3c97140b29398f05026fb6', 'detail_info': {'tag': '丽人;美容', 'type': 'beauty', 'detail_url': 'http://api.map.baidu.com/place/detail?uid=1c3c97140b29398f05026fb6&output=html&source=placeapi_v2', 'children': []}}"
"{'name': '小飞剪形象设计(金桥国际店)', 'location': {'lat': 34.295098, 'lng': 108.837456}, 'address': '西户公路金桥国际一层川坝子火锅旁', 'province': '陕西省', 'city': '西安市', 'area': '未央区', 'telephone': '18392975397', 'detail': 1, 'uid': '58385294c5242c6ed42ce22f', 'detail_info': {'tag': '丽人;美发', 'type': 'beauty', 'detail_url': 'http://api.map.baidu.com/place/detail?uid=58385294c5242c6ed42ce22f&output=html&source=placeapi_v2', 'price': '211.0', 'overall_rating': '2.5', 'comment_num': '2', 'children': []}}"
"{'name': '欧莱雅私人定制(华东万锦城店)', 'location': {'lat': 34.266455, 'lng': 108.877945}, 'address': '汉城南路100号华东万锦城10号楼3单元21层9户(从屈臣氏右边小门进入)', 'province': '陕西省', 'city': '西安市', 'area': '莲湖区', 'detail': 1, 'uid': 'c13f61e5342bcedb441a32f3', 'detail_info': {'tag': '丽人;美发', 'type': 'beauty', 'detail_url': 'http://api.map.baidu.com/place/detail?uid=c13f61e5342bcedb441a32f3&output=html&source=placeapi_v2', 'price': '213.0', 'overall_rating': '5.0', 'comment_num': '2', 'children': []}}"
"{'name': '优瘦身国际减肥连锁(万科金色悦城店)', 'location': {'lat': 34.293472, 'lng': 108.864306}, 'address': '枣园西路万科金色悦城一期西门优瘦身', 'province': '陕西省', 'city': '西安市', 'area': '莲湖区', 'detail': 1, 'uid': 'b731f6bf33d6f5797069d326', 'detail_info': {'tag': '丽人;美体', 'type': 'beauty', 'detail_url': 'http://api.map.baidu.com/place/detail?uid=b731f6bf33d6f5797069d326&output=html&source=placeapi_v2', 'overall_rating': '5.0', 'comment_num': '1', 'children': []}}"
"{'name': '温馨发屋(枣园南路店)', 'location': {'lat': 34.278313, 'lng': 108.865932}, 'address': '西安市莲湖区枣园南路106', 'province': '陕西省', 'city': '西安市', 'area': '莲湖区', 'street_id': '0ea89643b45118981e1d117b', 'detail': 1, 'uid': '0ea89643b45118981e1d117b', 'detail_info': {'tag': '丽人;美发', 'navi_location': {'lng': 108.86603444449, 'lat': 34.278384733276}, 'type': 'beauty', 'detail_url': 'http://api.map.baidu.com/place/detail?uid=0ea89643b45118981e1d117b&output=html&source=placeapi_v2', 'overall_rating': '3.0', 'comment_num': '2', 'children': []}}"
"{'name': '米莱日式美甲(三桥店)', 'location': {'lat': 34.297326, 'lng': 108.835056}, 'address': '三桥华润万象城C座2508室(亚朵酒店旁边，地铁三桥站B口)', 'province': '陕西省', 'city': '西安市', 'area': '未央区', 'detail': 1, 'uid': '61ce1a354fc763b06240a908', 'detail_info': {'tag': '丽人;美甲', 'type': 'beauty', 'detail_url': 'http://api.map.baidu.com/place/detail?uid=61ce1a354fc763b06240a908&output=html&source=placeapi_v2', 'price': '158.0', 'overall_rating': '5.0', 'comment_num': '13', 'children': []}}"
"{'name': '梵尚发型设计', 'location': {'lat': 34.261236, 'lng': 108.830766}, 'address': '和平工业园区四号路和平春天底商', 'province': '陕西省', 'city': '西安市', 'area': '未央区', 'street_id': '530baf6c066150eabb17e7b0', 'telephone': '18710383571', 'detail': 1, 'uid': '530baf6c066150eabb17e7b0', 'detail_info': {'tag': '丽人;美发', 'type': 'beauty', 'detail_url': 'http://api.map.baidu.com/place/detail?uid=530baf6c066150eabb17e7b0&output=html&source=placeapi_v2', 'overall_rating': '5.0', 'comment_num': '2', 'children': []}}"
"{'name': '天姿美容养生会所(大兴西路辅路店)', 'location': {'lat': 34.291012, 'lng': 108.89236}, 'address': '西安市莲湖区大唐世家6号1单元101', 'province': '陕西省', 'city': '西安市', 'area': '莲湖区', 'street_id': '976b4d12ef85f5b6d813189e', 'detail': 1, 'uid': '976b4d12ef85f5b6d813189e', 'detail_info': {'tag': '丽人;美容', 'navi_location': {'lng': 108.89238727686, 'lat': 34.291232389785}, 'type': 'beauty', 'detail_url': 'http://api.map.baidu.com/place/detail?uid=976b4d12ef85f5b6d813189e&output=html&source=placeapi_v2', 'price': '208.0', 'overall_rating': '0.0', 'comment_num': '2', 'children': []}}"
"{'name': '小马纹绣美容', 'location': {'lat': 34.305617, 'lng': 108.848918}, 'address': '陕西省西安市未央区建章路193号东60米', 'province': '陕西省', 'city': '西安市', 'area': '未央区', 'detail': 1, 'uid': '76a39bdf94c4d6522efaa787', 'detail_info': {'tag': '丽人;美容', 'type': 'beauty', 'detail_url': 'http://api.map.baidu.com/place/detail?uid=76a39bdf94c4d6522efaa787&output=html&source=placeapi_v2', 'children': []}}"
"{'name': '胖胖的管家减肥美容', 'location': {'lat': 34.308319, 'lng': 108.848788}, 'address': '陕西省西安市未央区建章路173号附近', 'province': '陕西省', 'city': '西安市', 'area': '未央区', 'detail': 1, 'uid': 'e4306566aa5cdf4cb8bd63af', 'detail_info': {'tag': '丽人;美容', 'type': 'beauty', 'detail_url': 'http://api.map.baidu.com/place/detail?uid=e4306566aa5cdf4cb8bd63af&output=html&source=placeapi_v2', 'children': []}}"
"{'name': '西安丽竹养生美容有限公司', 'location': {'lat': 34.306766, 'lng': 108.820005}, 'address': '西安市未央区三桥后卫寨地铁口启航时代广场A区12号楼2301', 'province': '陕西省', 'city': '西安市', 'area': '未央区', 'street_id': 'bed392cbab077abe1ff74df3', 'telephone': '(029)84527077', 'detail': 1, 'uid': 'bed392cbab077abe1ff74df3', 'detail_info': {'tag': '丽人;美容', 'type': 'beauty', 'detail_url': 'http://api.map.baidu.com/place/detail?uid=bed392cbab077abe1ff74df3&output=html&source=placeapi_v2', 'price': '0.0', 'children': []}}"
"{'name': '芯美人美发美容', 'location': {'lat': 34.299109, 'lng': 108.839299}, 'address': '三桥新街150附近', 'province': '陕西省', 'city': '西安市', 'area': '未央区', 'telephone': '17391762982,17765008521', 'detail': 1, 'uid': 'd12405b96fa839c09e95defb', 'detail_info': {'tag': '丽人;美容', 'type': 'beauty', 'detail_url': 'http://api.map.baidu.com/place/detail?uid=d12405b96fa839c09e95defb&output=html&source=placeapi_v2', 'children': []}}"
"{'name': '金彩造型', 'location': {'lat': 34.280796, 'lng': 108.876119}, 'address': '西安市莲湖区枣园西路36附近', 'province': '陕西省', 'city': '西安市', 'area': '莲湖区', 'telephone': '18792820983', 'detail': 1, 'uid': 'cc705bb7fa4abbba00ec01ca', 'detail_info': {'tag': '丽人;美发', 'type': 'beauty', 'detail_url': 'http://api.map.baidu.com/place/detail?uid=cc705bb7fa4abbba00ec01ca&output=html&source=placeapi_v2', 'overall_rating': '3.0', 'comment_num': '1', 'children': []}}"
"{'name': '焦娇美人瘦身(三桥店)', 'location': {'lat': 34.307138, 'lng': 108.848065}, 'address': '陕西省西安市未央区建章路181号附近', 'province': '陕西省', 'city': '西安市', 'area': '未央区', 'street_id': 'bda1b3455ed6f721d4851fc7', 'telephone': '13772084105', 'detail': 1, 'uid': 'bda1b3455ed6f721d4851fc7', 'detail_info': {'tag': '丽人;美体', 'type': 'beauty', 'detail_url': 'http://api.map.baidu.com/place/detail?uid=bda1b3455ed6f721d4851fc7&output=html&source=placeapi_v2', 'overall_rating': '5.0', 'comment_num': '1', 'children': []}}"
"{'name': 'MJ美甲', 'location': {'lat': 34.296328, 'lng': 108.836638}, 'address': '西户路西安万象城金街二楼10244', 'province': '陕西省', 'city': '西安市', 'area': '未央区', 'detail': 1, 'uid': 'dc57a21bd5a193d33a13fd8d', 'detail_info': {'tag': '丽人;美甲', 'type': 'beauty', 'detail_url': 'http://api.map.baidu.com/place/detail?uid=dc57a21bd5a193d33a13fd8d&output=html&source=placeapi_v2', 'price': '179.0', 'overall_rating': '4.9', 'comment_num': '8', 'children': []}}"
"{'name': '新靓点造型烫染连锁(丰盛路店)', 'location': {'lat': 34.279466, 'lng': 108.860853}, 'address': '丰盛路何苑新村4号楼1单元6楼604室', 'province': '陕西省', 'city': '西安市', 'area': '未央区', 'telephone': '18392191492,(029)88624398', 'detail': 1, 'uid': '0f451768f4ec07011894c6fa', 'detail_info': {'tag': '丽人;美发', 'type': 'beauty', 'detail_url': 'http://api.map.baidu.com/place/detail?uid=0f451768f4ec07011894c6fa&output=html&source=placeapi_v2', 'price': '30.0', 'overall_rating': '5.0', 'comment_num': '3', 'children': []}}"
"{'name': '汇美造型', 'location': {'lat': 34.288715, 'lng': 108.85597}, 'address': '陕西省西安市未央区阿房四路1号西南60米', 'province': '陕西省', 'city': '西安市', 'area': '未央区', 'detail': 1, 'uid': 'e4f3b4d764dc1d71b04c4945', 'detail_info': {'tag': '丽人;美发', 'type': 'beauty', 'detail_url': 'http://api.map.baidu.com/place/detail?uid=e4f3b4d764dc1d71b04c4945&output=html&source=placeapi_v2', 'children': []}}"
"{'name': '古德造型(恒大城店)', 'location': {'lat': 34.252394, 'lng': 108.875304}, 'address': '西安市雁塔区恒大影城1楼', 'province': '陕西省', 'city': '西安市', 'area': '雁塔区', 'street_id': '8d6045aec331c7cedbeced7b', 'telephone': '15991717513', 'detail': 1, 'uid': '8d6045aec331c7cedbeced7b', 'detail_info': {'tag': '丽人;美发', 'type': 'beauty', 'detail_url': 'http://api.map.baidu.com/place/detail?uid=8d6045aec331c7cedbeced7b&output=html&source=placeapi_v2', 'price': '42.0', 'overall_rating': '3.7', 'comment_num': '16', 'children': []}}"
"{'name': '米缇美体龄管理中心大唐世家店', 'location': {'lat': 34.291377, 'lng': 108.892351}, 'address': '大兴西路大唐世家5号楼101室', 'province': '陕西省', 'city': '西安市', 'area': '莲湖区', 'detail': 1, 'uid': 'd141442028b812cc1df74d19', 'detail_info': {'tag': '丽人;美容', 'type': 'beauty', 'detail_url': 'http://api.map.baidu.com/place/detail?uid=d141442028b812cc1df74d19&output=html&source=placeapi_v2', 'children': []}}"
"{'name': '心馨坊皮肤管理中心', 'location': {'lat': 34.295702, 'lng': 108.836476}, 'address': '西安市未央区三桥万象城万象金街2层10250', 'province': '陕西省', 'city': '西安市', 'area': '未央区', 'detail': 1, 'uid': 'a4a6cdc397ef7f3cc26c14e5', 'detail_info': {'tag': '丽人;美容', 'type': 'beauty', 'detail_url': 'http://api.map.baidu.com/place/detail?uid=a4a6cdc397ef7f3cc26c14e5&output=html&source=placeapi_v2', 'children': []}}"
"{'name': '会芳美容美体', 'location': {'lat': 34.294934, 'lng': 108.856707}, 'address': '三桥路车刘小区(东区)(车刘小区西区东)', 'province': '陕西省', 'city': '西安市', 'area': '未央区', 'telephone': '18629508881', 'detail': 1, 'uid': '9ca99640ee8e9f8ea2d23033', 'detail_info': {'tag': '丽人;美容', 'type': 'beauty', 'detail_url': 'http://api.map.baidu.com/place/detail?uid=9ca99640ee8e9f8ea2d23033&output=html&source=placeapi_v2', 'children': []}}"
"{'name': '名流发型工作室', 'location': {'lat': 34.307235, 'lng': 108.820316}, 'address': '西咸新区沣东新城启航时代广场B座1楼(三桥饭庄斜对面向西一百米)', 'province': '陕西省', 'city': '西安市', 'area': '未央区', 'street_id': '8de6fe93b34062b3c9e33c11', 'telephone': '15388679290,13772034755', 'detail': 1, 'uid': '8de6fe93b34062b3c9e33c11', 'detail_info': {'tag': '丽人;美发', 'type': 'beauty', 'detail_url': 'http://api.map.baidu.com/place/detail?uid=8de6fe93b34062b3c9e33c11&output=html&source=placeapi_v2', 'children': []}}"
"{'name': '勇鑫发艺(大寨路恒大城店)', 'location': {'lat': 34.251462, 'lng': 108.872445}, 'address': '大寨路99号恒大城7-104', 'province': '陕西省', 'city': '西安市', 'area': '雁塔区', 'street_id': '9bd1f24235a539c01f3894f2', 'telephone': '18092636223', 'detail': 1, 'uid': '9bd1f24235a539c01f3894f2', 'detail_info': {'tag': '丽人;美发', 'navi_location': {'lng': 108.87234665406, 'lat': 34.251262450376}, 'type': 'beauty', 'detail_url': 'http://api.map.baidu.com/place/detail?uid=9bd1f24235a539c01f3894f2&output=html&source=placeapi_v2', 'price': '72.0', 'overall_rating': '3.5', 'comment_num': '5', 'children': []}}"
"{'name': '西安F+造型(万象城店)', 'location': {'lat': 34.296443, 'lng': 108.836682}, 'address': '西咸新区三桥华润万象城三楼L337.338商铺', 'province': '陕西省', 'city': '西安市', 'area': '未央区', 'telephone': '(029)89599967', 'detail': 1, 'uid': '35d10b6fed951f3c08ccdd49', 'detail_info': {'tag': '丽人;美发', 'type': 'beauty', 'detail_url': 'http://api.map.baidu.com/place/detail?uid=35d10b6fed951f3c08ccdd49&output=html&source=placeapi_v2', 'price': '119.0', 'overall_rating': '4.7', 'comment_num': '93', 'children': []}}"
"{'name': '娜美尔养生会所', 'location': {'lat': 34.308465, 'lng': 108.848586}, 'address': '陕西省西安市未央区建章路173号附近', 'province': '陕西省', 'city': '西安市', 'area': '未央区', 'detail': 1, 'uid': 'd543fc91499c341f09b93ac1', 'detail_info': {'tag': '丽人;美容', 'type': 'beauty', 'detail_url': 'http://api.map.baidu.com/place/detail?uid=d543fc91499c341f09b93ac1&output=html&source=placeapi_v2', 'children': []}}"
"{'name': '晴天美甲', 'location': {'lat': 34.294054, 'lng': 108.844975}, 'address': '西安市未央区三桥新街与建章路交叉路口往西南约100米(保利金香槟)', 'province': '陕西省', 'city': '西安市', 'area': '未央区', 'telephone': '18829095961', 'detail': 1, 'uid': '7a6b1139b021e848f90cad25', 'detail_info': {'tag': '丽人;美甲', 'type': 'beauty', 'detail_url': 'http://api.map.baidu.com/place/detail?uid=7a6b1139b021e848f90cad25&output=html&source=placeapi_v2', 'overall_rating': '0.0', 'comment_num': '1', 'children': []}}"
"{'name': '小香港美发中心', 'location': {'lat': 34.291152, 'lng': 108.862272}, 'address': '枣园西路三民汉风苑西区3号楼103室', 'province': '陕西省', 'city': '西安市', 'area': '莲湖区', 'telephone': '13619256466', 'detail': 1, 'uid': 'fdd7e113851b33881811d544', 'detail_info': {'tag': '丽人;美发', 'type': 'beauty', 'detail_url': 'http://api.map.baidu.com/place/detail?uid=fdd7e113851b33881811d544&output=html&source=placeapi_v2', 'children': []}}"
"{'name': '绝色造型(肖里村店)', 'location': {'lat': 34.258191, 'lng': 108.833189}, 'address': '陕西省西安市未央区和平工业园区二号路', 'province': '陕西省', 'city': '西安市', 'area': '未央区', 'detail': 1, 'uid': '33e55c3b83c14302a21de9f9', 'detail_info': {'tag': '丽人;美发', 'type': 'beauty', 'detail_url': 'http://api.map.baidu.com/place/detail?uid=33e55c3b83c14302a21de9f9&output=html&source=placeapi_v2', 'children': []}}"
"{'name': '和美国际', 'location': {'lat': 34.287396, 'lng': 108.845918}, 'address': '陕西省西安市未央区西三环辅路', 'province': '陕西省', 'city': '西安市', 'area': '未央区', 'telephone': '18392883759', 'detail': 1, 'uid': 'a207dba21ba75989230262ad', 'detail_info': {'tag': '丽人', 'type': 'beauty', 'detail_url': 'http://api.map.baidu.com/place/detail?uid=a207dba21ba75989230262ad&output=html&source=placeapi_v2', 'children': []}}"
"{'name': '护发天使', 'location': {'lat': 34.289841, 'lng': 108.840843}, 'address': '西安市未央区武警路与阿房四路交叉口北200米', 'province': '陕西省', 'city': '西安市', 'area': '未央区', 'street_id': 'e57aa8151ceeda377f29bd53', 'telephone': '17791658070', 'detail': 1, 'uid': 'e57aa8151ceeda377f29bd53', 'detail_info': {'tag': '丽人', 'type': 'beauty', 'detail_url': 'http://api.map.baidu.com/place/detail?uid=e57aa8151ceeda377f29bd53&output=html&source=placeapi_v2', 'overall_rating': '0.0', 'children': []}}"
"{'name': '尚美美发沙龙(阿房四路店)', 'location': {'lat': 34.289014, 'lng': 108.853859}, 'address': '陕西省西安市未央区三桥阿房四路福星苑', 'province': '陕西省', 'city': '西安市', 'area': '未央区', 'street_id': 'f4300667cc03886adbecedc7', 'telephone': '13772022556', 'detail': 1, 'uid': 'f4300667cc03886adbecedc7', 'detail_info': {'tag': '丽人;美发', 'type': 'beauty', 'detail_url': 'http://api.map.baidu.com/place/detail?uid=f4300667cc03886adbecedc7&output=html&source=placeapi_v2', 'overall_rating': '5.0', 'comment_num': '1', 'children': []}}"
"{'name': '风尚密码', 'location': {'lat': 34.291843, 'lng': 108.865884}, 'address': '西安市莲湖区枣园西路万科金色悦城15号楼B栋10105号', 'province': '陕西省', 'city': '西安市', 'area': '莲湖区', 'street_id': '553c69e2b93f2eb7704b876c', 'telephone': '18792979216', 'detail': 1, 'uid': '553c69e2b93f2eb7704b876c', 'detail_info': {'tag': '丽人;美发', 'navi_location': {'lng': 108.86604788494, 'lat': 34.291716273609}, 'type': 'beauty', 'detail_url': 'http://api.map.baidu.com/place/detail?uid=553c69e2b93f2eb7704b876c&output=html&source=placeapi_v2', 'price': '87.0', 'overall_rating': '3.0', 'children': []}}"
"{'name': '金典造型(染烫旗舰店)', 'location': {'lat': 34.286203, 'lng': 108.845711}, 'address': '西安市未央区', 'province': '陕西省', 'city': '西安市', 'area': '未央区', 'detail': 1, 'uid': '03171c5699fe07673b221c1b', 'detail_info': {'tag': '丽人;美发', 'type': 'beauty', 'detail_url': 'http://api.map.baidu.com/place/detail?uid=03171c5699fe07673b221c1b&output=html&source=placeapi_v2', 'overall_rating': '5.0', 'comment_num': '2', 'children': []}}"
"{'name': 'NAIL纹绣美甲', 'location': {'lat': 34.297067, 'lng': 108.834389}, 'address': '陕西省西安市未央区征和六路', 'province': '陕西省', 'city': '西安市', 'area': '未央区', 'telephone': '13572827377', 'detail': 1, 'uid': '50baa28e6115f6c913293549', 'detail_info': {'tag': '丽人;美甲', 'type': 'beauty', 'detail_url': 'http://api.map.baidu.com/place/detail?uid=50baa28e6115f6c913293549&output=html&source=placeapi_v2', 'children': []}}"
"{'name': '瑞雪造型', 'location': {'lat': 34.295292, 'lng': 108.853545}, 'address': '西安市未央区', 'province': '陕西省', 'city': '西安市', 'area': '未央区', 'detail': 1, 'uid': 'd525f8559aed6b684d55474a', 'detail_info': {'tag': '丽人;美发', 'type': 'beauty', 'detail_url': 'http://api.map.baidu.com/place/detail?uid=d525f8559aed6b684d55474a&output=html&source=placeapi_v2', 'children': []}}"
"{'name': '异色(万科店)', 'location': {'lat': 34.291437, 'lng': 108.864998}, 'address': '西安市莲湖区立信路与崇智路交叉路口往东约100米(金色花语城)', 'province': '陕西省', 'city': '西安市', 'area': '莲湖区', 'detail': 1, 'uid': '1f479e0b85557e933ce231b3', 'detail_info': {'tag': '丽人', 'type': 'beauty', 'detail_url': 'http://api.map.baidu.com/place/detail?uid=1f479e0b85557e933ce231b3&output=html&source=placeapi_v2', 'children': []}}"
"{'name': '秀瑞斯减肥(三桥店)', 'location': {'lat': 34.296775, 'lng': 108.829946}, 'address': '三桥街道华润二十四城11栋10105号', 'province': '陕西省', 'city': '西安市', 'area': '未央区', 'telephone': '18691986163', 'detail': 1, 'uid': 'ac7097d06f824c6ceee4a56c', 'detail_info': {'tag': '丽人;美体', 'type': 'beauty', 'detail_url': 'http://api.map.baidu.com/place/detail?uid=ac7097d06f824c6ceee4a56c&output=html&source=placeapi_v2', 'children': []}}"
"{'name': '紫暄造型', 'location': {'lat': 34.29339, 'lng': 108.892971}, 'address': '陕西省西安市未央区沣景园小区(A区)东', 'province': '陕西省', 'city': '西安市', 'area': '未央区', 'detail': 1, 'uid': 'cd7694e44d8d301b5fbe8630', 'detail_info': {'tag': '丽人;美发', 'type': 'beauty', 'detail_url': 'http://api.map.baidu.com/place/detail?uid=cd7694e44d8d301b5fbe8630&output=html&source=placeapi_v2', 'overall_rating': '5.0', 'comment_num': '3', 'children': []}}"
"{'name': '外敷减肥', 'location': {'lat': 34.291765, 'lng': 108.867459}, 'address': '陕西省西安市莲湖区立信路', 'province': '陕西省', 'city': '西安市', 'area': '莲湖区', 'telephone': '15809261145', 'detail': 1, 'uid': 'f9d442d04a15c5cfb6f42f5e', 'detail_info': {'tag': '丽人;美体', 'type': 'beauty', 'detail_url': 'http://api.map.baidu.com/place/detail?uid=f9d442d04a15c5cfb6f42f5e&output=html&source=placeapi_v2', 'children': []}}"
"{'name': '纤妃瘦身', 'location': {'lat': 34.310164, 'lng': 108.848521}, 'address': '陕西省西安市未央区建章路163号附近', 'province': '陕西省', 'city': '西安市', 'area': '未央区', 'telephone': '18091829685', 'detail': 1, 'uid': '7fbd58eed21e41e3d7b74e7f', 'detail_info': {'tag': '丽人;美体', 'navi_location': {'lng': 108.84831130797, 'lat': 34.310123792493}, 'type': 'beauty', 'detail_url': 'http://api.map.baidu.com/place/detail?uid=7fbd58eed21e41e3d7b74e7f&output=html&source=placeapi_v2', 'children': []}}"
"{'name': '清脉减肥中心', 'location': {'lat': 34.305617, 'lng': 108.850454}, 'address': '陕西省西安市未央区西雁小区(西安市车辆中学东)', 'province': '陕西省', 'city': '西安市', 'area': '未央区', 'telephone': '18729388877', 'detail': 1, 'uid': '3e81a96214f8d34416a1903e', 'detail_info': {'tag': '丽人;美体', 'type': 'beauty', 'detail_url': 'http://api.map.baidu.com/place/detail?uid=3e81a96214f8d34416a1903e&output=html&source=placeapi_v2', 'children': []}}"
"{'name': 'AL美发中心', 'location': {'lat': 34.297312, 'lng': 108.830314}, 'address': '华润二十四城2-10108商铺(物业隔壁)', 'province': '陕西省', 'city': '西安市', 'area': '未央区', 'street_id': 'a221669e6d0567c181a12eba', 'detail': 1, 'uid': 'a221669e6d0567c181a12eba', 'detail_info': {'tag': '丽人;美发', 'type': 'beauty', 'detail_url': 'http://api.map.baidu.com/place/detail?uid=a221669e6d0567c181a12eba&output=html&source=placeapi_v2', 'price': '86.0', 'children': []}}"
"{'name': 'AAA美发', 'location': {'lat': 34.283928, 'lng': 108.891264}, 'address': '莲湖区丰收路28号', 'province': '陕西省', 'city': '西安市', 'area': '莲湖区', 'street_id': '3b2834fdea18cf15d1f49eb7', 'detail': 1, 'uid': 'b91cc427bae04d02ed74f8bf', 'detail_info': {'tag': '丽人;美发', 'type': 'beauty', 'detail_url': 'http://api.map.baidu.com/place/detail?uid=b91cc427bae04d02ed74f8bf&output=html&source=placeapi_v2', 'overall_rating': '4.5', 'comment_num': '5', 'children': []}}"
"{'name': '三千家生态减肥', 'location': {'lat': 34.298633, 'lng': 108.838662}, 'address': '西安市未央区', 'province': '陕西省', 'city': '西安市', 'area': '未央区', 'detail': 1, 'uid': '0cbd5e5399311b6596ec8451', 'detail_info': {'tag': '丽人;美体', 'type': 'beauty', 'detail_url': 'http://api.map.baidu.com/place/detail?uid=0cbd5e5399311b6596ec8451&output=html&source=placeapi_v2', 'children': []}}"
"{'name': '尚之约发型烫染', 'location': {'lat': 34.315629, 'lng': 108.848586}, 'address': '陕西省西安市未央区建章路东(西安市职工大学东南)', 'province': '陕西省', 'city': '西安市', 'area': '未央区', 'street_id': '5e203801edb447b5f7e73bfc', 'detail': 1, 'uid': '5e203801edb447b5f7e73bfc', 'detail_info': {'tag': '丽人;美发', 'type': 'beauty', 'detail_url': 'http://api.map.baidu.com/place/detail?uid=5e203801edb447b5f7e73bfc&output=html&source=placeapi_v2', 'overall_rating': '0.0', 'comment_num': '2', 'children': []}}"
"{'name': '尚帝美发沙龙', 'location': {'lat': 34.30018, 'lng': 108.840848}, 'address': '陕西省西安市未央区连霍高速公路繁花郡小区(枫桥名邸东南)', 'province': '陕西省', 'city': '西安市', 'area': '未央区', 'street_id': '6a12ea6e7d2ef81781288a7f', 'detail': 1, 'uid': '6a12ea6e7d2ef81781288a7f', 'detail_info': {'tag': '丽人;美发', 'type': 'beauty', 'detail_url': 'http://api.map.baidu.com/place/detail?uid=6a12ea6e7d2ef81781288a7f&output=html&source=placeapi_v2', 'overall_rating': '0.0', 'comment_num': '1', 'children': []}}"
"{'name': 'JK造型', 'location': {'lat': 34.291959, 'lng': 108.863381}, 'address': '西安市莲湖区立信路与崇智路交叉路口北侧(万科金色悦城)', 'province': '陕西省', 'city': '西安市', 'area': '莲湖区', 'detail': 1, 'uid': '67183c7f1dd45f1e220220af', 'detail_info': {'tag': '丽人;美发', 'type': 'beauty', 'detail_url': 'http://api.map.baidu.com/place/detail?uid=67183c7f1dd45f1e220220af&output=html&source=placeapi_v2', 'children': []}}"
"{'name': '玛利造型(大兴西路店)', 'location': {'lat': 34.292436, 'lng': 108.892608}, 'address': '大兴西路58号', 'province': '陕西省', 'city': '西安市', 'area': '未央区', 'street_id': '4ce10ce6188ce8df441a323e', 'telephone': '18991351324', 'detail': 1, 'uid': '4ce10ce6188ce8df441a323e', 'detail_info': {'tag': '丽人;美发', 'type': 'beauty', 'detail_url': 'http://api.map.baidu.com/place/detail?uid=4ce10ce6188ce8df441a323e&output=html&source=placeapi_v2', 'price': '27.0', 'overall_rating': '1.0', 'comment_num': '4', 'children': []}}"
"{'name': '李苗造型', 'location': {'lat': 34.283526, 'lng': 108.889297}, 'address': '丰收路37号附近', 'province': '陕西省', 'city': '西安市', 'area': '莲湖区', 'street_id': 'c261a8c09b373fc5b75f1ef2', 'detail': 1, 'uid': 'c261a8c09b373fc5b75f1ef2', 'detail_info': {'tag': '丽人;美发', 'type': 'beauty', 'detail_url': 'http://api.map.baidu.com/place/detail?uid=c261a8c09b373fc5b75f1ef2&output=html&source=placeapi_v2', 'children': []}}"
"{'name': '云逸美发', 'location': {'lat': 34.280438, 'lng': 108.849942}, 'address': '陕西省西安市未央区武警路', 'province': '陕西省', 'city': '西安市', 'area': '未央区', 'detail': 1, 'uid': '6022e48a2a171e031d1d11e4', 'detail_info': {'tag': '丽人;美发', 'type': 'beauty', 'detail_url': 'http://api.map.baidu.com/place/detail?uid=6022e48a2a171e031d1d11e4&output=html&source=placeapi_v2', 'children': []}}"
"{'name': '欣欣发型会所', 'location': {'lat': 34.281385, 'lng': 108.853401}, 'address': '阿房二路2号西安正义国际酒店用品城阿房路三小学', 'province': '陕西省', 'city': '西安市', 'area': '未央区', 'detail': 1, 'uid': '9dfd38139cc3de8fc72ba118', 'detail_info': {'tag': '丽人;美发', 'type': 'beauty', 'detail_url': 'http://api.map.baidu.com/place/detail?uid=9dfd38139cc3de8fc72ba118&output=html&source=placeapi_v2', 'overall_rating': '0.0', 'comment_num': '2', 'children': []}}"
"{'name': '兄弟造型', 'location': {'lat': 34.278995, 'lng': 108.861491}, 'address': '西安市莲湖区丰盛路与阿房路交叉路口往东约50米(南何新村住宅小区)', 'province': '陕西省', 'city': '西安市', 'area': '莲湖区', 'detail': 1, 'uid': '98fbf349b2ae736240ab9a6d', 'detail_info': {'tag': '丽人;美发', 'type': 'beauty', 'detail_url': 'http://api.map.baidu.com/place/detail?uid=98fbf349b2ae736240ab9a6d&output=html&source=placeapi_v2', 'children': []}}"
"{'name': '名剪美发沙龙', 'location': {'lat': 34.301651, 'lng': 108.837357}, 'address': '陕西省西安市未央区西安高架快速干道', 'province': '陕西省', 'city': '西安市', 'area': '未央区', 'detail': 1, 'uid': '4541630d4982de53ff0eb05d', 'detail_info': {'tag': '丽人;美发', 'type': 'beauty', 'detail_url': 'http://api.map.baidu.com/place/detail?uid=4541630d4982de53ff0eb05d&output=html&source=placeapi_v2', 'children': []}}"
"{'name': '石头造型(大兴西路辅路店)', 'location': {'lat': 34.292451, 'lng': 108.892899}, 'address': '陕西省西安市未央区大兴西路光华人造毛皮厂住宅小区南门', 'province': '陕西省', 'city': '西安市', 'area': '未央区', 'street_id': '001773920e0ae85ef5c59c39', 'detail': 1, 'uid': '001773920e0ae85ef5c59c39', 'detail_info': {'tag': '丽人;美发', 'type': 'beauty', 'detail_url': 'http://api.map.baidu.com/place/detail?uid=001773920e0ae85ef5c59c39&output=html&source=placeapi_v2', 'overall_rating': '3.0', 'children': []}}"
"{'name': '东艺造型', 'location': {'lat': 34.291489, 'lng': 108.867567}, 'address': '万科金色悦城东门斜对面', 'province': '陕西省', 'city': '西安市', 'area': '莲湖区', 'detail': 1, 'uid': '5ba667ebaf30de41c26c148c', 'detail_info': {'tag': '丽人;美发', 'type': 'beauty', 'detail_url': 'http://api.map.baidu.com/place/detail?uid=5ba667ebaf30de41c26c148c&output=html&source=placeapi_v2', 'children': []}}"
"{'name': '美度造型', 'location': {'lat': 34.297931, 'lng': 108.848855}, 'address': '陕西省西安市未央区三桥街道连霍高速公路锦绣公园西', 'province': '陕西省', 'city': '西安市', 'area': '未央区', 'street_id': '39a70e12a6e88150d8131854', 'detail': 1, 'uid': '39a70e12a6e88150d8131854', 'detail_info': {'tag': '丽人;美发', 'type': 'beauty', 'detail_url': 'http://api.map.baidu.com/place/detail?uid=39a70e12a6e88150d8131854&output=html&source=placeapi_v2', 'overall_rating': '0.0', 'children': []}}"
"{'name': '艾美造型', 'location': {'lat': 34.283451, 'lng': 108.823002}, 'address': '天台六路37号附近', 'province': '陕西省', 'city': '西安市', 'area': '未央区', 'street_id': '46b0661f22b56f8fd0ff23c1', 'detail': 1, 'uid': '46b0661f22b56f8fd0ff23c1', 'detail_info': {'tag': '丽人;美发', 'navi_location': {'lng': 108.82307621738, 'lat': 34.283386276821}, 'type': 'beauty', 'detail_url': 'http://api.map.baidu.com/place/detail?uid=46b0661f22b56f8fd0ff23c1&output=html&source=placeapi_v2', 'children': []}}"
"{'name': '发轩造型烫染沙龙', 'location': {'lat': 34.292175, 'lng': 108.880045}, 'address': '邓六路20号', 'province': '陕西省', 'city': '西安市', 'area': '莲湖区', 'street_id': 'b18d888a51953173aeb22a4b', 'telephone': '13720772725', 'detail': 1, 'uid': 'b18d888a51953173aeb22a4b', 'detail_info': {'tag': '丽人;美发', 'type': 'beauty', 'detail_url': 'http://api.map.baidu.com/place/detail?uid=b18d888a51953173aeb22a4b&output=html&source=placeapi_v2', 'price': '103.0', 'children': []}}"
"{'name': '伊美造型', 'location': {'lat': 34.286717, 'lng': 108.841238}, 'address': '陕西省西安市未央区武警路25号附近', 'province': '陕西省', 'city': '西安市', 'area': '未央区', 'telephone': '18165363158', 'detail': 1, 'uid': '9dfa32a0413158a926e0a0c8', 'detail_info': {'tag': '丽人;美发', 'type': 'beauty', 'detail_url': 'http://api.map.baidu.com/place/detail?uid=9dfa32a0413158a926e0a0c8&output=html&source=placeapi_v2', 'children': []}}"
"{'name': '锺辰造型', 'location': {'lat': 34.311477, 'lng': 108.850939}, 'address': '三桥街道三桥建章路欧陆花园对面', 'province': '陕西省', 'city': '西安市', 'area': '未央区', 'street_id': 'a91e37f18ccedbe388fc0633', 'detail': 1, 'uid': 'a91e37f18ccedbe388fc0633', 'detail_info': {'tag': '丽人;美发', 'navi_location': {'lng': 108.8510128486, 'lat': 34.311661854173}, 'type': 'beauty', 'detail_url': 'http://api.map.baidu.com/place/detail?uid=a91e37f18ccedbe388fc0633&output=html&source=placeapi_v2', 'overall_rating': '0.0', 'children': []}}"
"{'name': '爱时尚美发工作室', 'location': {'lat': 34.291787, 'lng': 108.882686}, 'address': '陕西省西安市莲湖区大兴西路84号附近', 'province': '陕西省', 'city': '西安市', 'area': '莲湖区', 'detail': 1, 'uid': 'c68eac49250f4c5783a00c46', 'detail_info': {'tag': '丽人;美发', 'type': 'beauty', 'detail_url': 'http://api.map.baidu.com/place/detail?uid=c68eac49250f4c5783a00c46&output=html&source=placeapi_v2', 'children': []}}"
"{'name': '艺扬', 'location': {'lat': 34.29389, 'lng': 108.864306}, 'address': '陕西省西安市莲湖区崇智路', 'province': '陕西省', 'city': '西安市', 'area': '莲湖区', 'telephone': '17691110184', 'detail': 1, 'uid': '457ed8e1b4ae194a21f017ea', 'detail_info': {'tag': '丽人;美发', 'type': 'beauty', 'detail_url': 'http://api.map.baidu.com/place/detail?uid=457ed8e1b4ae194a21f017ea&output=html&source=placeapi_v2', 'children': []}}"
"{'name': '尚宣造型', 'location': {'lat': 34.283175, 'lng': 108.823541}, 'address': '陕西省西安市未央区西户公路', 'province': '陕西省', 'city': '西安市', 'area': '未央区', 'detail': 1, 'uid': '6c0d8e6e1528083817b54bad', 'detail_info': {'tag': '丽人;美发', 'type': 'beauty', 'detail_url': 'http://api.map.baidu.com/place/detail?uid=6c0d8e6e1528083817b54bad&output=html&source=placeapi_v2', 'children': []}}"
"{'name': '动感发型(双拥路店)', 'location': {'lat': 34.294121, 'lng': 108.836585}, 'address': '三桥安置新村3排2栋1层', 'province': '陕西省', 'city': '西安市', 'area': '未央区', 'detail': 1, 'uid': '2fb09c0f0fc81ad7ca291537', 'detail_info': {'tag': '丽人;美发', 'type': 'beauty', 'detail_url': 'http://api.map.baidu.com/place/detail?uid=2fb09c0f0fc81ad7ca291537&output=html&source=placeapi_v2', 'children': []}}"
"{'name': '本色发型帮助', 'location': {'lat': 34.291133, 'lng': 108.892739}, 'address': '陕西省西安市莲湖区大兴西路', 'province': '陕西省', 'city': '西安市', 'area': '莲湖区', 'detail': 1, 'uid': 'c6fe05a3ddb7a8e088db7332', 'detail_info': {'tag': '丽人;美发', 'type': 'beauty', 'detail_url': 'http://api.map.baidu.com/place/detail?uid=c6fe05a3ddb7a8e088db7332&output=html&source=placeapi_v2', 'children': []}}"
"{'name': '佳美发艺纹绣(石化大道店)', 'location': {'lat': 34.327752, 'lng': 108.851528}, 'address': '陕西省西安市未央区石化大道北(焦家村小学东)', 'province': '陕西省', 'city': '西安市', 'area': '未央区', 'street_id': '4bac2af028eaed912a02e10c', 'detail': 1, 'uid': '4bac2af028eaed912a02e10c', 'detail_info': {'tag': '丽人;美发', 'type': 'beauty', 'detail_url': 'http://api.map.baidu.com/place/detail?uid=4bac2af028eaed912a02e10c&output=html&source=placeapi_v2', 'overall_rating': '1.0', 'comment_num': '3', 'children': []}}"
"{'name': '西柚造型', 'location': {'lat': 34.36814, 'lng': 108.871502}, 'address': '陕西省西安市未央区尚苑路', 'province': '陕西省', 'city': '西安市', 'area': '未央区', 'telephone': '13228038449', 'detail': 1, 'uid': 'bdbe17c38d196bfed7b74e4f', 'detail_info': {'tag': '丽人;美发', 'type': 'beauty', 'detail_url': 'http://api.map.baidu.com/place/detail?uid=bdbe17c38d196bfed7b74e4f&output=html&source=placeapi_v2', 'overall_rating': '5.0', 'comment_num': '4', 'children': []}}"
"{'name': '旭颜芳华问题性皮肤修复中心', 'location': {'lat': 34.334005, 'lng': 108.848708}, 'address': '建章路北段19号丽宾酒店二楼', 'province': '陕西省', 'city': '西安市', 'area': '未央区', 'telephone': '18629315613', 'detail': 1, 'uid': 'ad2eda3ea048521d7bf79684', 'detail_info': {'tag': '丽人;美容', 'type': 'beauty', 'detail_url': 'http://api.map.baidu.com/place/detail?uid=ad2eda3ea048521d7bf79684&output=html&source=placeapi_v2', 'price': '88.0', 'overall_rating': '3.0', 'children': []}}"
"{'name': '蒂凡尼发型', 'location': {'lat': 34.368126, 'lng': 108.867567}, 'address': '草滩九路与尚苑路向东250米(创新花园小区)', 'province': '陕西省', 'city': '西安市', 'area': '未央区', 'detail': 1, 'uid': '6ce9a4c297c5108ca1d2303f', 'detail_info': {'tag': '丽人;美发', 'type': 'beauty', 'detail_url': 'http://api.map.baidu.com/place/detail?uid=6ce9a4c297c5108ca1d2303f&output=html&source=placeapi_v2', 'children': []}}"
"{'name': '新感觉造型(尚稷路店)', 'location': {'lat': 34.373591, 'lng': 108.876598}, 'address': '草滩生态产业园场部小区9号楼1层3号', 'province': '陕西省', 'city': '西安市', 'area': '未央区', 'street_id': '40032779e0919e452bd7ab25', 'detail': 1, 'uid': '40032779e0919e452bd7ab25', 'detail_info': {'tag': '丽人;美发', 'navi_location': {'lng': 108.87655656822, 'lat': 34.373859823321}, 'type': 'beauty', 'detail_url': 'http://api.map.baidu.com/place/detail?uid=40032779e0919e452bd7ab25&output=html&source=placeapi_v2', 'overall_rating': '3.0', 'comment_num': '3', 'children': []}}"
"{'name': '梦蕾美发屋', 'location': {'lat': 34.347213, 'lng': 108.891228}, 'address': '陕西省西安市未央区丰产路秦渭批发部(感业寺小学附近)', 'province': '陕西省', 'city': '西安市', 'area': '未央区', 'street_id': '8e2cdbd16e88d02d14b54b7b', 'telephone': '18392018213', 'detail': 1, 'uid': '8e2cdbd16e88d02d14b54b7b', 'detail_info': {'tag': '丽人;美发', 'type': 'beauty', 'detail_url': 'http://api.map.baidu.com/place/detail?uid=8e2cdbd16e88d02d14b54b7b&output=html&source=placeapi_v2', 'overall_rating': '0.0', 'comment_num': '2', 'children': []}}"
"{'name': '花蔓容貌管理中心', 'location': {'lat': 34.326846, 'lng': 108.848128}, 'address': '陕西省西安市未央区建章路57号附近', 'province': '陕西省', 'city': '西安市', 'area': '未央区', 'detail': 1, 'uid': '64acc7a0a564d187aecb66cf', 'detail_info': {'tag': '丽人;美容', 'type': 'beauty', 'detail_url': 'http://api.map.baidu.com/place/detail?uid=64acc7a0a564d187aecb66cf&output=html&source=placeapi_v2', 'children': []}}"
"{'name': '经典造型发型会所(尚稷路店)', 'location': {'lat': 34.373598, 'lng': 108.877251}, 'address': '陕西省西安市未央区尚稷路', 'province': '陕西省', 'city': '西安市', 'area': '未央区', 'street_id': 'b24111f032b101bf593ac84b', 'telephone': '13909252065', 'detail': 1, 'uid': '67ae0d91c6ce5215128824fc', 'detail_info': {'tag': '丽人;美发', 'type': 'beauty', 'detail_url': 'http://api.map.baidu.com/place/detail?uid=67ae0d91c6ce5215128824fc&output=html&source=placeapi_v2', 'price': '66.0', 'overall_rating': '4.6', 'comment_num': '35', 'children': []}}"
"{'name': '秀发婷美发连锁机构', 'location': {'lat': 34.334388, 'lng': 108.8489}, 'address': '西咸新区沣东新城建章路北段天缘丽居4号楼1层5号商铺', 'province': '陕西省', 'city': '西安市', 'area': '未央区', 'street_id': '6a0f8d84ee8974d62806ceb1', 'telephone': '(029)84530038', 'detail': 1, 'uid': '6a0f8d84ee8974d62806ceb1', 'detail_info': {'tag': '丽人;美发', 'type': 'beauty', 'detail_url': 'http://api.map.baidu.com/place/detail?uid=6a0f8d84ee8974d62806ceb1&output=html&source=placeapi_v2', 'overall_rating': '1.0', 'comment_num': '2', 'children': []}}"
"{'name': '发艺界专业造型美发美容(石化大道店)', 'location': {'lat': 34.3283, 'lng': 108.87132}, 'address': '陕西省西安市未央区石化大道与邓六路交叉口北100米', 'province': '陕西省', 'city': '西安市', 'area': '未央区', 'street_id': '6643b3484880c5198bf15d01', 'detail': 1, 'uid': '6643b3484880c5198bf15d01', 'detail_info': {'tag': '丽人;美容', 'type': 'beauty', 'detail_url': 'http://api.map.baidu.com/place/detail?uid=6643b3484880c5198bf15d01&output=html&source=placeapi_v2', 'overall_rating': '3.0', 'children': []}}"
"{'name': '泓姿维娜美容养生', 'location': {'lat': 34.330178, 'lng': 108.887078}, 'address': '陕西省西安市未央区石化大道', 'province': '陕西省', 'city': '西安市', 'area': '未央区', 'telephone': '13289318899', 'detail': 1, 'uid': '9b726830e3947b6bc9fa5f08', 'detail_info': {'tag': '丽人;美容', 'type': 'beauty', 'detail_url': 'http://api.map.baidu.com/place/detail?uid=9b726830e3947b6bc9fa5f08&output=html&source=placeapi_v2', 'children': []}}"
"{'name': '格色风发型设计', 'location': {'lat': 34.336095, 'lng': 108.84881}, 'address': '陕西省西安市未央区建章路北段世城商贸A排8号', 'province': '陕西省', 'city': '西安市', 'area': '未央区', 'street_id': '4f2de470628a540852e5c5a3', 'telephone': '18292028914', 'detail': 1, 'uid': '4f2de470628a540852e5c5a3', 'detail_info': {'tag': '丽人;美发', 'type': 'beauty', 'detail_url': 'http://api.map.baidu.com/place/detail?uid=4f2de470628a540852e5c5a3&output=html&source=placeapi_v2', 'children': []}}"
"{'name': 'sisters美容养生馆', 'location': {'lat': 34.335834, 'lng': 108.849224}, 'address': '陕西省西安市未央区建章路56号东北100米', 'province': '陕西省', 'city': '西安市', 'area': '未央区', 'detail': 1, 'uid': 'b5c8e41f2bc59975acee7acb', 'detail_info': {'tag': '丽人;美容', 'type': 'beauty', 'detail_url': 'http://api.map.baidu.com/place/detail?uid=b5c8e41f2bc59975acee7acb&output=html&source=placeapi_v2', 'children': []}}"
"{'name': '美雅发艺', 'location': {'lat': 34.339627, 'lng': 108.848083},