"{'name': '西安市交通事故快速理赔服务中心(新同方服务点)', 'location': {'lat': 34.23873502231198, 'lng': 108.82335768134024}, 'address': '陕西省西安市雁塔区富鱼路鱼化工业园甲字8号', 'province': '陕西省', 'city': '西安市', 'area': '雁塔区', 'street_id': '66fe19669f3ee18d6cc02c02', 'telephone': '(029)88236222', 'detail': 1, 'uid': '66fe19669f3ee18d6cc02c02', 'detail_info': {'tag': '金融;投资理财', 'navi_location': {'lng': 108.83416810934, 'lat': 34.243166638086}, 'type': 'life', 'detail_url': 'http://api.map.baidu.com/place/detail?uid=66fe19669f3ee18d6cc02c02&output=html&source=placeapi_v2', 'image_num': '2', 'children': [], 'lat': 34.23873502231198, 'lng': 108.82335768134024}}"
"{'name': '陕西信合(镐京分社)', 'location': {'lat': 34.21896018320117, 'lng': 108.78538243295482}, 'address': '西安市长安区鱼斗路与镐五路交叉路口往西约50米(中国石油西侧约150米)', 'province': '陕西省', 'city': '西安市', 'area': '长安区', 'detail': 1, 'uid': 'bb099aa971fd90773e9a5e4f', 'detail_info': {'tag': '金融;信用社', 'navi_location': {'lng': 108.79670386213, 'lat': 34.223382039992}, 'type': 'life', 'detail_url': 'http://api.map.baidu.com/place/detail?uid=bb099aa971fd90773e9a5e4f&output=html&source=placeapi_v2', 'overall_rating': '4.0', 'image_num': '3', 'comment_num': '2', 'children': [], 'lat': 34.21896018320117, 'lng': 108.78538243295482}}"
"{'name': '中国建设银行(西安天台路支行)', 'location': {'lat': 34.25770312181551, 'lng': 108.82014144376586}, 'address': '西安市沣东新城天台路南段和平春天小区1层商铺', 'province': '陕西省', 'city': '西安市', 'area': '未央区', 'street_id': '4a04f91c50b576277069d3aa', 'detail': 1, 'uid': '4a04f91c50b576277069d3aa', 'detail_info': {'tag': '金融;银行', 'navi_location': {'lng': 108.83157372757, 'lat': 34.26226284574}, 'type': 'life', 'detail_url': 'http://api.map.baidu.com/place/detail?uid=4a04f91c50b576277069d3aa&output=html&source=placeapi_v2', 'overall_rating': '3.0', 'image_num': '2', 'comment_num': '3', 'children': [], 'lat': 34.25770312181551, 'lng': 108.82014144376586}}"
"{'name': '中国工商银行(西安和平工业园分理处)', 'location': {'lat': 34.256024285180374, 'lng': 108.82103483340978}, 'address': '未央区和平工业园区四号路与西宝疏导线交汇向南30米', 'province': '陕西省', 'city': '西安市', 'area': '未央区', 'street_id': 'f9f581abb2c5fe6fd813181a', 'telephone': '(029)89106177', 'detail': 1, 'uid': 'f9f581abb2c5fe6fd813181a', 'detail_info': {'tag': '金融;银行', 'navi_location': {'lng': 108.83195372427, 'lat': 34.260807804104}, 'type': 'life', 'detail_url': 'http://api.map.baidu.com/place/detail?uid=f9f581abb2c5fe6fd813181a&output=html&source=placeapi_v2', 'overall_rating': '2.0', 'image_num': '10', 'comment_num': '9', 'children': [], 'lat': 34.256024285180374, 'lng': 108.82103483340978}}"
"{'name': '车速贷中心', 'location': {'lat': 34.269382180011995, 'lng': 108.82278085423732}, 'address': '阿房一路3号', 'province': '陕西省', 'city': '西安市', 'area': '未央区', 'street_id': '48ae10c23c7865a47069d309', 'detail': 1, 'uid': '48ae10c23c7865a47069d309', 'detail_info': {'tag': '金融;投资理财', 'type': 'life', 'detail_url': 'http://api.map.baidu.com/place/detail?uid=48ae10c23c7865a47069d309&output=html&source=placeapi_v2', 'overall_rating': '5.0', 'image_num': '11', 'comment_num': '1', 'children': [], 'lat': 34.269382180011995, 'lng': 108.82278085423732}}"
"{'name': '中国人民保险', 'location': {'lat': 34.26123795812703, 'lng': 108.80645616942418}, 'address': '西宝公路北50米', 'province': '陕西省', 'city': '西安市', 'area': '长安区', 'street_id': '20319bdff24634cfd13ce3ee', 'detail': 1, 'uid': '20319bdff24634cfd13ce3ee', 'detail_info': {'tag': '金融;投资理财', 'navi_location': {'lng': 108.81754307494, 'lat': 34.265663237966}, 'type': 'life', 'detail_url': 'http://api.map.baidu.com/place/detail?uid=20319bdff24634cfd13ce3ee&output=html&source=placeapi_v2', 'image_num': '8', 'children': [], 'lat': 34.26123795812703, 'lng': 108.80645616942418}}"
"{'name': '秦农银行(天台路支行)', 'location': {'lat': 34.276072829044914, 'lng': 108.82057321882655}, 'address': '陕西省西安市未央区天台路58号', 'province': '陕西省', 'city': '西安市', 'area': '未央区', 'street_id': 'e9204cfc47d922d53517dc42', 'telephone': '(029)89101532', 'detail': 1, 'uid': 'e9204cfc47d922d53517dc42', 'detail_info': {'tag': '金融;银行', 'navi_location': {'lng': 108.83175674474, 'lat': 34.280894829642}, 'type': 'life', 'detail_url': 'http://api.map.baidu.com/place/detail?uid=e9204cfc47d922d53517dc42&output=html&source=placeapi_v2', 'overall_rating': '1.0', 'image_num': '9', 'comment_num': '5', 'children': [], 'lat': 34.276072829044914, 'lng': 108.82057321882655}}"
"{'name': '中国农业银行(王寺分理处)', 'location': {'lat': 34.26120031654578, 'lng': 108.79979057843809}, 'address': '西安市长安区沣东大道与西户公路交叉路口往东约100米(西安长安儿童康复医院南侧约100米)', 'province': '陕西省', 'city': '西安市', 'area': '长安区', 'street_id': 'c8e8f633e5cda36fab0dd83b', 'telephone': '(029)85808073', 'detail': 1, 'uid': 'c8e8f633e5cda36fab0dd83b', 'detail_info': {'tag': '金融;银行', 'navi_location': {'lng': 108.81107240608, 'lat': 34.265470166884}, 'type': 'life', 'detail_url': 'http://api.map.baidu.com/place/detail?uid=c8e8f633e5cda36fab0dd83b&output=html&source=placeapi_v2', 'overall_rating': '3.5', 'image_num': '17', 'comment_num': '7', 'children': [], 'lat': 34.26120031654578, 'lng': 108.79979057843809}}"
"{'name': '长安银行(天台路店)', 'location': {'lat': 34.26819995140738, 'lng': 108.82056824979028}, 'address': '陕西省西安市未央区三桥天台路B026号', 'province': '陕西省', 'city': '西安市', 'area': '未央区', 'street_id': '002aefe9affb9f111fe9992c', 'detail': 1, 'uid': '002aefe9affb9f111fe9992c', 'detail_info': {'tag': '金融;银行', 'navi_location': {'lng': 108.83181289782, 'lat': 34.272904335909}, 'type': 'life', 'detail_url': 'http://api.map.baidu.com/place/detail?uid=002aefe9affb9f111fe9992c&output=html&source=placeapi_v2', 'image_num': '5', 'children': [], 'lat': 34.26819995140738, 'lng': 108.82056824979028}}"
"{'name': '锦泰永昌保险销售(王寺营业部)', 'location': {'lat': 34.25652681075559, 'lng': 108.7938563521584}, 'address': '陕西省西安市长安区王寺南街69号附近', 'province': '陕西省', 'city': '西安市', 'area': '长安区', 'detail': 1, 'uid': '4c1d2a963e814f4280a00caf', 'detail_info': {'tag': '金融;投资理财', 'type': 'life', 'detail_url': 'http://api.map.baidu.com/place/detail?uid=4c1d2a963e814f4280a00caf&output=html&source=placeapi_v2', 'image_num': '5', 'children': [], 'lat': 34.25652681075559, 'lng': 108.7938563521584}}"
"{'name': '平安创展保险销售', 'location': {'lat': 34.26113135220882, 'lng': 108.79594795723904}, 'address': '陕西省西安市长安区王寺西街29号附近', 'province': '陕西省', 'city': '西安市', 'area': '长安区', 'detail': 1, 'uid': '1cbbf78b17ca0f579222e0a8', 'detail_info': {'tag': '金融;投资理财', 'type': 'life', 'detail_url': 'http://api.map.baidu.com/place/detail?uid=1cbbf78b17ca0f579222e0a8&output=html&source=placeapi_v2', 'image_num': '5', 'children': [], 'lat': 34.26113135220882, 'lng': 108.79594795723904}}"
"{'name': '中国邮政储蓄银行(西宝公路支行)', 'location': {'lat': 34.26074851248789, 'lng': 108.79964218588556}, 'address': '西安市长安区沣东大道与王寺南街交叉路口往东约100米(沣泽佳苑东南侧约150米)', 'province': '陕西省', 'city': '西安市', 'area': '长安区', 'street_id': '55ed5af7c77b3179c26c1434', 'detail': 1, 'uid': '55ed5af7c77b3179c26c1434', 'detail_info': {'tag': '金融;银行', 'type': 'life', 'detail_url': 'http://api.map.baidu.com/place/detail?uid=55ed5af7c77b3179c26c1434&output=html&source=placeapi_v2', 'overall_rating': '0.0', 'image_num': '8', 'children': [], 'lat': 34.26074851248789, 'lng': 108.79964218588556}}"
"{'name': '秦农银行(和平村支行)', 'location': {'lat': 34.260626731262256, 'lng': 108.81921487485666}, 'address': '西安市未央区沣东大道与西宝疏导线交叉路口往西约100米(伯乐城市广场)', 'province': '陕西省', 'city': '西安市', 'area': '未央区', 'telephone': '(029)89101532', 'detail': 1, 'uid': '8bfc8fda59291002f33cba95', 'detail_info': {'tag': '金融;银行', 'type': 'life', 'detail_url': 'http://api.map.baidu.com/place/detail?uid=8bfc8fda59291002f33cba95&output=html&source=placeapi_v2', 'overall_rating': '5.0', 'image_num': '1', 'comment_num': '1', 'children': [], 'lat': 34.260626731262256, 'lng': 108.81921487485666}}"
"{'name': '中国建设银行(沣东新城科源路支行)', 'location': {'lat': 34.27044351473575, 'lng': 108.7758030859877}, 'address': '芊域溪源B区', 'province': '陕西省', 'city': '西安市', 'area': '长安区', 'detail': 1, 'uid': 'edc5ed76fe3f1feca7da3991', 'detail_info': {'tag': '金融;银行', 'type': 'life', 'detail_url': 'http://api.map.baidu.com/place/detail?uid=edc5ed76fe3f1feca7da3991&output=html&source=placeapi_v2', 'overall_rating': '5.0', 'image_num': '1', 'comment_num': '1', 'children': [], 'lat': 34.27044351473575, 'lng': 108.7758030859877}}"
"{'name': '陕西信合(纪阳信用社)', 'location': {'lat': 34.260779209379386, 'lng': 108.79691664508888}, 'address': '西安市长安区沣东大道与王寺南街交叉路口往西约50米(万福花园-北区南侧)', 'province': '陕西省', 'city': '西安市', 'area': '长安区', 'street_id': '1ca6a496a5c1585f8b2fb5de', 'telephone': '(029)85808312', 'detail': 1, 'uid': '1ca6a496a5c1585f8b2fb5de', 'detail_info': {'tag': '金融;信用社', 'navi_location': {'lng': 108.80816123059, 'lat': 34.265308491193}, 'type': 'life', 'detail_url': 'http://api.map.baidu.com/place/detail?uid=1ca6a496a5c1585f8b2fb5de&output=html&source=placeapi_v2', 'overall_rating': '4.0', 'image_num': '14', 'comment_num': '2', 'children': [], 'lat': 34.260779209379386, 'lng': 108.79691664508888}}"
"{'name': '中国农业银行ATM(王寺分理处)', 'location': {'lat': 34.26119025781182, 'lng': 108.79986304900596}, 'address': '王寺东街11号附近', 'province': '陕西省', 'city': '西安市', 'area': '长安区', 'street_id': 'b7021bf803c7e984f4e73bf9', 'detail': 1, 'uid': 'b7021bf803c7e984f4e73bf9', 'detail_info': {'tag': '金融;atm', 'navi_location': {'lng': 108.81108433019, 'lat': 34.265484359272}, 'type': 'life', 'detail_url': 'http://api.map.baidu.com/place/detail?uid=b7021bf803c7e984f4e73bf9&output=html&source=placeapi_v2', 'overall_rating': '1.0', 'image_num': '4', 'comment_num': '2', 'children': [], 'lat': 34.26119025781182, 'lng': 108.79986304900596}}"
"{'name': '中国银行24小时自助银行(天台路)', 'location': {'lat': 34.268978310163504, 'lng': 108.82052466874553}, 'address': '西安市未央区天台路与阿房一路交叉路口西南侧(咸阳理工职业专修学院)', 'province': '陕西省', 'city': '西安市', 'area': '未央区', 'street_id': 'a4d2c8b97dba2cdd8c1a8985', 'detail': 1, 'uid': 'a4d2c8b97dba2cdd8c1a8985', 'detail_info': {'tag': '金融;atm', 'navi_location': {'lng': 108.83178759974, 'lat': 34.273555119734}, 'type': 'life', 'detail_url': 'http://api.map.baidu.com/place/detail?uid=a4d2c8b97dba2cdd8c1a8985&output=html&source=placeapi_v2', 'image_num': '4', 'children': [], 'lat': 34.268978310163504, 'lng': 108.82052466874553}}"
"{'name': '中国建设银行(24小时自助银行服务)', 'location': {'lat': 34.25776647546801, 'lng': 108.8203013865782}, 'address': '陕西省西安市未央区和平春天东门', 'province': '陕西省', 'city': '西安市', 'area': '未央区', 'detail': 1, 'uid': '9d77585436592fe04e5547af', 'detail_info': {'tag': '金融;atm', 'navi_location': {'lng': 108.83187253237, 'lat': 34.26233939402}, 'type': 'life', 'detail_url': 'http://api.map.baidu.com/place/detail?uid=9d77585436592fe04e5547af&output=html&source=placeapi_v2', 'overall_rating': '0.0', 'image_num': '2', 'children': [], 'lat': 34.25776647546801, 'lng': 108.8203013865782}}"
"{'name': '中国工商银行24小时自助银行服务(营业部和平工业园支行和平村和平大道中段)', 'location': {'lat': 34.25604928300032, 'lng': 108.82103485551451}, 'address': '和平村和平大道中段', 'province': '陕西省', 'city': '西安市', 'area': '未央区', 'street_id': 'e1c51b121b3b30b41f38947b', 'detail': 1, 'uid': 'e1c51b121b3b30b41f38947b', 'detail_info': {'tag': '金融;atm', 'navi_location': {'lng': 108.83194077969, 'lat': 34.260800653398}, 'type': 'life', 'detail_url': 'http://api.map.baidu.com/place/detail?uid=e1c51b121b3b30b41f38947b&output=html&source=placeapi_v2', 'overall_rating': '2.0', 'image_num': '8', 'comment_num': '4', 'children': [], 'lat': 34.25604928300032, 'lng': 108.82103485551451}}"
"{'name': '中国工商银行24小时自助银行服务(营业部沣东新城支行红光路店)', 'location': {'lat': 34.260678911539536, 'lng': 108.81910629968957}, 'address': '红光路9号', 'province': '陕西省', 'city': '西安市', 'area': '未央区', 'street_id': '7352a98421607a5ff21937cf', 'detail': 1, 'uid': '7352a98421607a5ff21937cf', 'detail_info': {'tag': '金融;atm', 'type': 'life', 'detail_url': 'http://api.map.baidu.com/place/detail?uid=7352a98421607a5ff21937cf&output=html&source=placeapi_v2', 'overall_rating': '0.0', 'image_num': '8', 'comment_num': '1', 'children': [], 'lat': 34.260678911539536, 'lng': 108.81910629968957}}"
"{'name': '陕西信合24小时自助银行', 'location': {'lat': 34.26082379495345, 'lng': 108.80377220454557}, 'address': '陕西省西安市长安区西宝公路怡园教师小区北', 'province': '陕西省', 'city': '西安市', 'area': '长安区', 'street_id': '5cf80099919193c82a02e1d2', 'detail': 1, 'uid': '5cf80099919193c82a02e1d2', 'detail_info': {'tag': '金融;atm', 'type': 'life', 'detail_url': 'http://api.map.baidu.com/place/detail?uid=5cf80099919193c82a02e1d2&output=html&source=placeapi_v2', 'image_num': '3', 'children': [], 'lat': 34.26082379495345, 'lng': 108.80377220454557}}"
"{'name': '秦农银行24小时自助银行(天台路支行)', 'location': {'lat': 34.276217347612985, 'lng': 108.82061855790236}, 'address': '西安市未央区天台路与天台五路交叉路口往东北约50米(天台新嘉园东侧)', 'province': '陕西省', 'city': '西安市', 'area': '未央区', 'street_id': 'b6e0826d2d71d909b21e367f', 'detail': 1, 'uid': 'b6e0826d2d71d909b21e367f', 'detail_info': {'tag': '金融;atm', 'type': 'life', 'detail_url': 'http://api.map.baidu.com/place/detail?uid=b6e0826d2d71d909b21e367f&output=html&source=placeapi_v2', 'overall_rating': '0.0', 'image_num': '5', 'comment_num': '2', 'children': [], 'lat': 34.276217347612985, 'lng': 108.82061855790236}}"
"{'name': '中国邮政储蓄银行24小时自助银行(西安市和平村营业所)', 'location': {'lat': 34.26067943941433, 'lng': 108.82058057161377}, 'address': '西安市未央区西宝疏导线与沣东大道交叉路口西侧(中国邮政)', 'province': '陕西省', 'city': '西安市', 'area': '未央区', 'street_id': '72e57fd71af3e3d2f8dc85fe', 'detail': 1, 'uid': '72e57fd71af3e3d2f8dc85fe', 'detail_info': {'tag': '金融;atm', 'navi_location': {'lng': 108.83189392318, 'lat': 34.265374076411}, 'type': 'life', 'detail_url': 'http://api.map.baidu.com/place/detail?uid=72e57fd71af3e3d2f8dc85fe&output=html&source=placeapi_v2', 'overall_rating': '2.0', 'image_num': '4', 'comment_num': '2', 'children': [], 'lat': 34.26067943941433, 'lng': 108.82058057161377}}"
"{'name': '农村商业银行24小时自助银行(纪阳信用社)', 'location': {'lat': 34.26079686814961, 'lng': 108.79679590481165}, 'address': '王寺西街17号附近', 'province': '陕西省', 'city': '西安市', 'area': '长安区', 'street_id': '4914d3db425f1d0d0189729f', 'detail': 1, 'uid': '4914d3db425f1d0d0189729f', 'detail_info': {'tag': '金融;atm', 'type': 'life', 'detail_url': 'http://api.map.baidu.com/place/detail?uid=4914d3db425f1d0d0189729f&output=html&source=placeapi_v2', 'overall_rating': '0.0', 'image_num': '4', 'comment_num': '1', 'children': [], 'lat': 34.26079686814961, 'lng': 108.79679590481165}}"
"{'name': '中国邮政银行小时24自助银行服务', 'location': {'lat': 34.26065586034417, 'lng': 108.79982430537102}, 'address': '西安市长安区沣东大道与王寺南街交叉路口往东约100米(沣泽佳苑东南侧约150米)', 'province': '陕西省', 'city': '西安市', 'area': '长安区', 'street_id': 'f46285a9f61dd19db11e3631', 'detail': 1, 'uid': 'f46285a9f61dd19db11e3631', 'detail_info': {'tag': '金融;atm', 'navi_location': {'lng': 108.81099182718, 'lat': 34.265366089403}, 'type': 'life', 'detail_url': 'http://api.map.baidu.com/place/detail?uid=f46285a9f61dd19db11e3631&output=html&source=placeapi_v2', 'image_num': '5', 'children': [], 'lat': 34.26065586034417, 'lng': 108.79982430537102}}"
"{'name': '新疆买卖提烤肉', 'location': {'lat': 34.26182840716822, 'lng': 108.79623737354474}, 'address': '陕西省西安市长安区沣东大道', 'province': '陕西省', 'city': '西安市', 'area': '长安区', 'detail': 1, 'uid': 'd105ccfed309daa1ce04efd6', 'detail_info': {'tag': '美食;其他', 'type': 'cater', 'detail_url': 'http://api.map.baidu.com/place/detail?uid=d105ccfed309daa1ce04efd6&output=html&source=placeapi_v2', 'overall_rating': '4.0', 'comment_num': '1', 'children': [], 'lat': 34.26182840716822, 'lng': 108.79623737354474}}"
"{'name': '长安银行24小时自助银行服务(天台路店)', 'location': {'lat': 34.268307212899785, 'lng': 108.82054119294162}, 'address': '陕西省西安市未央区三桥天台路B026号', 'province': '陕西省', 'city': '西安市', 'area': '未央区', 'street_id': '778014651abf1714441a32dd', 'detail': 1, 'uid': '778014651abf1714441a32dd', 'detail_info': {'tag': '金融;atm', 'type': 'life', 'detail_url': 'http://api.map.baidu.com/place/detail?uid=778014651abf1714441a32dd&output=html&source=placeapi_v2', 'image_num': '6', 'children': [], 'lat': 34.268307212899785, 'lng': 108.82054119294162}}"
"{'name': '秦州银行24小时自助银行服务(和平村支行)', 'location': {'lat': 34.2605454457703, 'lng': 108.81896737733177}, 'address': '陕西省西安市未央区和平村东1巷北70米', 'province': '陕西省', 'city': '西安市', 'area': '未央区', 'detail': 1, 'uid': '79786a1687bdc02517a19076', 'detail_info': {'tag': '金融;atm', 'type': 'life', 'detail_url': 'http://api.map.baidu.com/place/detail?uid=79786a1687bdc02517a19076&output=html&source=placeapi_v2', 'overall_rating': '3.0', 'image_num': '3', 'children': [], 'lat': 34.2605454457703, 'lng': 108.81896737733177}}"
"{'name': '中国建设银行(西安三桥二十四城支行)', 'location': {'lat': 34.292427856474, 'lng': 108.8210703173491}, 'address': '未央区三桥新街华润二十四城小区6号楼1层', 'province': '陕西省', 'city': '西安市', 'area': '未央区', 'street_id': '6df6b46df660709622022097', 'telephone': '(029)84519141', 'detail': 1, 'uid': '6df6b46df660709622022097', 'detail_info': {'tag': '金融;银行', 'navi_location': {'lng': 108.8321683591, 'lat': 34.297203914276}, 'type': 'life', 'detail_url': 'http://api.map.baidu.com/place/detail?uid=6df6b46df660709622022097&output=html&source=placeapi_v2', 'overall_rating': '4.4', 'image_num': '9', 'comment_num': '12', 'children': [], 'lat': 34.292427856474, 'lng': 108.8210703173491}}"
"{'name': '中国农业银行(西安沣东新城支行)', 'location': {'lat': 34.29646406628347, 'lng': 108.82094969041005}, 'address': '三桥街道西大明宫建材家居城一楼', 'province': '陕西省', 'city': '西安市', 'area': '未央区', 'street_id': '16dadc97dfca840288fc067a', 'telephone': '(029)89503828', 'detail': 1, 'uid': '16dadc97dfca840288fc067a', 'detail_info': {'tag': '金融;银行', 'navi_location': {'lng': 108.8318953964, 'lat': 34.301151741321}, 'type': 'life', 'detail_url': 'http://api.map.baidu.com/place/detail?uid=16dadc97dfca840288fc067a&output=html&source=placeapi_v2', 'overall_rating': '0.0', 'image_num': '10', 'comment_num': '2', 'children': [], 'lat': 34.29646406628347, 'lng': 108.82094969041005}}"
"{'name': '个人信用报告查询网点', 'location': {'lat': 34.293912842675375, 'lng': 108.82262213648363}, 'address': '陕西省西安市未央区三桥新街236号(秦农银行沣东支行)', 'province': '陕西省', 'city': '西安市', 'area': '未央区', 'detail': 1, 'uid': '20e3bb0249d2936fae080f1a', 'detail_info': {'tag': '金融;其他', 'type': 'life', 'detail_url': 'http://api.map.baidu.com/place/detail?uid=20e3bb0249d2936fae080f1a&output=html&source=placeapi_v2', 'image_num': '1', 'children': [], 'lat': 34.293912842675375, 'lng': 108.82262213648363}}"
"{'name': '招商证券(西咸新区证券营业部)', 'location': {'lat': 34.291978652988476, 'lng': 108.82040777303962}, 'address': '陕西省西安市未央区华润二十四城7号楼10104', 'province': '陕西省', 'city': '西安市', 'area': '未央区', 'street_id': '6e49c068ccc91d02220220cf', 'telephone': '(029)89506511', 'detail': 1, 'uid': '6e49c068ccc91d02220220cf', 'detail_info': {'tag': '金融;投资理财', 'type': 'life', 'detail_url': 'http://api.map.baidu.com/place/detail?uid=6e49c068ccc91d02220220cf&output=html&source=placeapi_v2', 'overall_rating': '0.0', 'image_num': '7', 'comment_num': '0', 'children': [], 'lat': 34.291978652988476, 'lng': 108.82040777303962}}"
"{'name': '中国工商银行(陕西自贸区西安沣东支行营业室)', 'location': {'lat': 34.302693846926076, 'lng': 108.80851207499944}, 'address': '西安市未央区世纪大道启航时代广场A区', 'province': '陕西省', 'city': '西安市', 'area': '未央区', 'street_id': '7376b6ac97084171d3ff23d7', 'telephone': '(029)89505255', 'detail': 1, 'uid': '7376b6ac97084171d3ff23d7', 'detail_info': {'tag': '金融;银行', 'navi_location': {'lng': 108.81862075769, 'lat': 34.307480865312}, 'type': 'life', 'detail_url': 'http://api.map.baidu.com/place/detail?uid=7376b6ac97084171d3ff23d7&output=html&source=placeapi_v2', 'overall_rating': '3.7', 'image_num': '3', 'comment_num': '4', 'children': [], 'lat': 34.302693846926076, 'lng': 108.80851207499944}}"
"{'name': '和盛金融', 'location': {'lat': 34.296755938213614, 'lng': 108.81238734289094}, 'address': '西部车城内小吃城黄楼三楼', 'province': '陕西省', 'city': '西安市', 'area': '未央区', 'detail': 1, 'uid': '123164da91cdeed24afc8d87', 'detail_info': {'tag': '金融;投资理财', 'type': 'life', 'detail_url': 'http://api.map.baidu.com/place/detail?uid=123164da91cdeed24afc8d87&output=html&source=placeapi_v2', 'image_num': '1', 'children': [], 'lat': 34.296755938213614, 'lng': 108.81238734289094}}"
"{'name': '人保财险', 'location': {'lat': 34.30232179020603, 'lng': 108.80853144083541}, 'address': '陕西省西安市未央区启航时代广场b座', 'province': '陕西省', 'city': '西安市', 'area': '未央区', 'detail': 1, 'uid': '0f5512e61f7de47f931fc9fa', 'detail_info': {'tag': '金融;投资理财', 'type': 'life', 'detail_url': 'http://api.map.baidu.com/place/detail?uid=0f5512e61f7de47f931fc9fa&output=html&source=placeapi_v2', 'image_num': '1', 'children': [], 'lat': 34.30232179020603, 'lng': 108.80853144083541}}"
"{'name': '中国民生银行', 'location': {'lat': 34.293477712702625, 'lng': 108.81947533199207}, 'address': '陕西省西安市西咸新区三桥新街华润二十四城二期东门口', 'province': '陕西省', 'city': '西安市', 'area': '未央区', 'street_id': 'c1f374ece30715e94d776e18', 'detail': 1, 'uid': 'c1f374ece30715e94d776e18', 'detail_info': {'tag': '金融;银行', 'type': 'life', 'detail_url': 'http://api.map.baidu.com/place/detail?uid=c1f374ece30715e94d776e18&output=html&source=placeapi_v2', 'overall_rating': '5.0', 'image_num': '5', 'comment_num': '5', 'children': [], 'lat': 34.293477712702625, 'lng': 108.81947533199207}}"
"{'name': '西安市万股典当行有限公司', 'location': {'lat': 34.29713561225307, 'lng': 108.81949942362468}, 'address': '三桥新街大明宫建材家居1层', 'province': '陕西省', 'city': '西安市', 'area': '未央区', 'street_id': '7bff0408fc34bcbea2d230eb', 'detail': 1, 'uid': '7bff0408fc34bcbea2d230eb', 'detail_info': {'tag': '金融;典当行', 'type': 'life', 'detail_url': 'http://api.map.baidu.com/place/detail?uid=7bff0408fc34bcbea2d230eb&output=html&source=placeapi_v2', 'overall_rating': '5.0', 'image_num': '12', 'comment_num': '5', 'children': [], 'lat': 34.29713561225307, 'lng': 108.81949942362468}}"
"{'name': '秦农银行(沣东支行)', 'location': {'lat': 34.293961765873625, 'lng': 108.8227437374597}, 'address': '三桥正街236号嘉宝国际星城一层', 'province': '陕西省', 'city': '西安市', 'area': '未央区', 'street_id': '688cc761ec0411a41b11d5b7', 'telephone': '(029)89106090', 'detail': 1, 'uid': '688cc761ec0411a41b11d5b7', 'detail_info': {'tag': '金融;银行', 'navi_location': {'lng': 108.83399415966, 'lat': 34.298761069104}, 'type': 'life', 'detail_url': 'http://api.map.baidu.com/place/detail?uid=688cc761ec0411a41b11d5b7&output=html&source=placeapi_v2', 'overall_rating': '2.7', 'image_num': '6', 'comment_num': '4', 'children': [], 'lat': 34.293961765873625, 'lng': 108.8227437374597}}"
"{'name': '陕西和意保险代理有限公司(西安三桥营业部)', 'location': {'lat': 34.291439494886994, 'lng': 108.8094093511793}, 'address': '天台八路付一路东50米', 'province': '陕西省', 'city': '西安市', 'area': '未央区', 'street_id': '5dd614484cbf9289e115f9fd', 'detail': 1, 'uid': '5dd614484cbf9289e115f9fd', 'detail_info': {'tag': '金融;投资理财', 'type': 'life', 'detail_url': 'http://api.map.baidu.com/place/detail?uid=5dd614484cbf9289e115f9fd&output=html&source=placeapi_v2', 'image_num': '1', 'children': [], 'lat': 34.291439494886994, 'lng': 108.8094093511793}}"
"{'name': '长安银行(沣东新城支行)', 'location': {'lat': 34.296411405004534, 'lng': 108.8211226379839}, 'address': '陕西省西安市未央区后围寨立交大明宫家居城1层', 'province': '陕西省', 'city': '西安市', 'area': '未央区', 'street_id': 'd22d64f86bdf4c5df5c59c14', 'detail': 1, 'uid': 'd22d64f86bdf4c5df5c59c14', 'detail_info': {'tag': '金融;银行', 'type': 'life', 'detail_url': 'http://api.map.baidu.com/place/detail?uid=d22d64f86bdf4c5df5c59c14&output=html&source=placeapi_v2', 'overall_rating': '3.0', 'image_num': '7', 'comment_num': '4', 'children': [], 'lat': 34.296411405004534, 'lng': 108.8211226379839}}"
"{'name': '西安银行(西安三桥大明宫商城小微支行)', 'location': {'lat': 34.29719646580355, 'lng': 108.8194169321898}, 'address': '西安市未央区三桥街道三桥新街139号大明宫建材市场1层', 'province': '陕西省', 'city': '西安市', 'area': '未央区', 'street_id': 'bdf919d39352b682f2193712', 'telephone': '(029)88891613', 'detail': 1, 'uid': 'bdf919d39352b682f2193712', 'detail_info': {'tag': '金融;银行', 'navi_location': {'lng': 108.83039205877, 'lat': 34.301745251983}, 'type': 'life', 'detail_url': 'http://api.map.baidu.com/place/detail?uid=bdf919d39352b682f2193712&output=html&source=placeapi_v2', 'overall_rating': '0.0', 'image_num': '10', 'comment_num': '3', 'children': [], 'lat': 34.29719646580355, 'lng': 108.8194169321898}}"
"{'name': '华泰保险', 'location': {'lat': 34.29655751693125, 'lng': 108.81164645872664}, 'address': '陕西省西安市未央区天台九路东段西70米', 'province': '陕西省', 'city': '西安市', 'area': '未央区', 'detail': 1, 'uid': 'bd5d6ce24418b435c16c14d6', 'detail_info': {'tag': '金融;投资理财', 'type': 'life', 'detail_url': 'http://api.map.baidu.com/place/detail?uid=bd5d6ce24418b435c16c14d6&output=html&source=placeapi_v2', 'image_num': '3', 'children': [], 'lat': 34.29655751693125, 'lng': 108.81164645872664}}"
"{'name': '中国农业发展银行(西咸路)', 'location': {'lat': 34.30284443596044, 'lng': 108.80786652560077}, 'address': '三桥街道启航时代广场A座16楼', 'province': '陕西省', 'city': '西安市', 'area': '未央区', 'street_id': 'c0d2c85666254e1ecae33c27', 'detail': 1, 'uid': 'c0d2c85666254e1ecae33c27', 'detail_info': {'tag': '金融;银行', 'navi_location': {'lng': 108.81937080327, 'lat': 34.307719512738}, 'type': 'life', 'detail_url': 'http://api.map.baidu.com/place/detail?uid=c0d2c85666254e1ecae33c27&output=html&source=placeapi_v2', 'overall_rating': '0.0', 'image_num': '1', 'comment_num': '1', 'children': [], 'lat': 34.30284443596044, 'lng': 108.80786652560077}}"
"{'name': '秦农银行', 'location': {'lat': 34.30064009887423, 'lng': 108.81243390274669}, 'address': '沣东新城启航佳苑B区9号楼底商', 'province': '陕西省', 'city': '西安市', 'area': '未央区', 'telephone': '(029)89109193', 'detail': 1, 'uid': '869f3d0a0661140ce9e58271', 'detail_info': {'tag': '金融;银行', 'type': 'life', 'detail_url': 'http://api.map.baidu.com/place/detail?uid=869f3d0a0661140ce9e58271&output=html&source=placeapi_v2', 'image_num': '1', 'children': [], 'lat': 34.30064009887423, 'lng': 108.81243390274669}}"
"{'name': '易商金融陕西分公司', 'location': {'lat': 34.28361778298936, 'lng': 108.8163461019011}, 'address': '陕西省西安市未央区天台路92号西南100米', 'province': '陕西省', 'city': '西安市', 'area': '未央区', 'detail': 1, 'uid': '9ffdd3714adfddd649fc8d09', 'detail_info': {'tag': '公司企业;公司', 'type': 'enterprise', 'detail_url': 'http://api.map.baidu.com/place/detail?uid=9ffdd3714adfddd649fc8d09&output=html&source=placeapi_v2', 'children': [], 'lat': 34.28361778298936, 'lng': 108.8163461019011}}"
"{'name': '中国农业银行24小时自助银行(启航时代广场店)', 'location': {'lat': 34.302601421802365, 'lng': 108.80867827789689}, 'address': '陕西省西安市未央区西咸路501号起航时代广场B座1层', 'province': '陕西省', 'city': '西安市', 'area': '未央区', 'street_id': 'e57c019a01185edd3310af38', 'detail': 1, 'uid': 'e57c019a01185edd3310af38', 'detail_info': {'tag': '金融;atm', 'type': 'life', 'detail_url': 'http://api.map.baidu.com/place/detail?uid=e57c019a01185edd3310af38&output=html&source=placeapi_v2', 'overall_rating': '3.0', 'image_num': '1', 'children': [], 'lat': 34.302601421802365, 'lng': 108.80867827789689}}"
"{'name': '领界汽车金融', 'location': {'lat': 34.28210591671945, 'lng': 108.81702273396239}, 'address': '天台七路7号附近', 'province': '陕西省', 'city': '西安市', 'area': '未央区', 'street_id': '71594edec76ac688364aaefc', 'detail': 1, 'uid': '71594edec76ac688364aaefc', 'detail_info': {'tag': '公司企业;公司', 'type': 'enterprise', 'detail_url': 'http://api.map.baidu.com/place/detail?uid=71594edec76ac688364aaefc&output=html&source=placeapi_v2', 'children': [], 'lat': 34.28210591671945, 'lng': 108.81702273396239}}"
"{'name': '中国农业银行24小时自助银行服务(西安沣东新城支行)', 'location': {'lat': 34.29648047302179, 'lng': 108.82090745685481}, 'address': '陕西省西安市未央区后围寨立交大明宫家居城1层', 'province': '陕西省', 'city': '西安市', 'area': '未央区', 'street_id': '32f8d59377e0a5878d1a8928', 'detail': 1, 'uid': '32f8d59377e0a5878d1a8928', 'detail_info': {'tag': '金融;atm', 'navi_location': {'lng': 108.83184313029, 'lat': 34.301022266374}, 'type': 'life', 'detail_url': 'http://api.map.baidu.com/place/detail?uid=32f8d59377e0a5878d1a8928&output=html&source=placeapi_v2', 'overall_rating': '0.0', 'image_num': '9', 'comment_num': '2', 'children': [], 'lat': 34.29648047302179, 'lng': 108.82090745685481}}"
"{'name': '西安银行24小时自助银行(西安三桥大明宫商城小微支行)', 'location': {'lat': 34.29715732227358, 'lng': 108.81933950637158}, 'address': '西安市未央区三桥新街139号大明宫建材家居三桥店B1层附近', 'province': '陕西省', 'city': '西安市', 'area': '未央区', 'street_id': '2b10eb82c791761e2806ce7a', 'detail': 1, 'uid': '2b10eb82c791761e2806ce7a', 'detail_info': {'tag': '金融;atm', 'type': 'life', 'detail_url': 'http://api.map.baidu.com/place/detail?uid=2b10eb82c791761e2806ce7a&output=html&source=placeapi_v2', 'image_num': '2', 'children': [], 'lat': 34.29715732227358, 'lng': 108.81933950637158}}"
"{'name': '中国工商银行24小时自助银行(启航时代广场B座西南)', 'location': {'lat': 34.30283138398913, 'lng': 108.80833677938323}, 'address': '西安市三桥后围寨西兰路西宝高速立交路北启航时代广场C区', 'province': '陕西省', 'city': '西安市', 'area': '未央区', 'street_id': '8754837f7fbc95369fec2b62', 'detail': 1, 'uid': '8754837f7fbc95369fec2b62', 'detail_info': {'tag': '金融;atm', 'navi_location': {'lng': 108.81971986561, 'lat': 34.307600412038}, 'type': 'life', 'detail_url': 'http://api.map.baidu.com/place/detail?uid=8754837f7fbc95369fec2b62&output=html&source=placeapi_v2', 'image_num': '2', 'children': [], 'lat': 34.30283138398913, 'lng': 108.80833677938323}}"
"{'name': '宁夏银行(启航时代广场店)', 'location': {'lat': 34.302775361300654, 'lng': 108.80760878859735}, 'address': '西咸路501号启航时代广场A座1层', 'province': '陕西省', 'city': '西安市', 'area': '未央区', 'detail': 1, 'uid': '51f1dfe1739850465f17c3a3', 'detail_info': {'tag': '金融;atm', 'type': 'life', 'detail_url': 'http://api.map.baidu.com/place/detail?uid=51f1dfe1739850465f17c3a3&output=html&source=placeapi_v2', 'overall_rating': '5.0', 'image_num': '1', 'comment_num': '2', 'children': [], 'lat': 34.302775361300654, 'lng': 108.80760878859735}}"
"{'name': '秦农银行24小时自助银行服务(沣东支行)', 'location': {'lat': 34.294024883079, 'lng': 108.82272663776934}, 'address': '西安市未央区三桥新街与征和六路交叉路口往西约50米(嘉宝国际星城)', 'province': '陕西省', 'city': '西安市', 'area': '未央区', 'street_id': 'cc783e37cb28d6e0c9fa5f39', 'detail': 1, 'uid': 'cc783e37cb28d6e0c9fa5f39', 'detail_info': {'tag': '金融;atm', 'type': 'life', 'detail_url': 'http://api.map.baidu.com/place/detail?uid=cc783e37cb28d6e0c9fa5f39&output=html&source=placeapi_v2', 'image_num': '7', 'children': [], 'lat': 34.294024883079, 'lng': 108.82272663776934}}"
"{'name': '中国银行24小时自助银行服务', 'location': {'lat': 34.28665263951777, 'lng': 108.79484403895606}, 'address': '西安市长安区征和四路与太平路交叉路口往东约100米(西安沣东自贸产业园)', 'province': '陕西省', 'city': '西安市', 'area': '长安区', 'detail': 1, 'uid': 'cc20b4158cacc5bf82288a9b', 'detail_info': {'tag': '金融;atm', 'navi_location': {'lng': 108.80572762075, 'lat': 34.291255164906}, 'type': 'life', 'detail_url': 'http://api.map.baidu.com/place/detail?uid=cc20b4158cacc5bf82288a9b&output=html&source=placeapi_v2', 'image_num': '4', 'children': [], 'lat': 34.28665263951777, 'lng': 108.79484403895606}}"
"{'name': '蔚蓝天境', 'location': {'lat': 34.30131196321229, 'lng': 108.81100897054573}, 'address': '陕西省西安市未央区三桥街道世纪大道启航佳苑东区', 'province': '陕西省', 'city': '西安市', 'area': '未央区', 'street_id': '07eef64a41b57410cac3dbb0', 'detail': 1, 'uid': '07eef64a41b57410cac3dbb0', 'detail_info': {'tag': '休闲娱乐;其他', 'type': 'life', 'detail_url': 'http://api.map.baidu.com/place/detail?uid=07eef64a41b57410cac3dbb0&output=html&source=placeapi_v2', 'price': '163', 'overall_rating': '5.0', 'image_num': '12', 'comment_num': '6', 'children': [], 'lat': 34.30131196321229, 'lng': 108.81100897054573}}"
"{'name': '重庆银行24小时自助银行(西安沣东支行)', 'location': {'lat': 34.29243642537983, 'lng': 108.82229373056884}, 'address': '陕西省西安市未央区征和六路', 'province': '陕西省', 'city': '西安市', 'area': '未央区', 'street_id': 'f5c279a242f3c7ba220262b0', 'detail': 1, 'uid': 'f5c279a242f3c7ba220262b0', 'detail_info': {'tag': '金融;atm', 'navi_location': {'lng': 108.83318374711, 'lat': 34.297242385527}, 'type': 'life', 'detail_url': 'http://api.map.baidu.com/place/detail?uid=f5c279a242f3c7ba220262b0&output=html&source=placeapi_v2', 'image_num': '5', 'children': [], 'lat': 34.29243642537983, 'lng': 108.82229373056884}}"
"{'name': '长安银行24小时自助银行(沣东新城支行)', 'location': {'lat': 34.29633354481247, 'lng': 108.82131971629484}, 'address': '陕西省西安市未央区大明宫建材家居·三桥店东南门', 'province': '陕西省', 'city': '西安市', 'area': '未央区', 'street_id': '082342c6c6409b03a104640e', 'detail': 1, 'uid': 'b67aa4d85542e1ff2902e154', 'detail_info': {'tag': '金融;atm', 'type': 'life', 'detail_url': 'http://api.map.baidu.com/place/detail?uid=b67aa4d85542e1ff2902e154&output=html&source=placeapi_v2', 'overall_rating': '5.0', 'image_num': '8', 'comment_num': '2', 'children': [], 'lat': 34.29633354481247, 'lng': 108.82131971629484}}"
"{'name': '中铁十四局集团西安建设投资有限公司', 'location': {'lat': 34.30255450988695, 'lng': 108.80794021800719}, 'address': '启航时代广场A座10楼中铁十四局集团', 'province': '陕西省', 'city': '西安市', 'area': '未央区', 'detail': 1, 'uid': '5e2f327c6648d2d3f4e73be9', 'detail_info': {'tag': '公司企业;公司', 'type': 'enterprise', 'detail_url': 'http://api.map.baidu.com/place/detail?uid=5e2f327c6648d2d3f4e73be9&output=html&source=placeapi_v2', 'children': [], 'lat': 34.30255450988695, 'lng': 108.80794021800719}}"
"{'name': '秦农银行24小时自助银行(新店村支行)', 'location': {'lat': 34.30066760461935, 'lng': 108.81239664002032}, 'address': '陕西省西安市未央区启航佳苑B区(世纪大道北50米)', 'province': '陕西省', 'city': '西安市', 'area': '未央区', 'detail': 1, 'uid': '1a184d5ed36d4cd8e311038d', 'detail_info': {'tag': '金融;atm', 'type': 'life', 'detail_url': 'http://api.map.baidu.com/place/detail?uid=1a184d5ed36d4cd8e311038d&output=html&source=placeapi_v2', 'image_num': '1', 'children': [], 'lat': 34.30066760461935, 'lng': 108.81239664002032}}"
"{'name': '中国建设银行ATM', 'location': {'lat': 34.31966482408187, 'lng': 108.8205781375644}, 'address': '陕西省西安市未央区天章大道', 'province': '陕西省', 'city': '西安市', 'area': '未央区', 'detail': 1, 'uid': 'ab4b352f50323d8783a00c32', 'detail_info': {'tag': '金融;atm', 'type': 'life', 'detail_url': 'http://api.map.baidu.com/place/detail?uid=ab4b352f50323d8783a00c32&output=html&source=placeapi_v2', 'image_num': '1', 'children': [], 'lat': 34.31966482408187, 'lng': 108.8205781375644}}"
"{'name': '中国邮政储蓄银行(咸阳市东郊支行)', 'location': {'lat': 34.37141607242838, 'lng': 108.76622566567887}, 'address': '渭城镇东郊邮政支局1层', 'province': '陕西省', 'city': '咸阳市', 'area': '渭城区', 'street_id': '4edf9fbf0bf12a94cd06a49d', 'telephone': '(029)33412320', 'detail': 1, 'uid': '4edf9fbf0bf12a94cd06a49d', 'detail_info': {'tag': '金融;银行', 'type': 'life', 'detail_url': 'http://api.map.baidu.com/place/detail?uid=4edf9fbf0bf12a94cd06a49d&output=html&source=placeapi_v2', 'price': '182', 'overall_rating': '0.0', 'image_num': '4', 'children': [], 'lat': 34.37141607242838, 'lng': 108.76622566567887}}"
"{'name': '农村商业银行(金旭大道信用社店)', 'location': {'lat': 34.36923672010086, 'lng': 108.780925831444}, 'address': '陕西省咸阳市渭城区金旭路金旭商务酒店隔壁', 'province': '陕西省', 'city': '咸阳市', 'area': '渭城区', 'street_id': '0f3d15f977a1f215ae080f87', 'telephone': '(029)33711288', 'detail': 1, 'uid': '0f3d15f977a1f215ae080f87', 'detail_info': {'tag': '金融;银行', 'navi_location': {'lng': 108.79220978609, 'lat': 34.373825129151}, 'type': 'life', 'detail_url': 'http://api.map.baidu.com/place/detail?uid=0f3d15f977a1f215ae080f87&output=html&source=placeapi_v2', 'overall_rating': '0.0', 'image_num': '4', 'comment_num': '1', 'children': [], 'lat': 34.36923672010086, 'lng': 108.780925831444}}"
"{'name': '宝盛祥投资管理有限公司', 'location': {'lat': 34.37574378774945, 'lng': 108.77797977357459}, 'address': '陕西省咸阳市渭城区X101', 'province': '陕西省', 'city': '咸阳市', 'area': '渭城区', 'street_id': '06ba7582d6bb41a6c2f1cf42', 'detail': 1, 'uid': '06ba7582d6bb41a6c2f1cf42', 'detail_info': {'tag': '金融;投资理财', 'type': 'life', 'detail_url': 'http://api.map.baidu.com/place/detail?uid=06ba7582d6bb41a6c2f1cf42&output=html&source=placeapi_v2', 'image_num': '1', 'children': [], 'lat': 34.37574378774945, 'lng': 108.77797977357459}}"
"{'name': '中国农业银行24小时自助银行(咸阳东郊支行)', 'location': {'lat': 34.37099868474601, 'lng': 108.76593494844992}, 'address': '咸阳市渭城区上林路（北段）(咸阳市第二人民医院东郊分院东南侧约10米)', 'province': '陕西省', 'city': '咸阳市', 'area': '渭城区', 'street_id': '7c5e480b9279e5c9adb22a36', 'detail': 1, 'uid': '7c5e480b9279e5c9adb22a36', 'detail_info': {'tag': '金融;atm', 'type': 'life', 'detail_url': 'http://api.map.baidu.com/place/detail?uid=7c5e480b9279e5c9adb22a36&output=html&source=placeapi_v2', 'overall_rating': '0.0', 'image_num': '6', 'comment_num': '1', 'children': [], 'lat': 34.37099868474601, 'lng': 108.76593494844992}}"
"{'name': '中国银行24小时自助银行(长陵路店)', 'location': {'lat': 34.374819810187674, 'lng': 108.77557992219336}, 'address': '长陵路南50米', 'province': '陕西省', 'city': '咸阳市', 'area': '渭城区', 'street_id': '04a9d09284d115484bcc4aae', 'detail': 1, 'uid': '04a9d09284d115484bcc4aae', 'detail_info': {'tag': '金融;atm', 'type': 'life', 'detail_url': 'http://api.map.baidu.com/place/detail?uid=04a9d09284d115484bcc4aae&output=html&source=placeapi_v2', 'image_num': '2', 'children': [], 'lat': 34.374819810187674, 'lng': 108.77557992219336}}"
"{'name': '陕西信合24小时自助银行(渭城支行)', 'location': {'lat': 34.37645679154093, 'lng': 108.778505306777}, 'address': '陕西省咸阳市渭城区长陵路', 'province': '陕西省', 'city': '咸阳市', 'area': '渭城区', 'street_id': '9da8c69236ccf493eb56fa4b', 'detail': 1, 'uid': '9da8c69236ccf493eb56fa4b', 'detail_info': {'tag': '金融;atm', 'type': 'life', 'detail_url': 'http://api.map.baidu.com/place/detail?uid=9da8c69236ccf493eb56fa4b&output=html&source=placeapi_v2', 'image_num': '4', 'children': [], 'lat': 34.37645679154093, 'lng': 108.778505306777}}"
"{'name': '交通银行24小时自助银行', 'location': {'lat': 34.37478268076562, 'lng': 108.77540073576088}, 'address': '陕西省咸阳市渭城区X101', 'province': '陕西省', 'city': '咸阳市', 'area': '渭城区', 'street_id': 'f25fffcf260c49ca343a71ac', 'detail': 1, 'uid': 'f25fffcf260c49ca343a71ac', 'detail_info': {'tag': '金融;atm', 'type': 'life', 'detail_url': 'http://api.map.baidu.com/place/detail?uid=f25fffcf260c49ca343a71ac&output=html&source=placeapi_v2', 'image_num': '3', 'children': [], 'lat': 34.37478268076562, 'lng': 108.77540073576088}}"
"{'name': '西安天安人寿中心', 'location': {'lat': 34.19601765573885, 'lng': 108.87489562032336}, 'address': '陕西省西安市雁塔区丈八二路与锦业路交叉口西北角', 'province': '陕西省', 'city': '西安市', 'area': '雁塔区', 'detail': 1, 'uid': '9bd85792dd87cecd9703197f', 'detail_info': {'tag': '金融;投资理财', 'type': 'life', 'detail_url': 'http://api.map.baidu.com/place/detail?uid=9bd85792dd87cecd9703197f&output=html&source=placeapi_v2', 'image_num': '1', 'children': [], 'lat': 34.19601765573885, 'lng': 108.87489562032336}}"
"{'name': '中国光大银行(丈八东路支行)', 'location': {'lat': 34.199405510879245, 'lng': 108.88113383665143}, 'address': '陕西省西安市雁塔区丈八东路汇鑫ibc-b座一楼', 'province': '陕西省', 'city': '西安市', 'area': '雁塔区', 'street_id': '4063503d6692643488db73a8', 'telephone': '(029)81026900', 'detail': 1, 'uid': '4063503d6692643488db73a8', 'detail_info': {'tag': '金融;银行', 'navi_location': {'lng': 108.89215373001, 'lat': 34.204146633282}, 'type': 'life', 'detail_url': 'http://api.map.baidu.com/place/detail?uid=4063503d6692643488db73a8&output=html&source=placeapi_v2', 'overall_rating': '4.6', 'image_num': '9', 'comment_num': '8', 'children': [], 'lat': 34.199405510879245, 'lng': 108.88113383665143}}"
"{'name': '中国民生银行(锦业路支行)', 'location': {'lat': 34.19824263973197, 'lng': 108.87960453096248}, 'address': '西安市丈八一路绿地SOHOB座一层', 'province': '陕西省', 'city': '西安市', 'area': '雁塔区', 'street_id': 'e4c849dccfcfd7330f0e6beb', 'telephone': '(029)61814533', 'detail': 1, 'uid': 'e4c849dccfcfd7330f0e6beb', 'detail_info': {'tag': '金融;银行', 'navi_location': {'lng': 108.89090960742, 'lat': 34.202358073961}, 'type': 'life', 'detail_url': 'http://api.map.baidu.com/place/detail?uid=e4c849dccfcfd7330f0e6beb&output=html&source=placeapi_v2', 'overall_rating': '1.9', 'image_num': '13', 'comment_num': '12', 'children': [], 'lat': 34.19824263973197, 'lng': 108.87960453096248}}"
"{'name': '中国平安财产保险股份有限公司(陕西分公司)', 'location': {'lat': 34.19641339479718, 'lng': 108.8760404160973}, 'address': '丈八二路与锦业路交汇处西安绿地中心A座19-21层', 'province': '陕西省', 'city': '西安市', 'area': '雁塔区', 'street_id': '74165d32fdb015d4f7b916be', 'detail': 1, 'uid': '74165d32fdb015d4f7b916be', 'detail_info': {'tag': '金融;投资理财', 'type': 'life', 'detail_url': 'http://api.map.baidu.com/place/detail?uid=74165d32fdb015d4f7b916be&output=html&source=placeapi_v2', 'image_num': '1', 'children': [], 'lat': 34.19641339479718, 'lng': 108.8760404160973}}"
"{'name': '凯森保险', 'location': {'lat': 34.21038982792865, 'lng': 108.86922751096398}, 'address': '陕西省西安市雁塔区丈八北路53号国宾中央区11号楼7楼', 'province': '陕西省', 'city': '西安市', 'area': '雁塔区', 'street_id': '4114d364492fa029c91b95ba', 'detail': 1, 'uid': '4114d364492fa029c91b95ba', 'detail_info': {'tag': '金融;投资理财', 'type': 'life', 'detail_url': 'http://api.map.baidu.com/place/detail?uid=4114d364492fa029c91b95ba&output=html&source=placeapi_v2', 'image_num': '1', 'children': [], 'lat': 34.21038982792865, 'lng': 108.86922751096398}}"
"{'name': '交通银行(陕西自贸试验区西安锦业路支行)', 'location': {'lat': 34.19488884479164, 'lng': 108.86918907676848}, 'address': '陕西省西安市雁塔区粤汉国际锦业路38号', 'province': '陕西省', 'city': '西安市', 'area': '雁塔区', 'street_id': 'c08ddc1e63cc483397031984', 'telephone': '(029)88323795,(029)88323991', 'detail': 1, 'uid': 'c08ddc1e63cc483397031984', 'detail_info': {'tag': '金融;银行', 'navi_location': {'lng': 108.88012592048, 'lat': 34.19930940409}, 'type': 'life', 'detail_url': 'http://api.map.baidu.com/place/detail?uid=c08ddc1e63cc483397031984&output=html&source=placeapi_v2', 'overall_rating': '3.0', 'image_num': '9', 'comment_num': '4', 'children': [], 'lat': 34.19488884479164, 'lng': 108.86918907676848}}"
"{'name': '招商银行(陕西自贸试验区西安高新科技支行(原高新科技支行))', 'location': {'lat': 34.199383136207516, 'lng': 108.88062164464999}, 'address': '陕西省西安市雁塔区丈八一路1号体育训练中心南门对面汇鑫IBC-A座1层', 'province': '陕西省', 'city': '西安市', 'area': '雁塔区', 'street_id': '40c452b906142635343a7108', 'telephone': '(029)88825530,(029)88825382', 'detail': 1, 'uid': '40c452b906142635343a7108', 'detail_info': {'tag': '金融;银行', 'navi_location': {'lng': 108.89176716579, 'lat': 34.203640033919}, 'type': 'life', 'detail_url': 'http://api.map.baidu.com/place/detail?uid=40c452b906142635343a7108&output=html&source=placeapi_v2', 'overall_rating': '3.4', 'image_num': '17', 'comment_num': '10', 'children': [], 'lat': 34.199383136207516, 'lng': 108.88062164464999}}"
"{'name': '中国建设银行(西安锦业一路支行)', 'location': {'lat': 34.19282360924715, 'lng': 108.88089348568666}, 'address': '锦业一路2号', 'province': '陕西省', 'city': '西安市', 'area': '雁塔区', 'street_id': '11484c6841de7b2d72455b73', 'telephone': '(029)89286206', 'detail': 1, 'uid': '11484c6841de7b2d72455b73', 'detail_info': {'tag': '金融;银行', 'navi_location': {'lng': 108.89204036295, 'lat': 34.197309325793}, 'type': 'life', 'detail_url': 'http://api.map.baidu.com/place/detail?uid=11484c6841de7b2d72455b73&output=html&source=placeapi_v2', 'overall_rating': '3.7', 'image_num': '7', 'comment_num': '5', 'children': [], 'lat': 34.19282360924715, 'lng': 108.88089348568666}}"
"{'name': '中国建设银行(西安高新自贸区支行)', 'location': {'lat': 34.19592532805566, 'lng': 108.87151847823414}, 'address': '丈八三路与锦业路交叉十字路口东北角', 'province': '陕西省', 'city': '西安市', 'area': '雁塔区', 'street_id': 'bccd6e6dce9f2f2607026fc9', 'telephone': '(029)68250596', 'detail': 1, 'uid': 'bccd6e6dce9f2f2607026fc9', 'detail_info': {'tag': '金融;银行', 'navi_location': {'lng': 108.88261911982, 'lat': 34.199830577087}, 'type': 'life', 'detail_url': 'http://api.map.baidu.com/place/detail?uid=bccd6e6dce9f2f2607026fc9&output=html&source=placeapi_v2', 'overall_rating': '1.8', 'image_num': '5', 'comment_num': '6', 'children': [], 'lat': 34.19592532805566, 'lng': 108.87151847823414}}"
"{'name': '渤海银行(西安分行营业部)', 'location': {'lat': 34.195036371319155, 'lng': 108.8704601583911}, 'address': '西安市雁塔区锦业路36号', 'province': '陕西省', 'city': '西安市', 'area': '雁塔区', 'street_id': '713cb6814e01c759354aaeab', 'telephone': '(029)65620800', 'detail': 1, 'uid': '713cb6814e01c759354aaeab', 'detail_info': {'tag': '金融;银行', 'navi_location': {'lng': 108.88182158802, 'lat': 34.19925451082}, 'type': 'life', 'detail_url': 'http://api.map.baidu.com/place/detail?uid=713cb6814e01c759354aaeab&output=html&source=placeapi_v2', 'overall_rating': '2.0', 'image_num': '17', 'comment_num': '2', 'children': [], 'lat': 34.195036371319155, 'lng': 108.8704601583911}}"
"{'name': '锦泰财产保险股份有限公司(陕西分公司)', 'location': {'lat': 34.199464862824364, 'lng': 108.87930632187786}, 'address': '陕西省西安市雁塔区丈八一路绿地蓝海大厦a座21层', 'province': '陕西省', 'city': '西安市', 'area': '雁塔区', 'street_id': 'f097adf22cb5bef001294f79', 'detail': 1, 'uid': 'f097adf22cb5bef001294f79', 'detail_info': {'tag': '金融;投资理财', 'type': 'life', 'detail_url': 'http://api.map.baidu.com/place/detail?uid=f097adf22cb5bef001294f79&output=html&source=placeapi_v2', 'overall_rating': '4.0', 'image_num': '1', 'comment_num': '1', 'children': [], 'lat': 34.199464862824364, 'lng': 108.87930632187786}}"
"{'name': '中国邮政储蓄银行(西安市高新支行)', 'location': {'lat': 34.19804397714057, 'lng': 108.87939651096292}, 'address': '陕西省西安市雁塔区丈八一路绿地SOHOB座', 'province': '陕西省', 'city': '西安市', 'area': '雁塔区', 'street_id': '2b4e6f3ca58ea54700ff2d81', 'telephone': '(029)65691368', 'detail': 1, 'uid': '2b4e6f3ca58ea54700ff2d81', 'detail_info': {'tag': '金融;银行', 'navi_location': {'lng': 108.89044553561, 'lat': 34.202122841493}, 'type': 'life', 'detail_url': 'http://api.map.baidu.com/place/detail?uid=2b4e6f3ca58ea54700ff2d81&output=html&source=placeapi_v2', 'overall_rating': '2.3', 'image_num': '3', 'comment_num': '7', 'children': [], 'lat': 34.19804397714057, 'lng': 108.87939651096292}}"
"{'name': '中国农业银行(西安丈八四路分理处)', 'location': {'lat': 34.20347052500473, 'lng': 108.86431898062061}, 'address': '陕西省西安市雁塔区丈八四路6号缤纷南郡10幢4单元', 'province': '陕西省', 'city': '西安市', 'area': '雁塔区', 'street_id': 'ebbb6659fc046a376e3e1b05', 'telephone': '(029)81102511', 'detail': 1, 'uid': '0d3c37559c78cf7ad12dd676', 'detail_info': {'tag': '金融;银行', 'navi_location': {'lng': 108.87570162841, 'lat': 34.207923244558}, 'type': 'life', 'detail_url': 'http://api.map.baidu.com/place/detail?uid=0d3c37559c78cf7ad12dd676&output=html&source=placeapi_v2', 'overall_rating': '1.8', 'image_num': '9', 'comment_num': '14', 'children': [], 'lat': 34.20347052500473, 'lng': 108.86431898062061}}"
"{'name': '西安银行(西安锦业路支行)', 'location': {'lat': 34.1964763231665, 'lng': 108.86450368257539}, 'address': '西安市高新区丈八四路20号5号楼一层', 'province': '陕西省', 'city': '西安市', 'area': '雁塔区', 'detail': 1, 'uid': 'd7cf34a3f66fd2b5a3acc405', 'detail_info': {'tag': '金融;银行', 'navi_location': {'lng': 108.87543738735, 'lat': 34.200989460545}, 'type': 'life', 'detail_url': 'http://api.map.baidu.com/place/detail?uid=d7cf34a3f66fd2b5a3acc405&output=html&source=placeapi_v2', 'overall_rating': '3.6', 'image_num': '3', 'comment_num': '8', 'children': [], 'lat': 34.1964763231665, 'lng': 108.86450368257539}}"
"{'name': '中国建设银行(西安逸翠园支行)', 'location': {'lat': 34.18561047278562, 'lng': 108.8786838210883}, 'address': '西安市唐延南路逸翠尚府北区1号楼1层商铺', 'province': '陕西省', 'city': '西安市', 'area': '雁塔区', 'street_id': '65f392fe3a55f64fc72ba133', 'telephone': '(029)88746080', 'detail': 1, 'uid': '65f392fe3a55f64fc72ba133', 'detail_info': {'tag': '金融;银行', 'navi_location': {'lng': 108.89026718244, 'lat': 34.189617641217}, 'type': 'life', 'detail_url': 'http://api.map.baidu.com/place/detail?uid=65f392fe3a55f64fc72ba133&output=html&source=placeapi_v2', 'overall_rating': '4.8', 'image_num': '11', 'comment_num': '6', 'children': [], 'lat': 34.18561047278562, 'lng': 108.8786838210883}}"
"{'name': '中信建投证券(西安锦业路证券营业部)', 'location': {'lat': 34.19495457020939, 'lng': 108.86823336399966}, 'address': '西安市锦业路38号', 'province': '陕西省', 'city': '西安市', 'area': '雁塔区', 'street_id': '4c4dfc2f8d36478d16a1905d', 'detail': 1, 'uid': '4c4dfc2f8d36478d16a1905d', 'detail_info': {'tag': '金融;投资理财', 'navi_location': {'lng': 108.87938539695, 'lat': 34.199316291946}, 'type': 'life', 'detail_url': 'http://api.map.baidu.com/place/detail?uid=4c4dfc2f8d36478d16a1905d&output=html&source=placeapi_v2', 'overall_rating': '0.0', 'image_num': '12', 'comment_num': '0', 'children': [], 'lat': 34.19495457020939, 'lng': 108.86823336399966}}"
"{'name': '陕西海外投资发展股份有限公司', 'location': {'lat': 34.19327516712743, 'lng': 108.86932010523884}, 'address': '锦业一路29号', 'province': '陕西省', 'city': '西安市', 'area': '雁塔区', 'street_id': '799bff1070979258c6effbbb', 'telephone': '(029)81297206', 'detail': 1, 'uid': '799bff1070979258c6effbbb', 'detail_info': {'tag': '金融;投资理财', 'navi_location': {'lng': 108.88045989161, 'lat': 34.197495456084}, 'type': 'life', 'detail_url': 'http://api.map.baidu.com/place/detail?uid=799bff1070979258c6effbbb&output=html&source=placeapi_v2', 'overall_rating': '0.0', 'image_num': '5', 'children': [], 'lat': 34.19327516712743, 'lng': 108.86932010523884}}"
"{'name': '中国工商银行(西安锦业一路支行)', 'location': {'lat': 34.19287627177511, 'lng': 108.88094924039187}, 'address': '西安市雁塔区锦业一路2号', 'province': '陕西省', 'city': '西安市', 'area': '雁塔区', 'street_id': 'b80b64d742bf052f3586f44e', 'telephone': '(029)87231374', 'detail': 1, 'uid': 'b80b64d742bf052f3586f44e', 'detail_info': {'tag': '金融;银行', 'navi_location': {'lng': 108.89247485626, 'lat': 34.197083053506}, 'type': 'life', 'detail_url': 'http://api.map.baidu.com/place/detail?uid=b80b64d742bf052f3586f44e&output=html&source=placeapi_v2', 'overall_rating': '2.7', 'image_num': '11', 'comment_num': '3', 'children': [], 'lat': 34.19287627177511, 'lng': 108.88094924039187}}"
"{'name': '中国工商银行(西安锦业路支行)', 'location': {'lat': 34.19696274823913, 'lng': 108.88263944598363}, 'address': '西安市雁塔区高新区锦业路1号都市之门B座1层', 'province': '陕西省', 'city': '西安市', 'area': '雁塔区', 'detail': 1, 'uid': '87494218450a26d7cae33c22', 'detail_info': {'tag': '金融;银行', 'type': 'life', 'detail_url': 'http://api.map.baidu.com/place/detail?uid=87494218450a26d7cae33c22&output=html&source=placeapi_v2', 'overall_rating': '2.9', 'image_num': '1', 'comment_num': '7', 'children': [], 'lat': 34.19696274823913, 'lng': 108.88263944598363}}"
"{'name': '长安银行(西安高新科技支行)', 'location': {'lat': 34.19572403763891, 'lng': 108.85547304207074}, 'address': '西安市高新区锦业路69号创业研发园C区A101室', 'province': '陕西省', 'city': '西安市', 'area': '雁塔区', 'street_id': '2ea1505dcf95f5a5bfa8225d', 'telephone': '(029)89199869', 'detail': 1, 'uid': '2ea1505dcf95f5a5bfa8225d', 'detail_info': {'tag': '金融;银行', 'navi_location': {'lng': 108.86650982417, 'lat': 34.200142313963}, 'type': 'life', 'detail_url': 'http://api.map.baidu.com/place/detail?uid=2ea1505dcf95f5a5bfa8225d&output=html&source=placeapi_v2', 'overall_rating': '4.0', 'image_num': '6', 'comment_num': '3', 'children': [], 'lat': 34.19572403763891, 'lng': 108.85547304207074}}"
"{'name': '西安银行(高新科技支行)', 'location': {'lat': 34.21385361363987, 'lng': 108.88304664804619}, 'address': '陕西省西安市雁塔区科技六路15号', 'province': '陕西省', 'city': '西安市', 'area': '雁塔区', 'street_id': '4859a115b3c5f4e825d2bb8f', 'telephone': '(029)88341925', 'detail': 1, 'uid': '4859a115b3c5f4e825d2bb8f', 'detail_info': {'tag': '金融;银行', 'navi_location': {'lng': 108.8942593689, 'lat': 34.217974741057}, 'type': 'life', 'detail_url': 'http://api.map.baidu.com/place/detail?uid=4859a115b3c5f4e825d2bb8f&output=html&source=placeapi_v2', 'overall_rating': '4.0', 'image_num': '5', 'comment_num': '2', 'children': [], 'lat': 34.21385361363987, 'lng': 108.88304664804619}}"
"{'name': '中国农业银行(西安市高新科技产业开发区支行)', 'location': {'lat': 34.19500503879775, 'lng': 108.87896829070935}, 'address': '陕西省西安市雁塔区丈八沟街道高新路锦业路与丈八一路交汇处西南角中铁西安中心1楼', 'province': '陕西省', 'city': '西安市', 'area': '雁塔区', 'detail': 1, 'uid': 'b18a40e79bf54ff0d72ce242', 'detail_info': {'tag': '金融;银行', 'type': 'life', 'detail_url': 'http://api.map.baidu.com/place/detail?uid=b18a40e79bf54ff0d72ce242&output=html&source=placeapi_v2', 'overall_rating': '2.0', 'image_num': '6', 'comment_num': '4', 'children': [], 'lat': 34.19500503879775, 'lng': 108.87896829070935}}"
"{'name': '瀚华金融', 'location': {'lat': 34.19469202807627, 'lng': 108.87917284180368}, 'address': '锦业路中铁西安中心', 'province': '陕西省', 'city': '西安市', 'area': '雁塔区', 'detail': 1, 'uid': '36a9fa7d26523d2146e274be', 'detail_info': {'tag': '金融;投资理财', 'type': 'life', 'detail_url': 'http://api.map.baidu.com/place/detail?uid=36a9fa7d26523d2146e274be&output=html&source=placeapi_v2', 'image_num': '1', 'children': [], 'lat': 34.19469202807627, 'lng': 108.87917284180368}}"
"{'name': '光大期货(陕西分公司)', 'location': {'lat': 34.19627360655537, 'lng': 108.8640230366377}, 'address': '陕西省西安市雁塔区丈八四路神州数码西安科技园5号楼20层', 'province': '陕西省', 'city': '西安市', 'area': '雁塔区', 'street_id': 'b3fb25fff594ae515e17c35f', 'telephone': '(029)89521688,15929943019', 'detail': 1, 'uid': 'b3fb25fff594ae515e17c35f', 'detail_info': {'tag': '金融;投资理财', 'type': 'life', 'detail_url': 'http://api.map.baidu.com/place/detail?uid=b3fb25fff594ae515e17c35f&output=html&source=placeapi_v2', 'overall_rating': '4.0', 'image_num': '1', 'comment_num': '1', 'children': [], 'lat': 34.19627360655537, 'lng': 108.8640230366377}}"
"{'name': '中国银行', 'location': {'lat': 34.212537442784665, 'lng': 108.83292378511122}, 'address': '云水一路与天谷七路交叉口东南150米西安环普科技产业园G1座附近', 'province': '陕西省', 'city': '西安市', 'area': '雁塔区', 'detail': 1, 'uid': '3ffa8a384107c0b8c909f061', 'detail_info': {'tag': '金融;银行', 'navi_location': {'lng': 108.84335132847, 'lat': 34.217352787127}, 'type': 'life', 'detail_url': 'http://api.map.baidu.com/place/detail?uid=3ffa8a384107c0b8c909f061&output=html&source=placeapi_v2', 'overall_rating': '1.0', 'image_num': '3', 'comment_num': '5', 'children': [], 'lat': 34.212537442784665, 'lng': 108.83292378511122}}"
"{'name': '小微金融服务中心', 'location': {'lat': 34.196079906240946, 'lng': 108.88091611890174}, 'address': '雁塔区电子城街道办公室地址陕西省西安市高新区丈八一路3号旺都国际b座', 'province': '陕西省', 'city': '西安市', 'area': '雁塔区', 'detail': 1, 'uid': '42f17495645846c117948ed9', 'detail_info': {'tag': '金融;投资理财', 'type': 'life', 'detail_url': 'http://api.map.baidu.com/place/detail?uid=42f17495645846c117948ed9&output=html&source=placeapi_v2', 'image_num': '1', 'children': [], 'lat': 34.196079906240946, 'lng': 108.88091611890174}}"
"{'name': '瑞泰人寿保险有限公司陕西分公司', 'location': {'lat': 34.213795053134156, 'lng': 108.87530445042151}, 'address': '科技六路31号华鼎国际1号楼902室', 'province': '陕西省', 'city': '西安市', 'area': '雁塔区', 'detail': 1, 'uid': '31e2c969a07277ace812e4fe', 'detail_info': {'tag': '金融;投资理财', 'type': 'life', 'detail_url': 'http://api.map.baidu.com/place/detail?uid=31e2c969a07277ace812e4fe&output=html&source=placeapi_v2', 'image_num': '1', 'children': [], 'lat': 34.213795053134156, 'lng': 108.87530445042151}}"
"{'name': '韩亚银行(西安分行)', 'location': {'lat': 34.19497409351128, 'lng': 108.86876093919643}, 'address': '锦业路38号粤汉国际d座1楼', 'province': '陕西省', 'city': '西安市', 'area': '雁塔区', 'street_id': '9ce3add0087aff4042d63e86', 'telephone': '(029)81771111', 'detail': 1, 'uid': '9ce3add0087aff4042d63e86', 'detail_info': {'tag': '金融;银行', 'navi_location': {'lng': 108.87986056283, 'lat': 34.199480069154}, 'type': 'life', 'detail_url': 'http://api.map.baidu.com/place/detail?uid=9ce3add0087aff4042d63e86&output=html&source=placeapi_v2', 'overall_rating': '3.5', 'image_num': '14', 'comment_num': '2', 'children': [], 'lat': 34.19497409351128, 'lng': 108.86876093919643}}"
"{'name': '中国工商银行(绿地世纪城支行)', 'location': {'lat': 34.19614575380651, 'lng': 108.87069096830278}, 'address': '丈八三路6号45幢1单元10101室', 'province': '陕西省', 'city': '西安市', 'area': '雁塔区', 'street_id': '8c08c091164a081d740269c2', 'telephone': '(029)81100031', 'detail': 1, 'uid': '8c08c091164a081d740269c2', 'detail_info': {'tag': '金融;银行', 'navi_location': {'lng': 108.8820347083, 'lat': 34.200338369214}, 'type': 'life', 'detail_url': 'http://api.map.baidu.com/place/detail?uid=8c08c091164a081d740269c2&output=html&source=placeapi_v2', 'overall_rating': '3.5', 'image_num': '13', 'comment_num': '4', 'children': [], 'lat': 34.19614575380651, 'lng': 108.87069096830278}}"
"{'name': '中煤财产保险股份有限公司(陕西分公司)', 'location': {'lat': 34.196094548653804, 'lng': 108.86346967285563}, 'address': '西安市雁塔区锦业路与丈八四路交叉路口往西北约100米(西安神州数码有限公司)', 'province': '陕西省', 'city': '西安市', 'area': '雁塔区', 'detail': 1, 'uid': 'd7a73f60231d5beeb817e791', 'detail_info': {'tag': '金融;投资理财', 'type': 'life', 'detail_url': 'http://api.map.baidu.com/place/detail?uid=d7a73f60231d5beeb817e791&output=html&source=placeapi_v2', 'image_num': '1', 'children': [], 'lat': 34.196094548653804, 'lng': 108.86346967285563}}"
"{'name': '中国建设银行(西安科技八路支行)', 'location': {'lat': 34.20599038813547, 'lng': 108.86050577167536}, 'address': '丈八四路6号缤纷南郡北门', 'province': '陕西省', 'city': '西安市', 'area': '雁塔区', 'street_id': 'b361079fb5b016f75b10939e', 'telephone': '(029)89189122', 'detail': 1, 'uid': 'b361079fb5b016f75b10939e', 'detail_info': {'tag': '金融;银行', 'navi_location': {'lng': 108.87160778699, 'lat': 34.21081190288}, 'type': 'life', 'detail_url': 'http://api.map.baidu.com/place/detail?uid=b361079fb5b016f75b10939e&output=html&source=placeapi_v2', 'overall_rating': '2.0', 'image_num': '9', 'comment_num': '6', 'children': [], 'lat': 34.20599038813547, 'lng': 108.86050577167536}}"
"{'name': '北京银行(西安锦业路支行)', 'location': {'lat': 34.19735020925385, 'lng': 108.88092375952806}, 'address': '陕西省西安市雁塔区丈八一路', 'province': '陕西省', 'city': '西安市', 'area': '雁塔区', 'detail': 1, 'uid': 'd2f508273fab9f962a02e11f', 'detail_info': {'tag': '金融;银行', 'type': 'life', 'detail_url': 'http://api.map.baidu.com/place/detail?uid=d2f508273fab9f962a02e11f&output=html&source=placeapi_v2', 'overall_rating': '0.0', 'image_num': '1', 'comment_num': '1', 'children': [], 'lat': 34.19735020925385, 'lng': 108.88092375952806}}"
"{'name': '招商银行(西安绿地世纪城社区支行)', 'location': {'lat': 34.196017258211995, 'lng': 108.86919488514141}, 'address': '陕西省西安市雁塔区丈八三路绿地世纪城仕嘉公寓A区44号楼底商', 'province': '陕西省', 'city': '西安市', 'area': '雁塔区', 'street_id': '8087546179853669c91b95bf', 'telephone': '(029)68250532', 'detail': 1, 'uid': '8087546179853669c91b95bf', 'detail_info': {'tag': '金融;银行', 'navi_location': {'lng': 108.88023012841, 'lat': 34.200136096696}, 'type': 'life', 'detail_url': 'http://api.map.baidu.com/place/detail?uid=8087546179853669c91b95bf&output=html&source=placeapi_v2', 'overall_rating': '3.4', 'image_num': '8', 'comment_num': '9', 'children': [], 'lat': 34.196017258211995, 'lng': 108.86919488514141}}"
"{'name': '永诚财产保险股份有限公司(陕西分公司)', 'location': {'lat': 34.19601839910729, 'lng': 108.86329551903741}, 'address': '西安市雁塔区丈八沟街道丈八四路20号神州数码科技园4号楼6层', 'province': '陕西省', 'city': '西安市', 'area': '雁塔区', 'detail': 1, 'uid': '0e03f56665f4d7006fc02c2e', 'detail_info': {'tag': '金融;投资理财', 'type': 'life', 'detail_url': 'http://api.map.baidu.com/place/detail?uid=0e03f56665f4d7006fc02c2e&output=html&source=placeapi_v2', 'image_num': '1', 'children': [], 'lat': 34.19601839910729, 'lng': 108.86329551903741}}"
"{'name': '中国银行(西安锦业路支行)', 'location': {'lat': 34.19675924347261, 'lng': 108.87062661575186}, 'address': '西安市雁塔区锦业路1号', 'province': '陕西省', 'city': '西安市', 'area': '雁塔区', 'street_id': 'fbf67f15468409a3a8f0cd01', 'telephone': '(029)68591398', 'detail': 1, 'uid': 'fbf67f15468409a3a8f0cd01', 'detail_info': {'tag': '金融;银行', 'navi_location': {'lng': 108.88203835632, 'lat': 34.200995518386}, 'type': 'life', 'detail_url': 'http://api.map.baidu.com/place/detail?uid=fbf67f15468409a3a8f0cd01&output=html&source=placeapi_v2', 'overall_rating': '3.3', 'image_num': '22', 'comment_num': '20', 'children': [], 'lat': 34.19675924347261, 'lng': 108.87062661575186}}"
"{'name': '长城证券(西安锦业路证券营业部)', 'location': {'lat': 34.19915402221248, 'lng': 108.87915621663869}, 'address': '西安市雁塔区锦业路蓝海大厦4栋1单元21层12112室', 'province': '陕西省', 'city': '西安市', 'area': '雁塔区', 'detail': 1, 'uid': 'e427b66a3d791763ed74f872', 'detail_info': {'tag': '金融;投资理财', 'type': 'life', 'detail_url': 'http://api.map.baidu.com/place/detail?uid=e427b66a3d791763ed74f872&output=html&source=placeapi_v2', 'overall_rating': '0.0', 'image_num': '1', 'comment_num': '0', 'children': [], 'lat': 34.19915402221248, 'lng': 108.87915621663869}}"
"{'name': '华夏银行(西安锦业路支行)', 'location': {'lat': 34.19506217033159, 'lng': 108.86838058249161}, 'address': '锦业路38号粤汉国际C座1层', 'province': '陕西省', 'city': '西安市', 'area': '雁塔区', 'street_id': 'd34fa16bed756848b05c6a76', 'telephone': '95577,(029)88749625,(029)88749701', 'detail': 1, 'uid': 'd34fa16bed756848b05c6a76', 'detail_info': {'tag': '金融;银行', 'navi_location': {'lng': 108.87968967368, 'lat': 34.199493937396}, 'type': 'life', 'detail_url': 'http://api.map.baidu.com/place/detail?uid=d34fa16bed756848b05c6a76&output=html&source=placeapi_v2', 'overall_rating': '4.2', 'image_num': '12', 'comment_num': '7', 'children': [], 'lat': 34.19506217033159, 'lng': 108.86838058249161}}"
"{'name': '汇中普惠', 'location': {'lat': 34.19618771387705, 'lng': 108.87618206827058}, 'address': '绿地中心A座16层', 'province': '陕西省', 'city': '西安市', 'area': '雁塔区', 'detail': 1, 'uid': 'b449fedf3dff048228201a7c', 'detail_info': {'tag': '金融;投资理财', 'type': 'life', 'detail_url': 'http://api.map.baidu.com/place/detail?uid=b449fedf3dff048228201a7c&output=html&source=placeapi_v2', 'image_num': '1', 'children': [], 'lat': 34.19618771387705, 'lng': 108.87618206827058}}"
"{'name': '西安德鸿财行投资管理有限公司', 'location': {'lat': 34.19739063114435, 'lng': 108.8826529514587}, 'address': '陕西省西安市雁塔区锦业路1号', 'province': '陕西省', 'city': '西安市', 'area': '雁塔区', 'detail': 1, 'uid': '223eeb7ce536e35e336212cf', 'detail_info': {'tag': '金融;投资理财', 'type': 'life', 'detail_url': 'http://api.map.baidu.com/place/detail?uid=223eeb7ce536e35e336212cf&output=html&source=placeapi_v2', 'overall_rating': '5.0', 'image_num': '1', 'comment_num': '2', 'children': [], 'lat': 34.19739063114435, 'lng': 108.8826529514587}}"
"{'name': '中国银行(西安锦业二路支行)', 'location': {'lat': 34.18382741736352, 'lng': 108.85401445135022}, 'address': '西安市雁塔区锦业二路86号', 'province': '陕西省', 'city': '西安市', 'area': '雁塔区', 'street_id': '3c0ea7c5e895ef9cfbf0cb6f', 'telephone': '(029)88472322', 'detail': 1, 'uid': '3c0ea7c5e895ef9cfbf0cb6f', 'detail_info': {'tag': '金融;银行', 'navi_location': {'lng': 108.86504723818, 'lat': 34.188559543792}, 'type': 'life', 'detail_url': 'http://api.map.baidu.com/place/detail?uid=3c0ea7c5e895ef9cfbf0cb6f&output=html&source=placeapi_v2', 'overall_rating': '1.4', 'image_num': '14', 'comment_num': '12', 'children': [], 'lat': 34.18382741736352, 'lng': 108.85401445135022}}"
"{'name': '中国民生银行(西安绿地世纪城社区支行)', 'location': {'lat': 34.199546463461196, 'lng': 108.86994572051645}, 'address': '丈八三路绿地世纪城仕嘉公寓A区2号楼', 'province': '陕西省', 'city': '西安市', 'area': '雁塔区', 'street_id': '892a7f959f7a39dbc9c3db3a', 'telephone': '(029)62580496', 'detail': 1, 'uid': '892a7f959f7a39dbc9c3db3a', 'detail_info': {'tag': '金融;银行', 'navi_location': {'lng': 108.88102896635, 'lat': 34.203897038553}, 'type': 'life', 'detail_url': 'http://api.map.baidu.com/place/detail?uid=892a7f959f7a39dbc9c3db3a&output=html&source=placeapi_v2', 'image_num': '2', 'children': [], 'lat': 34.199546463461196, 'lng': 108.86994572051645}}"
"{'name': '中国建设银行(西安丈八六路支行)', 'location': {'lat': 34.20403252859638, 'lng': 108.85204587450421}, 'address': '西安市高新区丈八六路北段高新逸品4号楼1-2层', 'province': '陕西省', 'city': '西安市', 'area': '雁塔区', 'street_id': '6aacba459bbe3e525fd4fee5', 'telephone': '(029)81887470', 'detail': 1, 'uid': '6aacba459bbe3e525fd4fee5', 'detail_info': {'tag': '金融;银行', 'navi_location': {'lng': 108.86330128979, 'lat': 34.2086461204}, 'type': 'life', 'detail_url': 'http://api.map.baidu.com/place/detail?uid=6aacba459bbe3e525fd4fee5&output=html&source=placeapi_v2', 'overall_rating': '1.5', 'image_num': '9', 'comment_num': '7', 'children': [], 'lat': 34.20403252859638, 'lng': 108.85204587450421}}"
"{'name': '迅辉财富(西安财富中心)', 'location': {'lat': 34.19480915827559, 'lng': 108.87635179385768}, 'address': '西安市高新区锦业路12号迈科中心10层05单元', 'province': '陕西省', 'city': '西安市', 'area': '雁塔区', 'detail': 1, 'uid': '810e7b7cddaa86f4081cc7dd', 'detail_info': {'tag': '金融;投资理财', 'type': 'life', 'detail_url': 'http://api.map.baidu.com/place/detail?uid=810e7b7cddaa86f4081cc7dd&output=html&source=placeapi_v2', 'overall_rating': '0.0', 'image_num': '4', 'children': [], 'lat': 34.19480915827559, 'lng': 108.87635179385768}}"
"{'name': '陕西华合聚英创业投资有限公司', 'location': {'lat': 34.194587013238085, 'lng': 108.88077115828315}, 'address': '高新区锦业路1号绿地领海大厦B座4楼', 'province': '陕西省', 'city': '西安市', 'area': '雁塔区', 'street_id': '04efe530ad42328ad618b7d0', 'detail': 1, 'uid': '04efe530ad42328ad618b7d0', 'detail_info': {'tag': '金融;投资理财', 'type': 'life', 'detail_url': 'http://api.map.baidu.com/place/detail?uid=04efe530ad42328ad618b7d0&output=html&source=placeapi_v2', 'overall_rating': '5.0', 'image_num': '1', 'comment_num': '1', 'children': [], 'lat': 34.194587013238085, 'lng': 108.88077115828315}}"
"{'name': '中国邮政储蓄银行(袁旗寨营业所)', 'location': {'lat': 34.20024172815532, 'lng': 108.84841364990058}, 'address': '雁塔区丈八西路袁旗寨徐家庄11排3号', 'province': '陕西省', 'city': '西安市', 'area': '雁塔区', 'street_id': '77ae77c3ae9a6d0b8f55ecb5', 'telephone': '(029)81778730', 'detail': 1, 'uid': '77ae77c3ae9a6d0b8f55ecb5', 'detail_info': {'tag': '金融;银行', 'navi_location': {'lng': 108.85943921479, 'lat': 34.204731748434}, 'type': 'life', 'detail_url': 'http://api.map.baidu.com/place/detail?uid=77ae77c3ae9a6d0b8f55ecb5&output=html&source=placeapi_v2', 'overall_rating': '3.7', 'image_num': '8', 'comment_num': '7', 'children': [], 'lat': 34.20024172815532, 'lng': 108.84841364990058}}"
"{'name': '恒丰银行(西安高新支行)', 'location': {'lat': 34.19820952490892, 'lng': 108.88043655842965}, 'address': '西安市雁塔区汇鑫ibc-c座', 'province': '陕西省', 'city': '西安市', 'area': '雁塔区', 'street_id': '0ed9048db6f2057521026210', 'telephone': '(029)68529816', 'detail': 1, 'uid': '0ed9048db6f2057521026210', 'detail_info': {'tag': '金融;银行', 'navi_location': {'lng': 108.89167939775, 'lat': 34.20218261376}, 'type': 'life', 'detail_url': 'http://api.map.baidu.com/place/detail?uid=0ed9048db6f2057521026210&output=html&source=placeapi_v2', 'overall_rating': '4.0', 'image_num': '8', 'comment_num': '6', 'children': [], 'lat': 34.19820952490892, 'lng': 108.88043655842965}}"
"{'name': '中国银行(西安逸翠园支行)', 'location': {'lat': 34.18479972361339, 'lng': 108.87810464166796}, 'address': '西安市唐延南路与锦业二路交汇处逸翠园三期商务公馆A区8号楼商铺', 'province': '陕西省', 'city': '西安市', 'area': '雁塔区', 'street_id': 'c5aca221828d99395cbe8638', 'telephone': '(029)88811927', 'detail': 1, 'uid': 'c5aca221828d99395cbe8638', 'detail_info': {'tag': '金融;银行', 'navi_location': {'lng': 108.88984589332, 'lat': 34.189005618706}, 'type': 'life', 'detail_url': 'http://api.map.baidu.com/place/detail?uid=c5aca221828d99395cbe8638&output=html&source=placeapi_v2', 'overall_rating': '2.0', 'image_num': '7', 'comment_num': '6', 'children': [], 'lat': 34.18479972361339, 'lng': 108.87810464166796}}"
"{'name': '秦农银行(丈八六路支行)', 'location': {'lat': 34.20045214881112, 'lng': 108.85172562463524}, 'address': '丈八六路8号', 'province': '陕西省', 'city': '西安市', 'area': '雁塔区', 'street_id': '2311691392bb8b83734b8707', 'telephone': '(029)81029328,(029)81883513', 'detail': 1, 'uid': '2311691392bb8b83734b8707', 'detail_info': {'tag': '金融;银行', 'navi_location': {'lng': 108.86274683587, 'lat': 34.204712880904}, 'type': 'life', 'detail_url': 'http://api.map.baidu.com/place/detail?uid=2311691392bb8b83734b8707&output=html&source=placeapi_v2', 'overall_rating': '2.5', 'image_num': '11', 'comment_num': '5', 'children': [], 'lat': 34.20045214881112, 'lng': 108.85172562463524}}"
"{'name': '中国农业银行(陕西自贸区西安唐延南路支行)', 'location': {'lat': 34.185178389999415, 'lng': 108.87851876992345}, 'address': '丈八二路31号逸翠园三A期一号楼8单元1-2层', 'province': '陕西省', 'city': '西安市', 'area': '雁塔区', 'street_id': '8ab404b076d421ec8e55ecf3', 'telephone': '(029)89526389', 'detail': 1, 'uid': '8ab404b076d421ec8e55ecf3', 'detail_info': {'tag': '金融;银行', 'navi_location': {'lng': 108.88971505063, 'lat': 34.189195321207}, 'type': 'life', 'detail_url': 'http://api.map.baidu.com/place/detail?uid=8ab404b076d421ec8e55ecf3&output=html&source=placeapi_v2', 'overall_rating': '2.5', 'image_num': '12', 'comment_num': '4', 'children': [], 'lat': 34.185178389999415, 'lng': 108.87851876992345}}"
"{'name': '西安招财投资服务有限公司', 'location': {'lat': 34.19484862549893, 'lng': 108.87254701101106}, 'address': '陕西省西安市高新区锦业路东段32号丈八三路锦业时代', 'province': '陕西省', 'city': '西安市', 'area': '雁塔区', 'detail': 1, 'uid': '76a0534900487e5b8f1a8916', 'detail_info': {'tag': '金融;投资理财', 'type': 'life', 'detail_url': 'http://api.map.baidu.com/place/detail?uid=76a0534900487e5b8f1a8916&output=html&source=placeapi_v2', 'overall_rating': '0.0', 'image_num': '1', 'children': [], 'lat': 34.19484862549893, 'lng': 108.87254701101106}}"
"{'name': '西安浩蓝行远投资管理有限公司', 'location': {'lat': 34.19734392824463, 'lng': 108.87566100979943}, 'address': '陕西省西安市锦业路绿地中心A座1005', 'province': '陕西省', 'city': '西安市', 'area': '雁塔区', 'street_id': '709e22acb8ec64e8373a710c', 'detail': 1, 'uid': '709e22acb8ec64e8373a710c', 'detail_info': {'tag': '金融;投资理财', 'type': 'life', 'detail_url': 'http://api.map.baidu.com/place/detail?uid=709e22acb8ec64e8373a710c&output=html&source=placeapi_v2', 'image_num': '1', 'children': [], 'lat': 34.19734392824463, 'lng': 108.87566100979943}}"
"{'name': '财信担保', 'location': {'lat': 34.197267133557126, 'lng': 108.86046333291024}, 'address': '陕西省西安市雁塔区锦业路丈八五路十字东北角高科尚都one尚都b座', 'province': '陕西省', 'city': '西安市', 'area': '雁塔区', 'detail': 1, 'uid': '405fbc9c1308254ac9c3db7b', 'detail_info': {'tag': '金融;投资理财', 'type': 'life', 'detail_url': 'http://api.map.baidu.com/place/detail?uid=405fbc9c1308254ac9c3db7b&output=html&source=placeapi_v2', 'image_num': '1', 'children': [], 'lat': 34.197267133557126, 'lng': 108.86046333291024}}"
"{'name': '北京银行(西安缤纷南郡社区支行)', 'location': {'lat': 34.20416590599439, 'lng': 108.86430927389807}, 'address': '丈八四路6号缤纷南郡第11幢1单元1层10101号房', 'province': '陕西省', 'city': '西安市', 'area': '雁塔区', 'street_id': '1978bf6a1432c9f6f11937c4', 'telephone': '(029)62396413', 'detail': 1, 'uid': '1978bf6a1432c9f6f11937c4', 'detail_info': {'tag': '金融;银行', 'navi_location': {'lng': 108.87572909742, 'lat': 34.209266217755}, 'type': 'life', 'detail_url': 'http://api.map.baidu.com/place/detail?uid=1978bf6a1432c9f6f11937c4&output=html&source=placeapi_v2', 'overall_rating': '3.3', 'image_num': '8', 'comment_num': '4', 'children': [], 'lat': 34.20416590599439, 'lng': 108.86430927389807}}"
"{'name': '西安金汇大通投资管理有限公司', 'location': {'lat': 34.194998677638445, 'lng': 108.87619723444156}, 'address': '西安市高新区锦业路12号迈科商业中心4102室', 'province': '陕西省', 'city': '西安市', 'area': '雁塔区', 'detail': 1, 'uid': '1f853648fadcbc3130621282', 'detail_info': {'tag': '金融;投资理财', 'type': 'life', 'detail_url': 'http://api.map.baidu.com/place/detail?uid=1f853648fadcbc3130621282&output=html&source=placeapi_v2', 'overall_rating': '0.0', 'image_num': '1', 'children': [], 'lat': 34.194998677638445, 'lng': 108.87619723444156}}"
"{'name': '中国民生银行(枫林意树社区支行)', 'location': {'lat': 34.212471022594414, 'lng': 108.87328433325347}, 'address': '西安市雁塔区科技六路200号', 'province': '陕西省', 'city': '西安市', 'area': '雁塔区', 'telephone': '(029)62502836', 'detail': 1, 'uid': '5e67501c26e364a29ee321b5', 'detail_info': {'tag': '金融;银行', 'type': 'life', 'detail_url': 'http://api.map.baidu.com/place/detail?uid=5e67501c26e364a29ee321b5&output=html&source=placeapi_v2', 'overall_rating': '5.0', 'image_num': '4', 'comment_num': '2', 'children': [], 'lat': 34.212471022594414, 'lng': 108.87328433325347}}"
"{'name': '中信证券统一客户联络中心', 'location': {'lat': 34.19255253693449, 'lng': 108.8579422346346}, 'address': '锦业一路66号甲', 'province': '陕西省', 'city': '西安市', 'area': '雁塔区', 'detail': 1, 'uid': '4b13523ca061dbefc1f1cf36', 'detail_info': {'tag': '金融;投资理财', 'type': 'life', 'detail_url': 'http://api.map.baidu.com/place/detail?uid=4b13523ca061dbefc1f1cf36&output=html&source=placeapi_v2', 'image_num': '1', 'children': [], 'lat': 34.19255253693449, 'lng': 108.8579422346346}}"
"{'name': '秦农银行(锦业支行营业部)', 'location': {'lat': 34.19831259468026, 'lng': 108.8796044564985}, 'address': '丈八一路5号绿地SOHO同盟B座', 'province': '陕西省', 'city': '西安市', 'area': '雁塔区', 'street_id': '4e524b4eafbb514c7dc876b4', 'telephone': '(029)65691390', 'detail': 1, 'uid': '7b02604a2e94560b97031997', 'detail_info': {'tag': '金融;银行', 'navi_location': {'lng': 108.89090281264, 'lat': 34.202594234376}, 'type': 'life', 'detail_url': 'http://api.map.baidu.com/place/detail?uid=7b02604a2e94560b97031997&output=html&source=placeapi_v2', 'overall_rating': '3.0', 'image_num': '6', 'children': [], 'lat': 34.19831259468026, 'lng': 108.8796044564985}}"
"{'name': '中国进出口银行(陕西省分行)', 'location': {'lat': 34.19255673718553, 'lng': 108.87920384763237}, 'address': '西安市高新区锦业一路6号陕西永利国际金融中心副楼', 'province': '陕西省', 'city': '西安市', 'area': '雁塔区', 'street_id': 'dba41a7228ed61a696f08cd1', 'telephone': '(029)68681888,(029)68681802', 'detail': 1, 'uid': 'dba41a7228ed61a696f08cd1', 'detail_info': {'tag': '金融;银行', 'navi_location': {'lng': 108.8902923817, 'lat': 34.197319312513}, 'type': 'life', 'detail_url': 'http://api.map.baidu.com/place/detail?uid=dba41a7228ed61a696f08cd1&output=html&source=placeapi_v2', 'overall_rating': '4.0', 'image_num': '7', 'comment_num': '2', 'children': [], 'lat': 34.19255673718553, 'lng': 108.87920384763237}}"
"{'name': '开源国际保险经纪公司', 'location': {'lat': 34.1991515370007, 'lng': 108.87934152848611}, 'address': '陕西省西安市雁塔区丈八沟街道丈八一路绿地蓝海大厦', 'province': '陕西省', 'city': '西安市', 'area': '雁塔区', 'detail': 1, 'uid': 'fffa3522208456388bf15d1f', 'detail_info': {'tag': '金融;投资理财', 'type': 'life', 'detail_url': 'http://api.map.baidu.com/place/detail?uid=fffa3522208456388bf15d1f&output=html&source=placeapi_v2', 'image_num': '1', 'children': [], 'lat': 34.1991515370007, 'lng': 108.87934152848611}}"
"{'name': '陕西科技创业投资管理有限公司', 'location': {'lat': 34.20167960596273, 'lng': 108.85867382260933}, 'address': '陕西省西安市雁塔区丈八五路省科技资源统筹中心', 'province': '陕西省', 'city': '西安市', 'area': '雁塔区', 'street_id': '748acb52b6a70a27631c67b7', 'detail': 1, 'uid': '748acb52b6a70a27631c67b7', 'detail_info': {'tag': '金融;投资理财', 'type': 'life', 'detail_url': 'http://api.map.baidu.com/place/detail?uid=748acb52b6a70a27631c67b7&output=html&source=placeapi_v2', 'overall_rating': '0.0', 'image_num': '3', 'children': [], 'lat': 34.20167960596273, 'lng': 108.85867382260933}}"
"{'name': '中国邮政储蓄银行(丈八西路营业所)', 'location': {'lat': 34.2002766437973, 'lng': 108.84326233427502}, 'address': '丈八西路1号丈八派出所向西1000米', 'province': '陕西省', 'city': '西安市', 'area': '雁塔区', 'street_id': 'b95bc735ef1e05ffddee8b4e', 'detail': 1, 'uid': 'b95bc735ef1e05ffddee8b4e', 'detail_info': {'tag': '金融;银行', 'navi_location': {'lng': 108.85408707643, 'lat': 34.204779036327}, 'type': 'life', 'detail_url': 'http://api.map.baidu.com/place/detail?uid=b95bc735ef1e05ffddee8b4e&output=html&source=placeapi_v2', 'overall_rating': '2.7', 'image_num': '8', 'comment_num': '10', 'children': [], 'lat': 34.2002766437973, 'lng': 108.84326233427502}}"
"{'name': '镁辉投资', 'location': {'lat': 34.209193174744044, 'lng': 108.87469742388704}, 'address': '科技七路16号', 'province': '陕西省', 'city': '西安市', 'area': '雁塔区', 'street_id': '394df5fd912a9d87ddee8b14', 'detail': 1, 'uid': '394df5fd912a9d87ddee8b14', 'detail_info': {'tag': '金融;投资理财', 'navi_location': {'lng': 108.88576512046, 'lat': 34.213596920851}, 'type': 'life', 'detail_url': 'http://api.map.baidu.com/place/detail?uid=394df5fd912a9d87ddee8b14&output=html&source=placeapi_v2', 'image_num': '5', 'children': [], 'lat': 34.209193174744044, 'lng': 108.87469742388704}}"
"{'name': '齐商银行(西安分行)', 'location': {'lat': 34.19622605508611, 'lng': 108.8806957370012}, 'address': '西安市高新区丈八一路3号旺都B座1楼', 'province': '陕西省', 'city': '西安市', 'area': '雁塔区', 'street_id': '34e48508b07cc29cd8d89102', 'telephone': '(029)61818188', 'detail': 1, 'uid': '34e48508b07cc29cd8d89102', 'detail_info': {'tag': '金融;银行', 'navi_location': {'lng': 108.8921548484, 'lat': 34.199778233838}, 'type': 'life', 'detail_url': 'http://api.map.baidu.com/place/detail?uid=34e48508b07cc29cd8d89102&output=html&source=placeapi_v2', 'overall_rating': '0.0', 'image_num': '7', 'children': [], 'lat': 34.19622605508611, 'lng': 108.8806957370012}}"
"{'name': '东方富海投资发展有限公司', 'location': {'lat': 34.19522002074187, 'lng': 108.85765764078533}, 'address': '西安市高新区锦业路70号航天恒星3号楼', 'province': '陕西省', 'city': '西安市', 'area': '雁塔区', 'street_id': 'f1c033106512b6a8081cc782', 'detail': 1, 'uid': 'f1c033106512b6a8081cc782', 'detail_info': {'tag': '金融;投资理财', 'type': 'life', 'detail_url': 'http://api.map.baidu.com/place/detail?uid=f1c033106512b6a8081cc782&output=html&source=placeapi_v2', 'image_num': '1', 'children': [], 'lat': 34.19522002074187, 'lng': 108.85765764078533}}"
"{'name': '中国建设银行(西安软件新城支行)', 'location': {'lat': 34.21242452384317, 'lng': 108.8328958213727}, 'address': '陕西省西安市雁塔区天谷八路211号西安环普科技产业园二期G1楼一层', 'province': '陕西省', 'city': '西安市', 'area': '雁塔区', 'detail': 1, 'uid': 'c5f1a5cd7a6b4c45b1077df7', 'detail_info': {'tag': '金融;银行', 'type': 'life', 'detail_url': 'http://api.map.baidu.com/place/detail?uid=c5f1a5cd7a6b4c45b1077df7&output=html&source=placeapi_v2', 'overall_rating': '5.0', 'image_num': '5', 'comment_num': '4', 'children': [], 'lat': 34.21242452384317, 'lng': 108.8328958213727}}"
"{'name': '中国邮政储蓄银行(付村营业所)', 'location': {'lat': 34.18293955882, 'lng': 108.86081462318195}, 'address': '付村花园东区内', 'province': '陕西省', 'city': '西安市', 'area': '雁塔区', 'street_id': 'eff713e1d5bd43515fbe866c', 'telephone': '(029)81775442', 'detail': 1, 'uid': 'eff713e1d5bd43515fbe866c', 'detail_info': {'tag': '金融;银行', 'navi_location': {'lng': 108.87160948299, 'lat': 34.187306208214}, 'type': 'life', 'detail_url': 'http://api.map.baidu.com/place/detail?uid=eff713e1d5bd43515fbe866c&output=html&source=placeapi_v2', 'overall_rating': '3.0', 'image_num': '2', 'children': [], 'lat': 34.18293955882, 'lng': 108.86081462318195}}"
"{'name': '富邦华一银行(西安分行)', 'location': {'lat': 34.192551040603526, 'lng': 108.87974784187836}, 'address': '陕西省西安市雁塔区锦业一路6号', 'province': '陕西省', 'city': '西安市', 'area': '雁塔区', 'telephone': '(029)65636588', 'detail': 1, 'uid': 'c1b94616186aa44e93114c4e', 'detail_info': {'tag': '金融;银行', 'navi_location': {'lng': 108.89075924186, 'lat': 34.197314692233}, 'type': 'life', 'detail_url': 'http://api.map.baidu.com/place/detail?uid=c1b94616186aa44e93114c4e&output=html&source=placeapi_v2', 'overall_rating': '5.0', 'image_num': '6', 'comment_num': '1', 'children': [], 'lat': 34.192551040603526, 'lng': 108.87974784187836}}"
"{'name': '广发银行(枫林意树社区支行)', 'location': {'lat': 34.21295345333439, 'lng': 108.87350791061522}, 'address': '陕西省西安市雁塔区科技六路枫林意树小区15栋1单元10108号铺', 'province': '陕西省', 'city': '西安市', 'area': '雁塔区', 'street_id': '687193dc0d045919c0364433', 'telephone': '(029)61819257', 'detail': 1, 'uid': '687193dc0d045919c0364433', 'detail_info': {'tag': '金融;银行', 'type': 'life', 'detail_url': 'http://api.map.baidu.com/place/detail?uid=687193dc0d045919c0364433&output=html&source=placeapi_v2', 'overall_rating': '2.0', 'image_num': '5', 'comment_num': '2', 'children': [], 'lat': 34.21295345333439, 'lng': 108.87350791061522}}"
"{'name': '北京银行(逸翠尚府社区支行)', 'location': {'lat': 34.18372651797065, 'lng': 108.87716011197668}, 'address': '西安市雁塔区锦业二路与唐延南路交叉路口往西约50米(逸翠·尚府南区)', 'province': '陕西省', 'city': '西安市', 'area': '雁塔区', 'street_id': 'f425e6f362048e96354aaea6', 'telephone': '(029)62390783', 'detail': 1, 'uid': 'f425e6f362048e96354aaea6', 'detail_info': {'tag': '金融;银行', 'type': 'life', 'detail_url': 'http://api.map.baidu.com/place/detail?uid=f425e6f362048e96354aaea6&output=html&source=placeapi_v2', 'overall_rating': '0.0', 'image_num': '5', 'comment_num': '1', 'children': [], 'lat': 34.18372651797065, 'lng': 108.87716011197668}}"
"{'name': '长安银行(西安丈八五路小微支行)', 'location': {'lat': 34.202245358357516, 'lng': 108.85833652929435}, 'address': '西安市雁塔区丈八五路与瞪羚路交叉路口往西南约100米(陕西省科技资源统筹中心)', 'province': '陕西省', 'city': '西安市', 'area': '雁塔区', 'detail': 1, 'uid': 'f6a6b052ebe7465c17b54bdb', 'detail_info': {'tag': '金融;银行', 'type': 'life', 'detail_url': 'http://api.map.baidu.com/place/detail?uid=f6a6b052ebe7465c17b54bdb&output=html&source=placeapi_v2', 'image_num': '1', 'children': [], 'lat': 34.202245358357516, 'lng': 108.85833652929435}}"
"{'name': '陕西金开贷金融服务有限公司', 'location': {'lat': 34.19606902811477, 'lng': 108.83946410249946}, 'address': '陕西省西安市雁塔区锦业路125号西安半导体产业园203大楼西部金融大厦6层', 'province': '陕西省', 'city': '西安市', 'area': '雁塔区', 'street_id': 'ed74497c1e6dbc7c16a19013', 'detail': 1, 'uid': 'ed74497c1e6dbc7c16a19013', 'detail_info': {'tag': '公司企业;公司', 'type': 'enterprise', 'detail_url': 'http://api.map.baidu.com/place/detail?uid=ed74497c1e6dbc7c16a19013&output=html&source=placeapi_v2', 'children': [], 'lat': 34.19606902811477, 'lng': 108.83946410249946}}"
"{'name': '西安银行24小时自助银行(西安锦业路支行)', 'location': {'lat': 34.19665415438413, 'lng': 108.86422872245512}, 'address': '西安市高新区丈八四路20号5号楼一层', 'province': '陕西省', 'city': '西安市', 'area': '雁塔区', 'street_id': '7416ebeed5aa70d5283a9f95', 'detail': 1, 'uid': '7416ebeed5aa70d5283a9f95', 'detail_info': {'tag': '金融;atm', 'type': 'life', 'detail_url': 'http://api.map.baidu.com/place/detail?uid=7416ebeed5aa70d5283a9f95&output=html&source=placeapi_v2', 'overall_rating': '2.5', 'image_num': '3', 'comment_num': '3', 'children': [], 'lat': 34.19665415438413, 'lng': 108.86422872245512}}"
"{'name': '中国工商银行24小时自助银行(丈八六路店)', 'location': {'lat': 34.20048678924008, 'lng': 108.85184027328432}, 'address': '陕西省西安市雁塔区丈八六路8号', 'province': '陕西省', 'city': '西安市', 'area': '雁塔区', 'street_id': '643eca27497714807e29bd7a', 'detail': 1, 'uid': '643eca27497714807e29bd7a', 'detail_info': {'tag': '金融;atm', 'navi_location': {'lng': 108.86295636742, 'lat': 34.20511047045}, 'type': 'life', 'detail_url': 'http://api.map.baidu.com/place/detail?uid=643eca27497714807e29bd7a&output=html&source=placeapi_v2', 'overall_rating': '0.0', 'image_num': '4', 'comment_num': '1', 'children': [], 'lat': 34.20048678924008, 'lng': 108.85184027328432}}"
"{'name': '中国建设银行24小时自助银行(锦业二路店)', 'location': {'lat': 34.18389053656784, 'lng': 108.84471552376775}, 'address': '锦业二路52号附近', 'province': '陕西省', 'city': '西安市', 'area': '长安区', 'street_id': '9d6d47f2926aab2814c8f6be', 'detail': 1, 'uid': '9d6d47f2926aab2814c8f6be', 'detail_info': {'tag': '金融;atm', 'navi_location': {'lng': 108.85553974962, 'lat': 34.188619068656}, 'type': 'life', 'detail_url': 'http://api.map.baidu.com/place/detail?uid=9d6d47f2926aab2814c8f6be&output=html&source=placeapi_v2', 'overall_rating': '3.0', 'image_num': '1', 'children': [], 'lat': 34.18389053656784, 'lng': 108.84471552376775}}"
"{'name': '上海浦东发展银行ATM(锦业一路店)', 'location': {'lat': 34.19237798904506, 'lng': 108.84674775380894}, 'address': '西安市雁塔区锦业一路88号', 'province': '陕西省', 'city': '西安市', 'area': '雁塔区', 'street_id': '35debf29708dab39a6da390c', 'detail': 1, 'uid': '35debf29708dab39a6da390c', 'detail_info': {'tag': '金融;atm', 'navi_location': {'lng': 108.85772935403, 'lat': 34.197363168805}, 'type': 'life', 'detail_url': 'http://api.map.baidu.com/place/detail?uid=35debf29708dab39a6da390c&output=html&source=placeapi_v2', 'overall_rating': '0.0', 'image_num': '1', 'children': [], 'lat': 34.19237798904506, 'lng': 108.84674775380894}}"
"{'name': '交通银行24小时自助银行服务(陕西自贸试验区西安锦业路支行)', 'location': {'lat': 34.194974969339896, 'lng': 108.86919894371113}, 'address': '锦业路38号粤汉国际d座1层', 'province': '陕西省', 'city': '西安市', 'area': '雁塔区', 'street_id': 'e3f574548320e2a6f503b8e4', 'detail': 1, 'uid': 'e3f574548320e2a6f503b8e4', 'detail_info': {'tag': '金融;atm', 'navi_location': {'lng': 108.88011302171, 'lat': 34.19961688911}, 'type': 'life', 'detail_url': 'http://api.map.baidu.com/place/detail?uid=e3f574548320e2a6f503b8e4&output=html&source=placeapi_v2', 'overall_rating': '4.5', 'image_num': '2', 'comment_num': '2', 'children': [], 'lat': 34.194974969339896, 'lng': 108.86919894371113}}"
"{'name': '中国建设银行24小时自助银行(西安科技八路支行)', 'location': {'lat': 34.20588201840752, 'lng': 108.8606482931104}, 'address': '西安市高新区丈八四路6号缤纷南郡北门', 'province': '陕西省', 'city': '西安市', 'area': '雁塔区', 'street_id': '79a5619c9514b55c283a9f3f', 'detail': 1, 'uid': '79a5619c9514b55c283a9f3f', 'detail_info': {'tag': '金融;atm', 'type': 'life', 'detail_url': 'http://api.map.baidu.com/place/detail?uid=79a5619c9514b55c283a9f3f&output=html&source=placeapi_v2', 'overall_rating': '5.0', 'image_num': '6', 'comment_num': '3', 'children': [], 'lat': 34.20588201840752, 'lng': 108.8606482931104}}"
"{'name': '中国邮政储蓄银行24小时自助银行服务(丈八西路营业所)', 'location': {'lat': 34.200434678244115, 'lng': 108.84339507982713}, 'address': '丈八西路1号丈八派出所向西1000米', 'province': '陕西省', 'city': '西安市', 'area': '雁塔区', 'street_id': 'bae08dfdf3a804edede4a55f', 'detail': 1, 'uid': 'bae08dfdf3a804edede4a55f', 'detail_info': {'tag': '金融;atm', 'navi_location': {'lng': 108.85420032221, 'lat': 34.204945274795}, 'type': 'life', 'detail_url': 'http://api.map.baidu.com/place/detail?uid=bae08dfdf3a804edede4a55f&output=html&source=placeapi_v2', 'overall_rating': '4.0', 'image_num': '4', 'comment_num': '3', 'children': [], 'lat': 34.200434678244115, 'lng': 108.84339507982713}}"
"{'name': '城市金融报社', 'location': {'lat': 34.19272724341327, 'lng': 108.8772054167412}, 'address': '西安市雁塔区高新区锦业一路10号中投国际A座1802室', 'province': '陕西省', 'city': '西安市', 'area': '雁塔区', 'detail': 1, 'uid': 'a6665c81a1284003f4b916d6', 'detail_info': {'tag': '文化传媒;新闻出版', 'type': 'enterprise', 'detail_url': 'http://api.map.baidu.com/place/detail?uid=a6665c81a1284003f4b916d6&output=html&source=placeapi_v2', 'children': [], 'lat': 34.19272724341327, 'lng': 108.8772054167412}}"
"{'name': '陕西永利国际金融中心-接送点', 'location': {'lat': 34.19317623810535, 'lng': 108.87926800317197}, 'address': '陕西永利国际金融中心附近', 'province': '陕西省', 'city': '西安市', 'area': '雁塔区', 'detail': 1, 'uid': 'f85abe357e0c121043ab9abb', 'detail_info': {'tag': '交通设施;其他', 'type': 'life', 'detail_url': 'http://api.map.baidu.com/place/detail?uid=f85abe357e0c121043ab9abb&output=html&source=placeapi_v2', 'image_num': '1', 'children': [], 'lat': 34.19317623810535, 'lng': 108.87926800317197}}"
"{'name': '中国邮政储蓄银行24小时自助银行(西安市高新支行)', 'location': {'lat': 34.19802778933098, 'lng': 108.87894123069071}, 'address': '丈八二路5号SOHO·B座1层', 'province': '陕西省', 'city': '西安市', 'area': '雁塔区', 'street_id': '3a5c45dff27bdcc0f5c59c01', 'detail': 1, 'uid': '397ea0e44e0229a0223bf23c', 'detail_info': {'tag': '金融;atm', 'navi_location': {'lng': 108.88987681839, 'lat': 34.202173690666}, 'type': 'life', 'detail_url': 'http://api.map.baidu.com/place/detail?uid=397ea0e44e0229a0223bf23c&output=html&source=placeapi_v2', 'overall_rating': '4.0', 'image_num': '4', 'comment_num': '2', 'children': [], 'lat': 34.19802778933098, 'lng': 108.87894123069071}}"
"{'name': '中国银行24小时自助银行(西安锦业路支行)', 'location': {'lat': 34.19680888034988, 'lng': 108.87055090534514}, 'address': '丈八三路6号餐界A区', 'province': '陕西省', 'city': '西安市', 'area': '雁塔区', 'street_id': '7c6ef6e9801ba87b2d4733ac', 'detail': 1, 'uid': '7c6ef6e9801ba87b2d4733ac', 'detail_info': {'tag': '金融;atm', 'navi_location': {'lng': 108.88203880997, 'lat': 34.200996776412}, 'type': 'life', 'detail_url': 'http://api.map.baidu.com/place/detail?uid=7c6ef6e9801ba87b2d4733ac&output=html&source=placeapi_v2', 'overall_rating': '0.0', 'image_num': '7', 'comment_num': '1', 'children': [], 'lat': 34.19680888034988, 'lng': 108.87055090534514}}"
"{'name': '招商银行24小时自助银行(西安高新科技支行)', 'location': {'lat': 34.199501191537905, 'lng': 108.88071120250916}, 'address': '陕西省体育训练中心南门对面汇鑫IBC-A座1层', 'province': '陕西省', 'city': '西安市', 'area': '雁塔区', 'street_id': '492c181c16774275725e802b', 'detail': 1, 'uid': '492c181c16774275725e802b', 'detail_info': {'tag': '金融;atm', 'navi_location': {'lng': 108.89189168351, 'lat': 34.203692771237}, 'type': 'life', 'detail_url': 'http://api.map.baidu.com/place/detail?uid=492c181c16774275725e802b&output=html&source=placeapi_v2', 'overall_rating': '5.0', 'image_num': '4', 'comment_num': '1', 'children': [], 'lat': 34.199501191537905, 'lng': 108.88071120250916}}"
"{'name': '中国建设银行24小时自助银行服务(科技八路店)', 'location': {'lat': 34.20688459158984, 'lng': 108.87956337686558}, 'address': '陕西省西安市雁塔区丈八东路303号', 'province': '陕西省', 'city': '西安市', 'area': '雁塔区', 'street_id': 'edc54eba244b6c991b94c66a', 'detail': 1, 'uid': 'edc54eba244b6c991b94c66a', 'detail_info': {'tag': '金融;atm', 'type': 'life', 'detail_url': 'http://api.map.baidu.com/place/detail?uid=edc54eba244b6c991b94c66a&output=html&source=placeapi_v2', 'overall_rating': '1.0', 'image_num': '7', 'comment_num': '2', 'children': [], 'lat': 34.20688459158984, 'lng': 108.87956337686558}}"
"{'name': '招商银行24小时自助银行(锦业二路店)', 'location': {'lat': 34.18379753040123, 'lng': 108.84450079885276}, 'address': '锦业二路52号附近', 'province': '陕西省', 'city': '西安市', 'area': '长安区', 'street_id': 'd35ce33a0870300840ab9a0a', 'detail': 1, 'uid': 'd35ce33a0870300840ab9a0a', 'detail_info': {'tag': '金融;atm', 'navi_location': {'lng': 108.85556881879, 'lat': 34.188614839155}, 'type': 'life', 'detail_url': 'http://api.map.baidu.com/place/detail?uid=d35ce33a0870300840ab9a0a&output=html&source=placeapi_v2', 'image_num': '2', 'children': [], 'lat': 34.18379753040123, 'lng': 108.84450079885276}}"
"{'name': '中国建设银行24小时自助银行服务(锦业路)', 'location': {'lat': 34.194599474508735, 'lng': 108.8806495724932}, 'address': '陕西省西安市雁塔区绿地·领海大厦B座10104', 'province': '陕西省', 'city': '西安市', 'area': '雁塔区', 'street_id': 'bb1fd99c66d69264bbbd63e3', 'detail': 1, 'uid': 'bb1fd99c66d69264bbbd63e3', 'detail_info': {'tag': '金融;atm', 'type': 'life', 'detail_url': 'http://api.map.baidu.com/place/detail?uid=bb1fd99c66d69264bbbd63e3&output=html&source=placeapi_v2', 'image_num': '3', 'children': [], 'lat': 34.194599474508735, 'lng': 108.8806495724932}}"
"{'name': '中国民生银行24小时自助银行(锦业路支行)', 'location': {'lat': 34.19814370341427, 'lng': 108.87960463619312}, 'address': '丈八二路5号SOHO·B座1层', 'province': '陕西省', 'city': '西安市', 'area': '雁塔区', 'street_id': 'a1e58305f604dee5f423102a', 'detail': 1, 'uid': 'a1e58305f604dee5f423102a', 'detail_info': {'tag': '金融;atm', 'navi_location': {'lng': 108.89103541511, 'lat': 34.202283292178}, 'type': 'life', 'detail_url': 'http://api.map.baidu.com/place/detail?uid=a1e58305f604dee5f423102a&output=html&source=placeapi_v2', 'image_num': '4', 'children': [], 'lat': 34.19814370341427, 'lng': 108.87960463619312}}"
"{'name': '招商银行24小时自助银行(西安绿地世纪城社区支行)', 'location': {'lat': 34.19603320282651, 'lng': 108.8696955922344}, 'address': '陕西省西安市雁塔区丈八三路绿地世纪城仕嘉公寓A区44号楼10112号', 'province': '陕西省', 'city': '西安市', 'area': '雁塔区', 'street_id': 'e9e0c035cf21282a16764341', 'detail': 1, 'uid': 'e9e0c035cf21282a16764341', 'detail_info': {'tag': '金融;atm', 'type': 'life', 'detail_url': 'http://api.map.baidu.com/place/detail?uid=e9e0c035cf21282a16764341&output=html&source=placeapi_v2', 'overall_rating': '0.0', 'image_num': '3', 'comment_num': '1', 'children': [], 'lat': 34.19603320282651, 'lng': 108.8696955922344}}"
"{'name': '中国工商银行24小时自助银行服务(丈八四路店)', 'location': {'lat': 34.20442006624113, 'lng': 108.86416364937705}, 'address': '陕西省西安市雁塔区丈八四路缤纷南郡11号楼', 'province': '陕西省', 'city': '西安市', 'area': '雁塔区', 'street_id': 'd219a48b181f16f89868b4b6', 'detail': 1, 'uid': 'd219a48b181f16f89868b4b6', 'detail_info': {'tag': '金融;atm', 'type': 'life', 'detail_url': 'http://api.map.baidu.com/place/detail?uid=d219a48b181f16f89868b4b6&output=html&source=placeapi_v2', 'overall_rating': '1.0', 'image_num': '6', 'comment_num': '2', 'children': [], 'lat': 34.20442006624113, 'lng': 108.86416364937705}}"
"{'name': '西安银行ATM(锦业二路店)', 'location': {'lat': 34.184283120780805, 'lng': 108.85407394467904}, 'address': '锦业二路附71号', 'province': '陕西省', 'city': '西安市', 'area': '雁塔区', 'street_id': '7fe0148e9be95b50a1a934e6', 'detail': 1, 'uid': '7fe0148e9be95b50a1a934e6', 'detail_info': {'tag': '金融;atm', 'navi_location': {'lng': 108.8650996022, 'lat': 34.188777849001}, 'type': 'life', 'detail_url': 'http://api.map.baidu.com/place/detail?uid=7fe0148e9be95b50a1a934e6&output=html&source=placeapi_v2', 'overall_rating': '0.0', 'image_num': '8', 'comment_num': '4', 'children': [], 'lat': 34.184283120780805, 'lng': 108.85407394467904}}"
"{'name': '中国光大银行ATM(锦业路店)', 'location': {'lat': 34.19585967755212, 'lng': 108.85324613372877}, 'address': '锦业路71号', 'province': '陕西省', 'city': '西安市', 'area': '雁塔区', 'street_id': '1af6d0798e91c336aecb6634', 'detail': 1, 'uid': '1af6d0798e91c336aecb6634', 'detail_info': {'tag': '金融;atm', 'navi_location': {'lng': 108.86430331904, 'lat': 34.20027135934}, 'type': 'life', 'detail_url': 'http://api.map.baidu.com/place/detail?uid=1af6d0798e91c336aecb6634&output=html&source=placeapi_v2', 'overall_rating': '0.0', 'image_num': '7', 'comment_num': '2', 'children': [], 'lat': 34.19585967755212, 'lng': 108.85324613372877}}"
"{'name': '中国建设银行24小时自助银行(西安锦业路支行)', 'location': {'lat': 34.195947849733535, 'lng': 108.87183902228925}, 'address': '锦业路与丈八三路交口向东135米路北', 'province': '陕西省', 'city': '西安市', 'area': '雁塔区', 'street_id': '23e5f33b4bba5ed8b4265500', 'detail': 1, 'uid': '23e5f33b4bba5ed8b4265500', 'detail_info': {'tag': '金融;atm', 'navi_location': {'lng': 108.88294154232, 'lat': 34.199825906039}, 'type': 'life', 'detail_url': 'http://api.map.baidu.com/place/detail?uid=23e5f33b4bba5ed8b4265500&output=html&source=placeapi_v2', 'image_num': '7', 'children': [], 'lat': 34.195947849733535, 'lng': 108.87183902228925}}"
"{'name': '中国农业银行24小时自助银行(陕西自贸区西安唐延南路支行)', 'location': {'lat': 34.18520932414494, 'lng': 108.87844403434823}, 'address': '西安市雁塔区唐延南路与锦业二路交叉路口往北约50米(逸翠·尚府北区)', 'province': '陕西省', 'city': '西安市', 'area': '雁塔区', 'street_id': 'cf4984577f4fdde2f82213a3', 'detail': 1, 'uid': 'cf4984577f4fdde2f82213a3', 'detail_info': {'tag': '金融;atm', 'type': 'life', 'detail_url': 'http://api.map.baidu.com/place/detail?uid=cf4984577f4fdde2f82213a3&output=html&source=placeapi_v2', 'overall_rating': '0.0', 'image_num': '4', 'comment_num': '2', 'children': [], 'lat': 34.18520932414494, 'lng': 108.87844403434823}}"
"{'name': '金泰新理城客服中心', 'location': {'lat': 34.20901641373239, 'lng': 108.86066796458316}, 'address': '科技七路32号', 'province': '陕西省', 'city': '西安市', 'area': '雁塔区', 'detail': 1, 'uid': '8bfd404479259bafd42ce2fe', 'detail_info': {'tag': '生活服务;其他', 'navi_location': {'lng': 108.8718135295, 'lat': 34.213653401728}, 'type': 'life', 'detail_url': 'http://api.map.baidu.com/place/detail?uid=8bfd404479259bafd42ce2fe&output=html&source=placeapi_v2', 'image_num': '5', 'children': [], 'lat': 34.20901641373239, 'lng': 108.86066796458316}}"
"{'name': '中国建设银行24小时自助银行', 'location': {'lat': 34.18646790362377, 'lng': 108.88047257888547}, 'address': '西安市雁塔区唐延南路与傅村东路交叉路口东侧(逸翠园·西安)', 'province': '陕西省', 'city': '西安市', 'area': '雁塔区', 'street_id': '27ca6b0feece0292b9df8fb1', 'detail': 1, 'uid': '27ca6b0feece0292b9df8fb1', 'detail_info': {'tag': '金融;atm', 'type': 'life', 'detail_url': 'http://api.map.baidu.com/place/detail?uid=27ca6b0feece0292b9df8fb1&output=html&source=placeapi_v2', 'image_num': '7', 'children': [], 'lat': 34.18646790362377, 'lng': 108.88047257888547}}"
"{'name': '中国农业银行24小时自助银行服务(西安丈八四路分理处)', 'location': {'lat': 34.20390396711735, 'lng': 108.86430358144577}, 'address': '西安市雁塔区丈八四路与瞪羚路交叉路口西北侧(缤纷南郡)', 'province': '陕西省', 'city': '西安市', 'area': '雁塔区', 'street_id': 'd57cc9fb82e0284381a12ea2', 'detail': 1, 'uid': 'd57cc9fb82e0284381a12ea2', 'detail_info': {'tag': '金融;atm', 'navi_location': {'lng': 108.87546950742, 'lat': 34.208046227489}, 'type': 'life', 'detail_url': 'http://api.map.baidu.com/place/detail?uid=d57cc9fb82e0284381a12ea2&output=html&source=placeapi_v2', 'overall_rating': '3.0', 'image_num': '5', 'children': [], 'lat': 34.20390396711735, 'lng': 108.86430358144577}}"
"{'name': '中国银行24小时自助银行(西安锦业二路支行)', 'location': {'lat': 34.183736496279124, 'lng': 108.85408030313727}, 'address': '锦业二路86号旁', 'province': '陕西省', 'city': '西安市', 'area': '雁塔区', 'street_id': '115a9d23b430c9446ca3cc3f', 'detail': 1, 'uid': '115a9d23b430c9446ca3cc3f', 'detail_info': {'tag': '金融;atm', 'navi_location': {'lng': 108.86462964918, 'lat': 34.188575330131}, 'type': 'life', 'detail_url': 'http://api.map.baidu.com/place/detail?uid=115a9d23b430c9446ca3cc3f&output=html&source=placeapi_v2', 'image_num': '5', 'children': [], 'lat': 34.183736496279124, 'lng': 108.85408030313727}}"
"{'name': '中国工商银行24小时自助银行', 'location': {'lat': 34.18520186909257, 'lng': 108.87972722044276}, 'address': '西安市雁塔区唐延南路与锦业二路交叉路口往东北约100米(逸翠园·西安)', 'province': '陕西省', 'city': '西安市', 'area': '雁塔区', 'detail': 1, 'uid': '1806b85e3b55eebd10293529', 'detail_info': {'tag': '金融;atm', 'type': 'life', 'detail_url': 'http://api.map.baidu.com/place/detail?uid=1806b85e3b55eebd10293529&output=html&source=placeapi_v2', 'image_num': '3', 'children': [], 'lat': 34.18520186909257, 'lng': 108.87972722044276}}"
"{'name': '24小时自助银行服务(西安锦业路支行)', 'location': {'lat': 34.19496200617393, 'lng': 108.86870022821547}, 'address': '锦业路38号', 'province': '陕西省', 'city': '西安市', 'area': '雁塔区', 'street_id': '370e500238d486d4eb12e4a8', 'detail': 1, 'uid': '370e500238d486d4eb12e4a8', 'detail_info': {'tag': '金融;atm', 'type': 'life', 'detail_url': 'http://api.map.baidu.com/place/detail?uid=370e500238d486d4eb12e4a8&output=html&source=placeapi_v2', 'image_num': '8', 'children': [], 'lat': 34.19496200617393, 'lng': 108.86870022821547}}"
"{'name': '中国银行ATM', 'location': {'lat': 34.19612894700116, 'lng': 108.87893924038654}, 'address': '西安市雁塔区锦业路5号西安绿地假日酒店1层', 'province': '陕西省', 'city': '西安市', 'area': '雁塔区', 'detail': 1, 'uid': 'b27b3bc4dca975b1931fc992', 'detail_info': {'tag': '金融;atm', 'type': 'life', 'detail_url': 'http://api.map.baidu.com/place/detail?uid=b27b3bc4dca975b1931fc992&output=html&source=placeapi_v2', 'image_num': '1', 'children': [], 'lat': 34.19612894700116, 'lng': 108.87893924038654}}"
"{'name': '北京银行24小时自助银行服务(西安分行锦业路自助银行)', 'location': {'lat': 34.19340241404576, 'lng': 108.87213131022169}, 'address': '锦业一路11号', 'province': '陕西省', 'city': '西安市', 'area': '雁塔区', 'street_id': '5a0d20ef269b0efb2e47330e', 'detail': 1, 'uid': '5a0d20ef269b0efb2e47330e', 'detail_info': {'tag': '金融;atm', 'navi_location': {'lng': 108.88323622696, 'lat': 34.197546110861}, 'type': 'life', 'detail_url': 'http://api.map.baidu.com/place/detail?uid=5a0d20ef269b0efb2e47330e&output=html&source=placeapi_v2', 'overall_rating': '4.5', 'image_num': '8', 'comment_num': '4', 'children': [], 'lat': 34.19340241404576, 'lng': 108.87213131022169}}"
"{'name': '中国建设银行ATM', 'location': {'lat': 34.21242455499459, 'lng': 108.83282966358341}, 'address': '云水一路与天谷七路交叉口南150米', 'province': '陕西省', 'city': '西安市', 'area': '雁塔区', 'detail': 1, 'uid': 'f9ca695a9e56f85803ec01e5', 'detail_info': {'tag': '金融;atm', 'type': 'life', 'detail_url': 'http://api.map.baidu.com/place/detail?uid=f9ca695a9e56f85803ec01e5&output=html&source=placeapi_v2', 'overall_rating': '0.0', 'image_num': '3', 'comment_num': '1', 'children': [], 'lat': 34.21242455499459, 'lng': 108.83282966358341}}"
"{'name': '思安控股', 'location': {'lat': 34.19842063131794, 'lng': 108.87961231210241}, 'address': '陕西省西安市雁塔区丈八一路2号', 'province': '陕西省', 'city': '西安市', 'area': '雁塔区', 'street_id': '2535fd345b39a3bdd618b711', 'detail': 1, 'uid': '2535fd345b39a3bdd618b711', 'detail_info': {'tag': '公司企业;公司', 'navi_location': {'lng': 108.89062512574, 'lat': 34.203010850686}, 'type': 'enterprise', 'detail_url': 'http://api.map.baidu.com/place/detail?uid=2535fd345b39a3bdd618b711&output=html&source=placeapi_v2', 'children': [], 'lat': 34.19842063131794, 'lng': 108.87961231210241}}"
"{'name': 'GE中国创新中心', 'location': {'lat': 34.1931107884135, 'lng': 108.86834968841066}, 'address': '西安市雁塔区锦业一路29号龙旗科技园7F收发室', 'province': '陕西省', 'city': '西安市', 'area': '雁塔区', 'detail': 1, 'uid': 'c316390e16303913b34c4901', 'detail_info': {'tag': '公司企业;园区', 'type': 'education', 'detail_url': 'http://api.map.baidu.com/place/detail?uid=c316390e16303913b34c4901&output=html&source=placeapi_v2', 'children': [], 'lat': 34.1931107884135, 'lng': 108.86834968841066}}"
"{'name': '中国民生银行24小时自助银行服务(西安绿地世纪城社区支行)', 'location': {'lat': 34.19949379826331, 'lng': 108.86996270037417}, 'address': '丈八三路绿地世纪城仕嘉公寓A区2号楼', 'province': '陕西省', 'city': '西安市', 'area': '雁塔区', 'street_id': '48a63c8626b4adc816c905ed', 'detail': 1, 'uid': '48a63c8626b4adc816c905ed', 'detail_info': {'tag': '金融;atm', 'type': 'life', 'detail_url': 'http://api.map.baidu.com/place/detail?uid=48a63c8626b4adc816c905ed&output=html&source=placeapi_v2', 'overall_rating': '0.0', 'image_num': '5', 'comment_num': '1', 'children': [], 'lat': 34.19949379826331, 'lng': 108.86996270037417}}"
"{'name': '中国邮政储蓄银行24小时自助银行(袁旗寨营业所)', 'location': {'lat': 34.2002756196095, 'lng': 108.84840662711618}, 'address': '陕西省西安市雁塔区丈八六路', 'province': '陕西省', 'city': '西安市', 'area': '雁塔区', 'street_id': '9243eff454096bedae0457be', 'detail': 1, 'uid': '9243eff454096bedae0457be', 'detail_info': {'tag': '金融;atm', 'navi_location': {'lng': 108.85937902922, 'lat': 34.204731721713},