"{'name': '昆明池遗址', 'location': {'lat': 34.210991, 'lng': 108.779778}, 'address': '西安市长安区昆明池七夕公园内', 'province': '陕西省', 'city': '西安市', 'area': '长安区', 'detail': 1, 'uid': 'c7332cd7fbcc0d82ebe582d9', 'detail_info': {'tag': '旅游景点;景点', 'navi_location': {'lng': 108.7812626866, 'lat': 34.217484892966}, 'type': 'scope', 'detail_url': 'http://api.map.baidu.com/place/detail?uid=c7332cd7fbcc0d82ebe582d9&output=html&source=placeapi_v2', 'overall_rating': '4.3', 'comment_num': '77', 'children': []}}"
"{'name': '鱼化湖公园', 'location': {'lat': 34.237922, 'lng': 108.873804}, 'address': '外事学院南区北门内西50米', 'province': '陕西省', 'city': '西安市', 'area': '雁塔区', 'street_id': 'ae1cdccdcd8fdb6fb23c8188', 'telephone': '(029)88751007', 'detail': 1, 'uid': 'ae1cdccdcd8fdb6fb23c8188', 'detail_info': {'tag': '旅游景点;公园', 'navi_location': {'lng': 108.87505601444, 'lat': 34.23911681312}, 'type': 'scope', 'detail_url': 'http://api.map.baidu.com/place/detail?uid=ae1cdccdcd8fdb6fb23c8188&output=html&source=placeapi_v2', 'overall_rating': '3.4', 'comment_num': '7', 'children': []}}"
"{'name': '云水公园', 'location': {'lat': 34.220518, 'lng': 108.846445}, 'address': '西安市高新区云萃路', 'province': '陕西省', 'city': '西安市', 'area': '雁塔区', 'street_id': '6ccb87a451f19a27626858b9', 'detail': 1, 'uid': '6ccb87a451f19a27626858b9', 'detail_info': {'tag': '旅游景点;公园', 'navi_location': {'lng': 108.84644545646, 'lat': 34.219445358149}, 'type': 'scope', 'detail_url': 'http://api.map.baidu.com/place/detail?uid=6ccb87a451f19a27626858b9&output=html&source=placeapi_v2', 'overall_rating': '4.7', 'comment_num': '32', 'children': []}}"
"{'name': '汉武大帝', 'location': {'lat': 34.218424, 'lng': 108.776999}, 'address': '西安市长安区昆明池·七夕公园内', 'province': '陕西省', 'city': '西安市', 'area': '长安区', 'detail': 1, 'uid': '66f2005e22dcafdbc7f50d07', 'detail_info': {'tag': '旅游景点;景点', 'type': 'scope', 'detail_url': 'http://api.map.baidu.com/place/detail?uid=66f2005e22dcafdbc7f50d07&output=html&source=placeapi_v2', 'overall_rating': '4.7', 'image_num': '1', 'comment_num': '4', 'children': []}}"
"{'name': '鱼化工业园亲水公园', 'location': {'lat': 34.247621, 'lng': 108.844682}, 'address': '陕西省西安市雁塔区鱼跃路', 'province': '陕西省', 'city': '西安市', 'area': '雁塔区', 'detail': 1, 'uid': '6e22d8267dd611b4095cb38e', 'detail_info': {'tag': '旅游景点;公园', 'type': 'scope', 'detail_url': 'http://api.map.baidu.com/place/detail?uid=6e22d8267dd611b4095cb38e&output=html&source=placeapi_v2', 'overall_rating': '5.0', 'comment_num': '1', 'children': []}}"
"{'name': '凤求凰', 'location': {'lat': 34.215841, 'lng': 108.776989}, 'address': '西安市长安区沣东新城斗门新型工业园区汇新路北段昆明池·七夕公园内', 'province': '陕西省', 'city': '西安市', 'area': '长安区', 'detail': 1, 'uid': '576a6060e0ea8ae21ce999c0', 'detail_info': {'tag': '旅游景点;景点', 'type': 'scope', 'detail_url': 'http://api.map.baidu.com/place/detail?uid=576a6060e0ea8ae21ce999c0&output=html&source=placeapi_v2', 'overall_rating': '5.0', 'comment_num': '3', 'children': []}}"
"{'name': '丰镐遗址', 'location': {'lat': 34.247534, 'lng': 108.780808}, 'address': '西安市长安区108国道东50米', 'province': '陕西省', 'city': '西安市', 'area': '长安区', 'detail': 1, 'uid': 'd7569a1ba36d20d1b54f54cc', 'detail_info': {'tag': '旅游景点;文物古迹', 'type': 'scope', 'detail_url': 'http://api.map.baidu.com/place/detail?uid=d7569a1ba36d20d1b54f54cc&output=html&source=placeapi_v2', 'overall_rating': '2.0', 'comment_num': '1', 'children': []}}"
"{'name': '西华门', 'location': {'lat': 34.198335, 'lng': 108.879043}, 'address': '锦业路与锦业六街交叉口', 'province': '陕西省', 'city': '西安市', 'area': '雁塔区', 'street_id': '21720f0030eb956b90114cb8', 'detail': 1, 'uid': '21720f0030eb956b90114cb8', 'detail_info': {'tag': '旅游景点;景点', 'type': 'scope', 'detail_url': 'http://api.map.baidu.com/place/detail?uid=21720f0030eb956b90114cb8&output=html&source=placeapi_v2', 'overall_rating': '4.3', 'comment_num': '4', 'children': []}}"
"{'name': '皂河公园', 'location': {'lat': 34.214092, 'lng': 108.873336}, 'address': '陕西省西安市雁塔区科技七路与经五路交汇处', 'province': '陕西省', 'city': '西安市', 'area': '雁塔区', 'detail': 1, 'uid': '38942f7f479dc669bea240ee', 'detail_info': {'tag': '旅游景点;公园', 'type': 'scope', 'detail_url': 'http://api.map.baidu.com/place/detail?uid=38942f7f479dc669bea240ee&output=html&source=placeapi_v2', 'overall_rating': '2.0', 'comment_num': '1', 'children': []}}"
"{'name': '大明怀远将军园', 'location': {'lat': 34.22881, 'lng': 108.826719}, 'address': '陕西省西安市雁塔区西宝疏导线关中驾校南200米', 'province': '陕西省', 'city': '西安市', 'area': '雁塔区', 'street_id': '8ed2e7b406ac382b4bcc4a18', 'detail': 1, 'uid': '8ed2e7b406ac382b4bcc4a18', 'detail_info': {'tag': '旅游景点;其他', 'navi_location': {'lng': 108.82820250287, 'lat': 34.228971945323}, 'type': 'scope', 'detail_url': 'http://api.map.baidu.com/place/detail?uid=8ed2e7b406ac382b4bcc4a18&output=html&source=placeapi_v2', 'overall_rating': '3.0', 'comment_num': '1', 'children': []}}"
"{'name': '牛郎织女石刻', 'location': {'lat': 34.231101, 'lng': 108.78861}, 'address': '北常村', 'province': '陕西省', 'city': '西安市', 'area': '长安区', 'street_id': '5254286d7624423edc1e52e0', 'detail': 1, 'uid': '5254286d7624423edc1e52e0', 'detail_info': {'tag': '旅游景点;文物古迹', 'navi_location': {'lng': 108.78846550409, 'lat': 34.230241971413}, 'type': 'scope', 'detail_url': 'http://api.map.baidu.com/place/detail?uid=5254286d7624423edc1e52e0&output=html&source=placeapi_v2', 'overall_rating': '5.0', 'comment_num': '2', 'children': []}}"
"{'name': '昆明池·七夕公园', 'location': {'lat': 34.214969, 'lng': 108.781361}, 'address': '沣东新城斗门新型工业园区汇新路北段', 'province': '陕西省', 'city': '西安市', 'area': '长安区', 'telephone': '(029)89500981', 'detail': 1, 'uid': '7887efb3caf673898605bffb', 'detail_info': {'tag': '旅游景点;公园', 'navi_location': {'lng': 108.77739612726, 'lat': 34.220287067684}, 'type': 'scope', 'detail_url': 'http://api.map.baidu.com/place/detail?uid=7887efb3caf673898605bffb&output=html&source=placeapi_v2', 'overall_rating': '4.5', 'comment_num': '79', 'children': []}}"
"{'name': '天地长廊', 'location': {'lat': 34.213352, 'lng': 108.78251}, 'address': '西安市长安区', 'province': '陕西省', 'city': '西安市', 'area': '长安区', 'detail': 1, 'uid': '5b90cd2bcdb26f5e17948e33', 'detail_info': {'tag': '旅游景点;景点', 'type': 'scope', 'detail_url': 'http://api.map.baidu.com/place/detail?uid=5b90cd2bcdb26f5e17948e33&output=html&source=placeapi_v2', 'overall_rating': '5.0', 'comment_num': '1', 'children': []}}"
"{'name': '卷云台', 'location': {'lat': 34.211908, 'lng': 108.777224}, 'address': '昆明池·七夕公园', 'province': '陕西省', 'city': '西安市', 'area': '长安区', 'detail': 1, 'uid': '8ffe39e40f6b8a02a1a9344d', 'detail_info': {'tag': '旅游景点;景点', 'type': 'scope', 'detail_url': 'http://api.map.baidu.com/place/detail?uid=8ffe39e40f6b8a02a1a9344d&output=html&source=placeapi_v2', 'overall_rating': '5.0', 'comment_num': '1', 'children': []}}"
"{'name': '魁星楼遗址', 'location': {'lat': 34.242025, 'lng': 108.780592}, 'address': '陕西省西安市长安区', 'province': '陕西省', 'city': '西安市', 'area': '长安区', 'detail': 1, 'uid': 'e061f78dd023250207fef53d', 'detail_info': {'tag': '旅游景点;文物古迹', 'type': 'scope', 'detail_url': 'http://api.map.baidu.com/place/detail?uid=e061f78dd023250207fef53d&output=html&source=placeapi_v2', 'overall_rating': '3.7', 'comment_num': '3', 'children': []}}"
"{'name': '许愿树', 'location': {'lat': 34.215491, 'lng': 108.784842}, 'address': '西安市长安区沣东新城斗门新型工业园区汇新路北段昆明池·七夕公园内', 'province': '陕西省', 'city': '西安市', 'area': '长安区', 'detail': 1, 'uid': '42be24b76f7125a9c4f025ac', 'detail_info': {'tag': '旅游景点;景点', 'type': 'scope', 'detail_url': 'http://api.map.baidu.com/place/detail?uid=42be24b76f7125a9c4f025ac&output=html&source=placeapi_v2', 'overall_rating': '5.0', 'comment_num': '1', 'children': []}}"
"{'name': '泛鹢台', 'location': {'lat': 34.211453, 'lng': 108.782855}, 'address': '西安市长安区沣东新城斗门新型工业园区汇新路北段昆明池·七夕公园内', 'province': '陕西省', 'city': '西安市', 'area': '长安区', 'detail': 1, 'uid': '931af6e382f8fe426cc02c10', 'detail_info': {'tag': '旅游景点;景点', 'type': 'scope', 'detail_url': 'http://api.map.baidu.com/place/detail?uid=931af6e382f8fe426cc02c10&output=html&source=placeapi_v2', 'overall_rating': '5.0', 'comment_num': '1', 'children': []}}"
"{'name': '金刚石婚', 'location': {'lat': 34.212976, 'lng': 108.779398}, 'address': '西安市长安区沣东新城斗门新型工业园区汇新路北段昆明池·七夕公园内', 'province': '陕西省', 'city': '西安市', 'area': '长安区', 'detail': 1, 'uid': 'ed86596f2b70a897a2d230d0', 'detail_info': {'tag': '旅游景点;景点', 'type': 'scope', 'detail_url': 'http://api.map.baidu.com/place/detail?uid=ed86596f2b70a897a2d230d0&output=html&source=placeapi_v2', 'overall_rating': '5.0', 'comment_num': '1', 'children': []}}"
"{'name': '鹊桥仙', 'location': {'lat': 34.211807, 'lng': 108.78227}, 'address': '西安市长安区沣东新城斗门新型工业园区汇新路北段昆明池·七夕公园内', 'province': '陕西省', 'city': '西安市', 'area': '长安区', 'detail': 1, 'uid': '19c228dfe3ffe9b9d03ce3c4', 'detail_info': {'tag': '旅游景点;景点', 'type': 'scope', 'detail_url': 'http://api.map.baidu.com/place/detail?uid=19c228dfe3ffe9b9d03ce3c4&output=html&source=placeapi_v2', 'overall_rating': '5.0', 'comment_num': '1', 'children': []}}"
"{'name': '珍珠婚', 'location': {'lat': 34.214623, 'lng': 108.784141}, 'address': '西安市长安区', 'province': '陕西省', 'city': '西安市', 'area': '长安区', 'detail': 1, 'uid': 'a77091890cfd95d5f13cbaaa', 'detail_info': {'tag': '旅游景点;景点', 'type': 'scope', 'detail_url': 'http://api.map.baidu.com/place/detail?uid=a77091890cfd95d5f13cbaaa&output=html&source=placeapi_v2', 'overall_rating': '5.0', 'comment_num': '1', 'children': []}}"
"{'name': '贺牛生日', 'location': {'lat': 34.212378, 'lng': 108.782864}, 'address': '西安市长安区沣东新城斗门新型工业园区汇新路北段昆明池·七夕公园内', 'province': '陕西省', 'city': '西安市', 'area': '长安区', 'detail': 1, 'uid': '24d2b69492cee39649fc8d64', 'detail_info': {'tag': '旅游景点;景点', 'type': 'scope', 'detail_url': 'http://api.map.baidu.com/place/detail?uid=24d2b69492cee39649fc8d64&output=html&source=placeapi_v2', 'overall_rating': '5.0', 'comment_num': '1', 'children': []}}"
"{'name': '汗血宝马', 'location': {'lat': 34.216812, 'lng': 108.777789}, 'address': '西安市长安区沣东新城斗门新型工业园区汇新路北段昆明池·七夕公园内', 'province': '陕西省', 'city': '西安市', 'area': '长安区', 'detail': 1, 'uid': 'af561c97d1f1b5440c0e6bc8', 'detail_info': {'tag': '旅游景点;景点', 'type': 'scope', 'detail_url': 'http://api.map.baidu.com/place/detail?uid=af561c97d1f1b5440c0e6bc8&output=html&source=placeapi_v2', 'overall_rating': '5.0', 'comment_num': '1', 'children': []}}"
"{'name': '珊瑚婚', 'location': {'lat': 34.214483, 'lng': 108.783297}, 'address': '西安市长安区沣东新城斗门新型工业园区汇新路北段昆明池·七夕公园内', 'province': '陕西省', 'city': '西安市', 'area': '长安区', 'detail': 1, 'uid': 'e16ade2032b71adfc61e5164', 'detail_info': {'tag': '旅游景点;景点', 'type': 'scope', 'detail_url': 'http://api.map.baidu.com/place/detail?uid=e16ade2032b71adfc61e5164&output=html&source=placeapi_v2', 'overall_rating': '5.0', 'comment_num': '1', 'children': []}}"
"{'name': '圆形广场', 'location': {'lat': 34.20835, 'lng': 108.866596}, 'address': '瞪羚二路与瞪羚路交叉口东北150米', 'province': '陕西省', 'city': '西安市', 'area': '雁塔区', 'street_id': 'ef3e371944faa461373a71f4', 'detail': 1, 'uid': 'ef3e371944faa461373a71f4', 'detail_info': {'tag': '旅游景点;景点', 'type': 'scope', 'detail_url': 'http://api.map.baidu.com/place/detail?uid=ef3e371944faa461373a71f4&output=html&source=placeapi_v2', 'children': []}}"
"{'name': '摩天轮', 'location': {'lat': 34.215161, 'lng': 108.784536}, 'address': '西安市长安区沣东新城斗门新型工业园区汇新路北段昆明池·七夕公园内', 'province': '陕西省', 'city': '西安市', 'area': '长安区', 'detail': 1, 'uid': '426c7f76b06c0d0ded74f8f5', 'detail_info': {'tag': '旅游景点;景点', 'type': 'scope', 'detail_url': 'http://api.map.baidu.com/place/detail?uid=426c7f76b06c0d0ded74f8f5&output=html&source=placeapi_v2', 'children': []}}"
"{'name': '留仙', 'location': {'lat': 34.210393, 'lng': 108.780458}, 'address': '西安市长安区沣东新城斗门新型工业园区汇新路北段昆明池·七夕公园内', 'province': '陕西省', 'city': '西安市', 'area': '长安区', 'detail': 1, 'uid': '16dd1fbdc8d82ffc130daa5b', 'detail_info': {'tag': '旅游景点;景点', 'type': 'scope', 'detail_url': 'http://api.map.baidu.com/place/detail?uid=16dd1fbdc8d82ffc130daa5b&output=html&source=placeapi_v2', 'overall_rating': '5.0', 'comment_num': '1', 'children': []}}"
"{'name': '乌孜古加盟号', 'location': {'lat': 34.20085, 'lng': 108.888741}, 'address': '西安市雁塔区锦业路绿地正大缤纷城第5幢1单元1层10109号房', 'province': '陕西省', 'city': '西安市', 'area': '雁塔区', 'street_id': '5fd7556f9f3f23e6b8bd634b', 'telephone': '13669272521', 'detail': 1, 'uid': '5fd7556f9f3f23e6b8bd634b', 'detail_info': {'tag': '旅游景点', 'navi_location': {'lng': 108.8898719882, 'lat': 34.200869838422}, 'type': 'scope', 'detail_url': 'http://api.map.baidu.com/place/detail?uid=5fd7556f9f3f23e6b8bd634b&output=html&source=placeapi_v2', 'overall_rating': '4.0', 'comment_num': '1', 'children': []}}"
"{'name': '蓝宝石婚', 'location': {'lat': 34.213841, 'lng': 108.781994}, 'address': '西安市长安区沣东新城斗门新型工业园区汇新路北段昆明池·七夕公园内', 'province': '陕西省', 'city': '西安市', 'area': '长安区', 'detail': 1, 'uid': '7b2072e2b404656349fd3fb1', 'detail_info': {'tag': '旅游景点;景点', 'type': 'scope', 'detail_url': 'http://api.map.baidu.com/place/detail?uid=7b2072e2b404656349fd3fb1&output=html&source=placeapi_v2', 'overall_rating': '5.0', 'comment_num': '1', 'children': []}}"
"{'name': '石鲸', 'location': {'lat': 34.208609, 'lng': 108.785892}, 'address': '西安市长安区沣东新城斗门新型工业园区汇新路北段昆明池·七夕公园内', 'province': '陕西省', 'city': '西安市', 'area': '长安区', 'detail': 1, 'uid': 'daf317224bb580c59868b436', 'detail_info': {'tag': '旅游景点;景点', 'type': 'scope', 'detail_url': 'http://api.map.baidu.com/place/detail?uid=daf317224bb580c59868b436&output=html&source=placeapi_v2', 'overall_rating': '5.0', 'comment_num': '1', 'children': []}}"
"{'name': '迎风亭', 'location': {'lat': 34.214549, 'lng': 108.783584}, 'address': '西安市长安区沣东新城斗门新型工业园区汇新路北段昆明池·七夕公园内', 'province': '陕西省', 'city': '西安市', 'area': '长安区', 'detail': 1, 'uid': '70ac8cf9d0425bd190114cbb', 'detail_info': {'tag': '旅游景点;景点', 'type': 'scope', 'detail_url': 'http://api.map.baidu.com/place/detail?uid=70ac8cf9d0425bd190114cbb&output=html&source=placeapi_v2', 'overall_rating': '5.0', 'comment_num': '1', 'children': []}}"
"{'name': '红宝石婚', 'location': {'lat': 34.214185, 'lng': 108.78256}, 'address': '西安市长安区沣东新城斗门新型工业园区汇新路北段昆明池·七夕公园内', 'province': '陕西省', 'city': '西安市', 'area': '长安区', 'detail': 1, 'uid': 'e746b8247889d4d30782c21a', 'detail_info': {'tag': '旅游景点;景点', 'type': 'scope', 'detail_url': 'http://api.map.baidu.com/place/detail?uid=e746b8247889d4d30782c21a&output=html&source=placeapi_v2', 'overall_rating': '5.0', 'comment_num': '1', 'children': []}}"
"{'name': '钻石婚', 'location': {'lat': 34.213401, 'lng': 108.777645}, 'address': '西安市长安区沣东新城斗门新型工业园区汇新路北段昆明池·七夕公园内', 'province': '陕西省', 'city': '西安市', 'area': '长安区', 'detail': 1, 'uid': 'f69cb5e1910316b4a4c756ac', 'detail_info': {'tag': '旅游景点;景点', 'type': 'scope', 'detail_url': 'http://api.map.baidu.com/place/detail?uid=f69cb5e1910316b4a4c756ac&output=html&source=placeapi_v2', 'overall_rating': '0.0', 'comment_num': '1', 'children': []}}"
"{'name': '拾光岛游乐园', 'location': {'lat': 34.187754, 'lng': 108.861854}, 'address': '小龙虾和左右岸中间2层', 'province': '陕西省', 'city': '西安市', 'area': '雁塔区', 'detail': 1, 'uid': '804f3aef686cc3d528d7ab96', 'detail_info': {'tag': '旅游景点;游乐园', 'type': 'scope', 'detail_url': 'http://api.map.baidu.com/place/detail?uid=804f3aef686cc3d528d7ab96&output=html&source=placeapi_v2', 'overall_rating': '0.0', 'comment_num': '1', 'children': []}}"
"{'name': '小懒熊儿童乐园', 'location': {'lat': 34.251242, 'lng': 108.883676}, 'address': '大寨路19号晶鑫商业广场A座二楼', 'province': '陕西省', 'city': '西安市', 'area': '雁塔区', 'telephone': '19909293983', 'detail': 1, 'uid': 'c8aa327c43e82e4cd9d89182', 'detail_info': {'tag': '旅游景点;游乐园', 'type': 'scope', 'detail_url': 'http://api.map.baidu.com/place/detail?uid=c8aa327c43e82e4cd9d89182&output=html&source=placeapi_v2', 'overall_rating': '4.6', 'comment_num': '30', 'children': []}}"
"{'name': '茶牌坊', 'location': {'lat': 34.203201, 'lng': 108.862767}, 'address': '陕西省西安市雁塔区丈八六路辅路', 'province': '陕西省', 'city': '西安市', 'area': '雁塔区', 'detail': 1, 'uid': '9db13dd1051fc3ed8505bf26', 'detail_info': {'tag': '旅游景点;景点', 'type': 'scope', 'detail_url': 'http://api.map.baidu.com/place/detail?uid=9db13dd1051fc3ed8505bf26&output=html&source=placeapi_v2', 'children': []}}"
"{'name': '儿童旋转木马', 'location': {'lat': 34.215244, 'lng': 108.784751}, 'address': '西安市长安区沣东新城斗门新型工业园区汇新路北段昆明池·七夕公园内', 'province': '陕西省', 'city': '西安市', 'area': '长安区', 'detail': 1, 'uid': 'c39a17fde0bf98b4c9e33c05', 'detail_info': {'tag': '旅游景点;景点', 'type': 'scope', 'detail_url': 'http://api.map.baidu.com/place/detail?uid=c39a17fde0bf98b4c9e33c05&output=html&source=placeapi_v2', 'children': []}}"
"{'name': '竹韵松涛', 'location': {'lat': 34.228182, 'lng': 108.816757}, 'address': '西安市长安区', 'province': '陕西省', 'city': '西安市', 'area': '长安区', 'detail': 1, 'uid': 'bfb02d7677304afee8e582df', 'detail_info': {'tag': '旅游景点', 'type': 'scope', 'detail_url': 'http://api.map.baidu.com/place/detail?uid=bfb02d7677304afee8e582df&output=html&source=placeapi_v2', 'children': []}}"
"{'name': '西安高新大学城清真寺', 'location': {'lat': 34.200872, 'lng': 108.882927}, 'address': '陕西省西安市雁塔区锦业路绿地世纪城69号饕界荟萃巷NO201', 'province': '陕西省', 'city': '西安市', 'area': '雁塔区', 'street_id': '9a2e2d997234a00ba2d230d6', 'detail': 1, 'uid': '9a2e2d997234a00ba2d230d6', 'detail_info': {'tag': '旅游景点;文物古迹', 'type': 'scope', 'detail_url': 'http://api.map.baidu.com/place/detail?uid=9a2e2d997234a00ba2d230d6&output=html&source=placeapi_v2', 'children': []}}"
"{'name': '蝶恋花', 'location': {'lat': 34.214533, 'lng': 108.783844}, 'address': '西安市长安区沣东新城斗门新型工业园区汇新路北段昆明池·七夕公园内', 'province': '陕西省', 'city': '西安市', 'area': '长安区', 'detail': 1, 'uid': 'a7e4af5fbbc1e1a49d95dec9', 'detail_info': {'tag': '旅游景点;景点', 'type': 'scope', 'detail_url': 'http://api.map.baidu.com/place/detail?uid=a7e4af5fbbc1e1a49d95dec9&output=html&source=placeapi_v2', 'children': []}}"
"{'name': '东方盒子塔', 'location': {'lat': 34.186537, 'lng': 108.886997}, 'address': '陕西省西安市长安区丈八二路', 'province': '陕西省', 'city': '西安市', 'area': '长安区', 'detail': 1, 'uid': '905599452d69c8598a36eecf', 'detail_info': {'tag': '旅游景点;景点', 'type': 'scope', 'detail_url': 'http://api.map.baidu.com/place/detail?uid=905599452d69c8598a36eecf&output=html&source=placeapi_v2', 'image_num': '2', 'children': []}}"
"{'name': '水陆战车', 'location': {'lat': 34.215282, 'lng': 108.7845}, 'address': '西安市长安区沣东新城斗门新型工业园区汇新路北段昆明池·七夕公园内', 'province': '陕西省', 'city': '西安市', 'area': '长安区', 'detail': 1, 'uid': 'b335addfe0507deb6c3e1b39', 'detail_info': {'tag': '旅游景点;景点', 'type': 'scope', 'detail_url': 'http://api.map.baidu.com/place/detail?uid=b335addfe0507deb6c3e1b39&output=html&source=placeapi_v2', 'children': []}}"
"{'name': '陕西体育博物馆', 'location': {'lat': 34.207333, 'lng': 108.894003}, 'address': '丈八东路303号', 'province': '陕西省', 'city': '西安市', 'area': '雁塔区', 'street_id': '291ab16831ee3a3df6c59c41', 'telephone': '(029)88445875', 'detail': 1, 'uid': '291ab16831ee3a3df6c59c41', 'detail_info': {'tag': '旅游景点;博物馆', 'navi_location': {'lng': 108.8937960346, 'lat': 34.207325382063}, 'type': 'scope', 'detail_url': 'http://api.map.baidu.com/place/detail?uid=291ab16831ee3a3df6c59c41&output=html&source=placeapi_v2', 'overall_rating': '4.8', 'comment_num': '13', 'children': []}}"
"{'name': '佛玉禅阁', 'location': {'lat': 34.204398, 'lng': 108.855943}, 'address': '丈八西路55号附近', 'province': '陕西省', 'city': '西安市', 'area': '雁塔区', 'street_id': '16ceb6c8ee13ad05081cc789', 'detail': 1, 'uid': '16ceb6c8ee13ad05081cc789', 'detail_info': {'tag': '旅游景点;文物古迹', 'type': 'scope', 'detail_url': 'http://api.map.baidu.com/place/detail?uid=16ceb6c8ee13ad05081cc789&output=html&source=placeapi_v2', 'children': []}}"
"{'name': '王西京艺术陈列馆', 'location': {'lat': 34.199703, 'lng': 108.86381}, 'address': '高新锦业路76号', 'province': '陕西省', 'city': '西安市', 'area': '雁塔区', 'street_id': 'd5db08af72bfc7491b11d501', 'detail': 1, 'uid': 'd5db08af72bfc7491b11d501', 'detail_info': {'tag': '旅游景点;文物古迹', 'navi_location': {'lng': 108.86372073918, 'lat': 34.199912254919}, 'type': 'scope', 'detail_url': 'http://api.map.baidu.com/place/detail?uid=d5db08af72bfc7491b11d501&output=html&source=placeapi_v2', 'overall_rating': '0.0', 'children': []}}"
"{'name': '卡乐奇宝贝乐园', 'location': {'lat': 34.248836, 'lng': 108.886088}, 'address': '响塘村路与德兴巷交叉口东100米', 'province': '陕西省', 'city': '西安市', 'area': '雁塔区', 'detail': 1, 'uid': 'c3a8e6254852a2eb31870a54', 'detail_info': {'tag': '旅游景点;游乐园', 'type': 'scope', 'detail_url': 'http://api.map.baidu.com/place/detail?uid=c3a8e6254852a2eb31870a54&output=html&source=placeapi_v2', 'children': []}}"
"{'name': '鱼化寨遗址', 'location': {'lat': 34.246047, 'lng': 108.864125}, 'address': '创新路与海纳西路交叉口西北100米', 'province': '陕西省', 'city': '西安市', 'area': '雁塔区', 'detail': 1, 'uid': '7ff7d581e33209313fe2312e', 'detail_info': {'tag': '旅游景点;文物古迹', 'type': 'scope', 'detail_url': 'http://api.map.baidu.com/place/detail?uid=7ff7d581e33209313fe2312e&output=html&source=placeapi_v2', 'children': []}}"
"{'name': '将军纪念堂', 'location': {'lat': 34.228897, 'lng': 108.826792}, 'address': '雁环北路西150米', 'province': '陕西省', 'city': '西安市', 'area': '雁塔区', 'detail': 1, 'uid': '0163442f7f93f3470f0a70fb', 'detail_info': {'tag': '旅游景点;文物古迹', 'type': 'scope', 'detail_url': 'http://api.map.baidu.com/place/detail?uid=0163442f7f93f3470f0a70fb&output=html&source=placeapi_v2', 'children': []}}"
"{'name': '紫静庵', 'location': {'lat': 34.243301, 'lng': 108.780722}, 'address': '西安市长安区359乡道北150米', 'province': '陕西省', 'city': '西安市', 'area': '长安区', 'detail': 1, 'uid': 'ee33689029a33be16318093e', 'detail_info': {'tag': '旅游景点;文物古迹', 'type': 'scope', 'detail_url': 'http://api.map.baidu.com/place/detail?uid=ee33689029a33be16318093e&output=html&source=placeapi_v2', 'children': []}}"
"{'name': '西安市大唐青铜镜博物馆', 'location': {'lat': 34.188796, 'lng': 108.887122}, 'address': '西安市高新区丈八二路和锦业二路十字逸翠尚府北区70117室', 'province': '陕西省', 'city': '西安市', 'area': '雁塔区', 'detail': 1, 'uid': '12e6ed273446f7e160180982', 'detail_info': {'tag': '旅游景点;博物馆', 'type': 'scope', 'detail_url': 'http://api.map.baidu.com/place/detail?uid=12e6ed273446f7e160180982&output=html&source=placeapi_v2', 'children': []}}"
"{'name': '优诺儿童乐园', 'location': {'lat': 34.224445, 'lng': 108.873796}, 'address': '西安市雁塔区丈八北路鸿基新城29幢10104', 'province': '陕西省', 'city': '西安市', 'area': '雁塔区', 'street_id': '8c94871961c99e233a04b115', 'detail': 1, 'uid': '8c94871961c99e233a04b115', 'detail_info': {'tag': '旅游景点;游乐园', 'type': 'scope', 'detail_url': 'http://api.map.baidu.com/place/detail?uid=8c94871961c99e233a04b115&output=html&source=placeapi_v2', 'children': []}}"
"{'name': '乐翻天旅行', 'location': {'lat': 34.248075, 'lng': 108.851119}, 'address': '陕西省西安市雁塔区纬一路', 'province': '陕西省', 'city': '西安市', 'area': '雁塔区', 'detail': 1, 'uid': 'd1b0d43c59ed981e4207c19d', 'detail_info': {'tag': '旅游景点;游乐园', 'type': 'scope', 'detail_url': 'http://api.map.baidu.com/place/detail?uid=d1b0d43c59ed981e4207c19d&output=html&source=placeapi_v2', 'overall_rating': '5.0', 'comment_num': '1', 'children': []}}"
"{'name': '西安盛世古韵文化博物馆有限公司', 'location': {'lat': 34.237922, 'lng': 108.887533}, 'address': '陕西省西安市雁塔区团结南路10号', 'province': '陕西省', 'city': '西安市', 'area': '雁塔区', 'detail': 1, 'uid': 'ca8a3fb17ad4d8d930621292', 'detail_info': {'tag': '旅游景点;博物馆', 'type': 'scope', 'detail_url': 'http://api.map.baidu.com/place/detail?uid=ca8a3fb17ad4d8d930621292&output=html&source=placeapi_v2', 'children': []}}"
"{'name': '陕西大会堂', 'location': {'lat': 34.209328, 'lng': 108.877732}, 'address': '丈八北路1号陕西宾馆内', 'province': '陕西省', 'city': '西安市', 'area': '雁塔区', 'street_id': '05fe90def589d6b3eddfca25', 'telephone': '(029)88769062', 'detail': 1, 'uid': '05fe90def589d6b3eddfca25', 'detail_info': {'tag': '文化传媒;展览馆', 'navi_location': {'lng': 108.87731596066, 'lat': 34.210664694161}, 'type': 'scope', 'detail_url': 'http://api.map.baidu.com/place/detail?uid=05fe90def589d6b3eddfca25&output=html&source=placeapi_v2', 'overall_rating': '2.7', 'children': []}}"
"{'name': '天主教西安教区圣保禄堂', 'location': {'lat': 34.187952, 'lng': 108.883903}, 'address': '陕西省西安市雁塔区锦业二路逸翠园一期小区北门西侧3-104', 'province': '陕西省', 'city': '西安市', 'area': '雁塔区', 'street_id': 'e37678c3e063111f32f71d78', 'detail': 1, 'uid': 'e37678c3e063111f32f71d78', 'detail_info': {'tag': '旅游景点;教堂', 'type': 'scope', 'detail_url': 'http://api.map.baidu.com/place/detail?uid=e37678c3e063111f32f71d78&output=html&source=placeapi_v2', 'overall_rating': '5.0', 'comment_num': '2', 'children': []}}"
"{'name': '陕西宾馆-大礼堂', 'location': {'lat': 34.208818, 'lng': 108.881449}, 'address': '丈八北路1号陕西宾馆内', 'province': '陕西省', 'city': '西安市', 'area': '雁塔区', 'street_id': '74f6bfaf746bb966ddee8ba2', 'telephone': '(029)68899644', 'detail': 1, 'uid': '74f6bfaf746bb966ddee8ba2', 'detail_info': {'tag': '文化传媒;展览馆', 'navi_location': {'lng': 108.88138304694, 'lat': 34.208706997533}, 'type': 'scope', 'detail_url': 'http://api.map.baidu.com/place/detail?uid=74f6bfaf746bb966ddee8ba2&output=html&source=placeapi_v2', 'overall_rating': '0.0', 'children': []}}"
"{'name': '西安高新国际会议中心', 'location': {'lat': 34.221656, 'lng': 108.840576}, 'address': '西安市软件新城天谷六路与云水一路十字西南角', 'province': '陕西省', 'city': '西安市', 'area': '雁塔区', 'telephone': '(029)89630000', 'detail': 1, 'uid': '46fc1abab4d16895bea2405d', 'detail_info': {'tag': '文化传媒;展览馆', 'navi_location': {'lng': 108.84082619258, 'lat': 34.222769204477}, 'type': 'enterprise', 'detail_url': 'http://api.map.baidu.com/place/detail?uid=46fc1abab4d16895bea2405d&output=html&source=placeapi_v2', 'overall_rating': '4.7', 'comment_num': '21', 'children': []}}"
"{'name': '雁塔区基督教景新礼拜堂', 'location': {'lat': 34.240572, 'lng': 108.88419}, 'address': '高新六路3号', 'province': '陕西省', 'city': '西安市', 'area': '雁塔区', 'street_id': 'b533ea4a3eba41414f6d466d', 'telephone': '(029)88385640', 'detail': 1, 'uid': 'b533ea4a3eba41414f6d466d', 'detail_info': {'tag': '旅游景点;教堂', 'navi_location': {'lng': 108.88382366935, 'lat': 34.240491553399}, 'type': 'scope', 'detail_url': 'http://api.map.baidu.com/place/detail?uid=b533ea4a3eba41414f6d466d&output=html&source=placeapi_v2', 'overall_rating': '4.5', 'comment_num': '16', 'children': []}}"
"{'name': '金佛寺', 'location': {'lat': 34.221742, 'lng': 108.837486}, 'address': '鱼化寨街道鱼斗路周宋小学南200米', 'province': '陕西省', 'city': '西安市', 'area': '雁塔区', 'street_id': 'bc95d9e98bd044b64054d757', 'detail': 1, 'uid': 'bc95d9e98bd044b64054d757', 'detail_info': {'tag': '旅游景点;寺庙', 'type': 'scope', 'detail_url': 'http://api.map.baidu.com/place/detail?uid=bc95d9e98bd044b64054d757&output=html&source=placeapi_v2', 'overall_rating': '2.0', 'comment_num': '2', 'children': []}}"
"{'name': '高新锦业美术馆', 'location': {'lat': 34.199676, 'lng': 108.863634}, 'address': '高新区锦业路76号', 'province': '陕西省', 'city': '西安市', 'area': '雁塔区', 'street_id': '4b9466a5d0c965a2a80dd874', 'detail': 1, 'uid': '4b9466a5d0c965a2a80dd874', 'detail_info': {'tag': '文化传媒;美术馆', 'navi_location': {'lng': 108.86353972972, 'lat': 34.199909152211}, 'type': 'scope', 'detail_url': 'http://api.map.baidu.com/place/detail?uid=4b9466a5d0c965a2a80dd874&output=html&source=placeapi_v2', 'overall_rating': '1.3', 'children': []}}"
"{'name': '石婆庙', 'location': {'lat': 34.231149, 'lng': 108.788658}, 'address': '陕西省西安市长安区斗门街道', 'province': '陕西省', 'city': '西安市', 'area': '长安区', 'street_id': 'c7fb04bd957bb768fa0cadc4', 'detail': 1, 'uid': 'c7fb04bd957bb768fa0cadc4', 'detail_info': {'tag': '旅游景点;寺庙', 'navi_location': {'lng': 108.7885555709, 'lat': 34.230662158783}, 'type': 'scope', 'detail_url': 'http://api.map.baidu.com/place/detail?uid=c7fb04bd957bb768fa0cadc4&output=html&source=placeapi_v2', 'overall_rating': '4.5', 'comment_num': '10', 'children': []}}"
"{'name': '蓓家乐亲子教育体验中心', 'location': {'lat': 34.186283, 'lng': 108.886997}, 'address': '陕西省西安市长安区丈八二路33号', 'province': '陕西省', 'city': '西安市', 'area': '长安区', 'telephone': '(029)81145973', 'detail': 1, 'uid': '811b652c5d3086c902294fc4', 'detail_info': {'tag': '教育培训;培训机构', 'navi_location': {'lng': 108.88671176469, 'lat': 34.186228996377}, 'type': 'education', 'detail_url': 'http://api.map.baidu.com/place/detail?uid=811b652c5d3086c902294fc4&output=html&source=placeapi_v2', 'overall_rating': '5.0', 'comment_num': '21', 'children': []}}"
"{'name': '蓝溪美术馆', 'location': {'lat': 34.232517, 'lng': 108.89151}, 'address': '清华科技园(科技二路)4号楼', 'province': '陕西省', 'city': '西安市', 'area': '雁塔区', 'detail': 1, 'uid': '8b2dcaf8c81fc34dc92915eb', 'detail_info': {'tag': '文化传媒;美术馆', 'type': 'enterprise', 'detail_url': 'http://api.map.baidu.com/place/detail?uid=8b2dcaf8c81fc34dc92915eb&output=html&source=placeapi_v2', 'overall_rating': '0.0', 'comment_num': '1', 'children': []}}"
"{'name': '菩提寺', 'location': {'lat': 34.187705, 'lng': 108.812078}, 'address': '蒲阳村', 'province': '陕西省', 'city': '西安市', 'area': '长安区', 'detail': 1, 'uid': 'a6df1eefbb2e1b46ce04ef26', 'detail_info': {'tag': '旅游景点;寺庙', 'type': 'scope', 'detail_url': 'http://api.map.baidu.com/place/detail?uid=a6df1eefbb2e1b46ce04ef26&output=html&source=placeapi_v2', 'overall_rating': '0.0', 'image_num': '1', 'comment_num': '1', 'children': []}}"
"{'name': '关帝庙', 'location': {'lat': 34.23919, 'lng': 108.865932}, 'address': '鱼斗路169号', 'province': '陕西省', 'city': '西安市', 'area': '雁塔区', 'street_id': '9d15eab68b41708711882478', 'detail': 1, 'uid': '9d15eab68b41708711882478', 'detail_info': {'tag': '旅游景点;寺庙', 'type': 'scope', 'detail_url': 'http://api.map.baidu.com/place/detail?uid=9d15eab68b41708711882478&output=html&source=placeapi_v2', 'overall_rating': '1.0', 'comment_num': '1', 'children': []}}"
"{'name': '淘乐比成长运动中心(科技八路店)', 'location': {'lat': 34.21214, 'lng': 108.891129}, 'address': '陕西省西安市雁塔区科技八路体育训练中心东门院内', 'province': '陕西省', 'city': '西安市', 'area': '雁塔区', 'street_id': '9b898529d0b15768c9fa5fa1', 'telephone': '(029)88816587', 'detail': 1, 'uid': '9b898529d0b15768c9fa5fa1', 'detail_info': {'tag': '教育培训;培训机构', 'type': 'education', 'detail_url': 'http://api.map.baidu.com/place/detail?uid=9b898529d0b15768c9fa5fa1&output=html&source=placeapi_v2', 'overall_rating': '5.0', 'comment_num': '5', 'children': []}}"
"{'name': '中国画院(陕西分院)', 'location': {'lat': 34.216767, 'lng': 108.893474}, 'address': '沣惠南路36号橡树街区A座1层', 'province': '陕西省', 'city': '西安市', 'area': '雁塔区', 'street_id': '26dc507ad34d25fa3913fd53', 'telephone': '15709249999', 'detail': 1, 'uid': '26dc507ad34d25fa3913fd53', 'detail_info': {'tag': '文化传媒;展览馆', 'type': 'life', 'detail_url': 'http://api.map.baidu.com/place/detail?uid=26dc507ad34d25fa3913fd53&output=html&source=placeapi_v2', 'overall_rating': '2.5', 'image_num': '1', 'children': []}}"
"{'name': '永威.时代中心-展示厅', 'location': {'lat': 34.197188, 'lng': 108.887369}, 'address': '锦业路绿地正大缤纷城1楼', 'province': '陕西省', 'city': '西安市', 'area': '雁塔区', 'street_id': '409aa56fe2171db679dbd215', 'detail': 1, 'uid': '409aa56fe2171db679dbd215', 'detail_info': {'tag': '文化传媒;展览馆', 'navi_location': {'lng': 108.88722736869, 'lat': 34.197315109951}, 'type': 'enterprise', 'detail_url': 'http://api.map.baidu.com/place/detail?uid=409aa56fe2171db679dbd215&output=html&source=placeapi_v2', 'children': []}}"
"{'name': '西安绿地笔克国际会展中心-1号馆', 'location': {'lat': 34.198097, 'lng': 108.893855}, 'address': '唐延南路与锦业一路交叉口西北150米', 'province': '陕西省', 'city': '西安市', 'area': '雁塔区', 'street_id': '1fecbb76803579a448cc4acf', 'detail': 1, 'uid': '1fecbb76803579a448cc4acf', 'detail_info': {'tag': '文化传媒;展览馆', 'navi_location': {'lng': 108.89376522452, 'lat': 34.198418879725}, 'type': 'enterprise', 'detail_url': 'http://api.map.baidu.com/place/detail?uid=1fecbb76803579a448cc4acf&output=html&source=placeapi_v2', 'children': []}}"
"{'name': '北礼堂', 'location': {'lat': 34.209906, 'lng': 108.883255}, 'address': '西安市雁塔区丈八东路与科技八路交叉口西南100米', 'province': '陕西省', 'city': '西安市', 'area': '雁塔区', 'street_id': 'f731c6e55eb9a9ba3904b1d7', 'detail': 1, 'uid': 'f731c6e55eb9a9ba3904b1d7', 'detail_info': {'tag': '文化传媒;展览馆', 'type': 'enterprise', 'detail_url': 'http://api.map.baidu.com/place/detail?uid=f731c6e55eb9a9ba3904b1d7&output=html&source=placeapi_v2', 'children': []}}"
"{'name': '基督教堂(丈八四路)', 'location': {'lat': 34.212061, 'lng': 108.876165}, 'address': '陕西省西安市雁塔区(西安利之星汽车有限公司东北)', 'province': '陕西省', 'city': '西安市', 'area': '雁塔区', 'street_id': 'bdc71faffba4e8b60bf5eb26', 'detail': 1, 'uid': 'bdc71faffba4e8b60bf5eb26', 'detail_info': {'tag': '旅游景点;教堂', 'navi_location': {'lng': 108.87584044625, 'lat': 34.212125241925}, 'type': 'scope', 'detail_url': 'http://api.map.baidu.com/place/detail?uid=bdc71faffba4e8b60bf5eb26&output=html&source=placeapi_v2', 'overall_rating': '1.0', 'comment_num': '1', 'children': []}}"
"{'name': '西安绿地笔克国际会展中心-4号馆', 'location': {'lat': 34.198131, 'lng': 108.892146}, 'address': '西安市雁塔区丈八一路与锦业一路交叉口东北150米西安绿地笔克国际会展中心', 'province': '陕西省', 'city': '西安市', 'area': '雁塔区', 'street_id': '7f49b3d96ee0f4d5f4231037', 'detail': 1, 'uid': '7f49b3d96ee0f4d5f4231037', 'detail_info': {'tag': '文化传媒;展览馆', 'navi_location': {'lng': 108.89191273171, 'lat': 34.198476680884}, 'type': 'life', 'detail_url': 'http://api.map.baidu.com/place/detail?uid=7f49b3d96ee0f4d5f4231037&output=html&source=placeapi_v2', 'image_num': '1', 'children': []}}"
"{'name': '水晶岛酒店会议中心', 'location': {'lat': 34.214107, 'lng': 108.893441}, 'address': '西安市雁塔区沣惠南路38号', 'province': '陕西省', 'city': '西安市', 'area': '雁塔区', 'street_id': '970ad4d034a44c6a8b2fb532', 'detail': 1, 'uid': '970ad4d034a44c6a8b2fb532', 'detail_info': {'tag': '文化传媒;展览馆', 'navi_location': {'lng': 108.89447135822, 'lat': 34.21405820395}, 'type': 'scope', 'detail_url': 'http://api.map.baidu.com/place/detail?uid=970ad4d034a44c6a8b2fb532&output=html&source=placeapi_v2', 'overall_rating': '0.0', 'children': []}}"
"{'name': '卡乐咪国际儿童寓乐中心', 'location': {'lat': 34.187814, 'lng': 108.888138}, 'address': '西安市雁塔区唐延南路与锦业二路交叉口西150米', 'province': '陕西省', 'city': '西安市', 'area': '雁塔区', 'telephone': '15771909901', 'detail': 1, 'uid': 'dc5e08d943d82c57f03cba7a', 'detail_info': {'tag': '教育培训;培训机构', 'type': 'education', 'detail_url': 'http://api.map.baidu.com/place/detail?uid=dc5e08d943d82c57f03cba7a&output=html&source=placeapi_v2', 'children': []}}"
"{'name': '普天禅寺', 'location': {'lat': 34.211693, 'lng': 108.819527}, 'address': '陕西省西安市长安区G5京昆高速附近', 'province': '陕西省', 'city': '西安市', 'area': '长安区', 'street_id': 'c309c3e7fea9f04f04fef57f', 'detail': 1, 'uid': 'c309c3e7fea9f04f04fef57f', 'detail_info': {'tag': '旅游景点;寺庙', 'type': 'scope', 'detail_url': 'http://api.map.baidu.com/place/detail?uid=c309c3e7fea9f04f04fef57f&output=html&source=placeapi_v2', 'overall_rating': '1.5', 'comment_num': '2', 'children': []}}"
"{'name': '七星城展示中心', 'location': {'lat': 34.244271, 'lng': 108.860367}, 'address': '皂河与科技西路交叉口东50米', 'province': '陕西省', 'city': '西安市', 'area': '雁塔区', 'street_id': '25969ff1cc92373b28d7abc2', 'detail': 1, 'uid': '25969ff1cc92373b28d7abc2', 'detail_info': {'tag': '文化传媒;展览馆', 'type': 'enterprise', 'detail_url': 'http://api.map.baidu.com/place/detail?uid=25969ff1cc92373b28d7abc2&output=html&source=placeapi_v2', 'children': []}}"
"{'name': '西安市雁塔区鱼化基督教堂', 'location': {'lat': 34.238273, 'lng': 108.864468}, 'address': '陕西省西安市雁塔区鱼化寨街道小海豚幼儿园', 'province': '陕西省', 'city': '西安市', 'area': '雁塔区', 'street_id': '18db1fbd50efb26a6cc02c29', 'detail': 1, 'uid': '18db1fbd50efb26a6cc02c29', 'detail_info': {'tag': '旅游景点;教堂', 'type': 'scope', 'detail_url': 'http://api.map.baidu.com/place/detail?uid=18db1fbd50efb26a6cc02c29&output=html&source=placeapi_v2', 'children': []}}"
"{'name': '陕西宾馆-会议厅', 'location': {'lat': 34.208591, 'lng': 108.880614}, 'address': '丈八北路1号陕西宾馆内', 'province': '陕西省', 'city': '西安市', 'area': '雁塔区', 'street_id': '44cf1b0089924731e115f986', 'detail': 1, 'uid': '44cf1b0089924731e115f986', 'detail_info': {'tag': '文化传媒;展览馆', 'type': 'scope', 'detail_url': 'http://api.map.baidu.com/place/detail?uid=44cf1b0089924731e115f986&output=html&source=placeapi_v2', 'overall_rating': '0.0', 'children': []}}"
"{'name': '励进海升酒店-多功能厅', 'location': {'lat': 34.218525, 'lng': 108.891524}, 'address': '西安市高新区沣惠南路34号励进海升酒店4层', 'province': '陕西省', 'city': '西安市', 'area': '雁塔区', 'street_id': '3dbc52a2f4f622a0eb56fa1f', 'telephone': '(029)83266666', 'detail': 1, 'uid': '3dbc52a2f4f622a0eb56fa1f', 'detail_info': {'tag': '文化传媒;展览馆', 'type': 'scope', 'detail_url': 'http://api.map.baidu.com/place/detail?uid=3dbc52a2f4f622a0eb56fa1f&output=html&source=placeapi_v2', 'children': []}}"
"{'name': '高新六路基督教礼拜堂', 'location': {'lat': 34.240538, 'lng': 108.883942}, 'address': '陕西省西安市雁塔区高新六路3号附近', 'province': '陕西省', 'city': '西安市', 'area': '雁塔区', 'detail': 1, 'uid': '59180b2c11b48f76c6effb60', 'detail_info': {'tag': '旅游景点;教堂', 'type': 'scope', 'detail_url': 'http://api.map.baidu.com/place/detail?uid=59180b2c11b48f76c6effb60&output=html&source=placeapi_v2', 'children': []}}"
"{'name': '西安绿地笔克国际会展中心-3号馆', 'location': {'lat': 34.198152, 'lng': 108.892772}, 'address': '唐延南路4号西安绿地笔克国际会展中心附近', 'province': '陕西省', 'city': '西安市', 'area': '雁塔区', 'street_id': 'c2c47c02602ddeffbda2407e', 'detail': 1, 'uid': 'c2c47c02602ddeffbda2407e', 'detail_info': {'tag': '文化传媒;展览馆', 'navi_location': {'lng': 108.89236932333, 'lat': 34.198526070957}, 'type': 'enterprise', 'detail_url': 'http://api.map.baidu.com/place/detail?uid=c2c47c02602ddeffbda2407e&output=html&source=placeapi_v2', 'children': []}}"
"{'name': '陕西宾馆18号楼-会见厅', 'location': {'lat': 34.209809, 'lng': 108.879037}, 'address': '丈八北路1号', 'province': '陕西省', 'city': '西安市', 'area': '雁塔区', 'street_id': '2ed62f0aca0f3185b11e360d', 'telephone': '(029)68899999', 'detail': 1, 'uid': '2ed62f0aca0f3185b11e360d', 'detail_info': {'tag': '酒店;其他', 'navi_location': {'lng': 108.87898876722, 'lat': 34.209505887184}, 'type': 'scope', 'detail_url': 'http://api.map.baidu.com/place/detail?uid=2ed62f0aca0f3185b11e360d&output=html&source=placeapi_v2', 'overall_rating': '5.0', 'children': []}}"
"{'name': '万科高新华府展示中心', 'location': {'lat': 34.186223, 'lng': 108.891788}, 'address': '陕西省西安市雁塔区西沣路44号', 'province': '陕西省', 'city': '西安市', 'area': '雁塔区', 'detail': 1, 'uid': '9b638a6ae4aef6cc87420e33', 'detail_info': {'tag': '文化传媒;展览馆', 'type': 'enterprise', 'detail_url': 'http://api.map.baidu.com/place/detail?uid=9b638a6ae4aef6cc87420e33&output=html&source=placeapi_v2', 'overall_rating': '0.0', 'children': []}}"
"{'name': '天朗森柏大酒店-丽晶多功能厅', 'location': {'lat': 34.242086, 'lng': 108.878337}, 'address': '丈八北路380号天朗森柏大酒店3层', 'province': '陕西省', 'city': '西安市', 'area': '雁塔区', 'street_id': 'e09ab9a693f4233cf8221395', 'telephone': '(029)84118888', 'detail': 1, 'uid': 'e09ab9a693f4233cf8221395', 'detail_info': {'tag': '文化传媒;展览馆', 'type': 'life', 'detail_url': 'http://api.map.baidu.com/place/detail?uid=e09ab9a693f4233cf8221395&output=html&source=placeapi_v2', 'image_num': '1', 'children': []}}"
"{'name': '西安绿地笔克国际会展中心-2号馆', 'location': {'lat': 34.198169, 'lng': 108.893107}, 'address': '唐延南路4号附近', 'province': '陕西省', 'city': '西安市', 'area': '雁塔区', 'street_id': 'd9d085589140592c9e9d680a', 'detail': 1, 'uid': 'd9d085589140592c9e9d680a', 'detail_info': {'tag': '文化传媒;展览馆', 'navi_location': {'lng': 108.8930161033, 'lat': 34.198496213042}, 'type': 'life', 'detail_url': 'http://api.map.baidu.com/place/detail?uid=d9d085589140592c9e9d680a&output=html&source=placeapi_v2', 'image_num': '1', 'children': []}}"
"{'name': '龙定寺', 'location': {'lat': 34.240739, 'lng': 108.869146}, 'address': '鱼斗路西安市雁塔区童乐幼儿园附近', 'province': '陕西省', 'city': '西安市', 'area': '雁塔区', 'street_id': '23262d492543a33fc6effb35', 'detail': 1, 'uid': '23262d492543a33fc6effb35', 'detail_info': {'tag': '旅游景点;寺庙', 'type': 'scope', 'detail_url': 'http://api.map.baidu.com/place/detail?uid=23262d492543a33fc6effb35&output=html&source=placeapi_v2', 'overall_rating': '0.0', 'children': []}}"
"{'name': '王安中艺术馆', 'location': {'lat': 34.189885, 'lng': 108.892203}, 'address': '西安市雁塔区傅村东路与唐延南路交叉口东150米', 'province': '陕西省', 'city': '西安市', 'area': '雁塔区', 'street_id': '88bb64ff98d6d9fdc91b958f', 'detail': 1, 'uid': '88bb64ff98d6d9fdc91b958f', 'detail_info': {'tag': '文化传媒;美术馆', 'type': 'scope', 'detail_url': 'http://api.map.baidu.com/place/detail?uid=88bb64ff98d6d9fdc91b958f&output=html&source=placeapi_v2', 'children': []}}"
"{'name': '西安美术城', 'location': {'lat': 34.250237, 'lng': 108.894104}, 'address': '丈八沟街道中华世纪城东门商住楼三层', 'province': '陕西省', 'city': '西安市', 'area': '雁塔区', 'detail': 1, 'uid': '8f8ae6f5506cbca26fa3cc4b', 'detail_info': {'tag': '文化传媒;美术馆', 'type': 'life', 'detail_url': 'http://api.map.baidu.com/place/detail?uid=8f8ae6f5506cbca26fa3cc4b&output=html&source=placeapi_v2', 'image_num': '1', 'children': []}}"
"{'name': '3D魔幻艺术体验画展(绿地笔克)', 'location': {'lat': 34.197496, 'lng': 108.894066}, 'address': '锦业一路3附近', 'province': '陕西省', 'city': '西安市', 'area': '雁塔区', 'detail': 1, 'uid': '235d936763319489e856fae6', 'detail_info': {'tag': '文化传媒;展览馆', 'type': 'life', 'detail_url': 'http://api.map.baidu.com/place/detail?uid=235d936763319489e856fae6&output=html&source=placeapi_v2', 'image_num': '1', 'children': []}}"
"{'name': '鱼化会议中心', 'location': {'lat': 34.238751, 'lng': 108.867711}, 'address': '鱼化街54', 'province': '陕西省', 'city': '西安市', 'area': '雁塔区', 'street_id': 'e0a3d6186d0f760c734b8765', 'detail': 1, 'uid': 'e0a3d6186d0f760c734b8765', 'detail_info': {'tag': '文化传媒;展览馆', 'type': 'scope', 'detail_url': 'http://api.map.baidu.com/place/detail?uid=e0a3d6186d0f760c734b8765&output=html&source=placeapi_v2', 'overall_rating': '0.0', 'children': []}}"
"{'name': '绿地中心环球展厅', 'location': {'lat': 34.200081, 'lng': 108.887365}, 'address': '西安市雁塔区锦业路与丈八二路交叉路口东北侧(绿地中心)', 'province': '陕西省', 'city': '西安市', 'area': '雁塔区', 'street_id': '4d3b0565339d5e4196ca0720', 'detail': 1, 'uid': '4d3b0565339d5e4196ca0720', 'detail_info': {'tag': '文化传媒;展览馆', 'type': 'life', 'detail_url': 'http://api.map.baidu.com/place/detail?uid=4d3b0565339d5e4196ca0720&output=html&source=placeapi_v2', 'image_num': '1', 'children': []}}"
"{'name': '周宋村村史展览馆', 'location': {'lat': 34.228864, 'lng': 108.82682}, 'address': '雁环北路西150米', 'province': '陕西省', 'city': '西安市', 'area': '雁塔区', 'street_id': '1765fadc21c78f015bf6bedc', 'detail': 1, 'uid': '1765fadc21c78f015bf6bedc', 'detail_info': {'tag': '文化传媒;展览馆', 'type': 'enterprise', 'detail_url': 'http://api.map.baidu.com/place/detail?uid=1765fadc21c78f015bf6bedc&output=html&source=placeapi_v2', 'children': []}}"
"{'name': '陕西宾馆18号楼-多功能厅', 'location': {'lat': 34.209809, 'lng': 108.879037}, 'address': '丈八北路1号', 'province': '陕西省', 'city': '西安市', 'area': '雁塔区', 'street_id': '3d1bd96b0ebfed3f3362125c', 'telephone': '(029)68899999', 'detail': 1, 'uid': '3d1bd96b0ebfed3f3362125c', 'detail_info': {'tag': '文化传媒;展览馆', 'navi_location': {'lng': 108.87898876722, 'lat': 34.209505887184}, 'type': 'scope', 'detail_url': 'http://api.map.baidu.com/place/detail?uid=3d1bd96b0ebfed3f3362125c&output=html&source=placeapi_v2', 'children': []}}"
"{'name': '陕西丈八文化艺术馆', 'location': {'lat': 34.205109, 'lng': 108.861436}, 'address': '丈八南村9排3号', 'province': '陕西省', 'city': '西安市', 'area': '雁塔区', 'street_id': '08124879d48b71f26140a963', 'detail': 1, 'uid': '08124879d48b71f26140a963', 'detail_info': {'tag': '文化传媒;美术馆', 'navi_location': {'lng': 108.86144066462, 'lat': 34.205012449901}, 'type': 'scope', 'detail_url': 'http://api.map.baidu.com/place/detail?uid=08124879d48b71f26140a963&output=html&source=placeapi_v2', 'children': []}}"
"{'name': '徐义生艺术馆', 'location': {'lat': 34.199699, 'lng': 108.86375}, 'address': '西安市雁塔区锦业路与丈八六路交叉路口往东南约50米(锦业76)', 'province': '陕西省', 'city': '西安市', 'area': '雁塔区', 'street_id': '5f5b3eaf4174176e0c0e6b96', 'detail': 1, 'uid': '5f5b3eaf4174176e0c0e6b96', 'detail_info': {'tag': '文化传媒;美术馆', 'type': 'scope', 'detail_url': 'http://api.map.baidu.com/place/detail?uid=5f5b3eaf4174176e0c0e6b96&output=html&source=placeapi_v2', 'overall_rating': '0.0', 'children': []}}"
"{'name': '古琴茶艺插花禅韵琴社(高新店)', 'location': {'lat': 34.248101, 'lng': 108.8913}, 'address': '沣惠南路中华世纪城D区1号楼1单元301室', 'province': '陕西省', 'city': '西安市', 'area': '雁塔区', 'street_id': '085957fa9a78eac3cb213dc4', 'telephone': '13991961775,13571933030', 'detail': 1, 'uid': '085957fa9a78eac3cb213dc4', 'detail_info': {'tag': '文化传媒;美术馆', 'type': 'life', 'detail_url': 'http://api.map.baidu.com/place/detail?uid=085957fa9a78eac3cb213dc4&output=html&source=placeapi_v2', 'image_num': '1', 'children': []}}"
"{'name': '崔振宽山水艺术馆', 'location': {'lat': 34.199697, 'lng': 108.863664}, 'address': '高新区锦业路76号', 'province': '陕西省', 'city': '西安市', 'area': '雁塔区', 'street_id': 'a3ebe8da07587f79afee7a15', 'detail': 1, 'uid': 'a3ebe8da07587f79afee7a15', 'detail_info': {'tag': '文化传媒;美术馆', 'navi_location': {'lng': 108.86361928096, 'lat': 34.199914256187}, 'type': 'scope', 'detail_url': 'http://api.map.baidu.com/place/detail?uid=a3ebe8da07587f79afee7a15&output=html&source=placeapi_v2', 'overall_rating': '0.0', 'children': []}}"
"{'name': '汉长安城未央宫遗址', 'location': {'lat': 34.308029, 'lng': 108.869295}, 'address': '陕西省西安市未央区邓六路', 'province': '陕西省', 'city': '西安市', 'area': '未央区', 'street_id': '5cff59a6b35c8345581093b0', 'telephone': '(029)84112322', 'detail': 1, 'uid': '5cff59a6b35c8345581093b0', 'detail_info': {'tag': '旅游景点;文物古迹', 'navi_location': {'lng': 108.87229701549, 'lat': 34.299644733593}, 'type': 'scope', 'detail_url': 'http://api.map.baidu.com/place/detail?uid=5cff59a6b35c8345581093b0&output=html&source=placeapi_v2', 'overall_rating': '4.1', 'comment_num': '57', 'children': []}}"
"{'name': '上天台遗址', 'location': {'lat': 34.271668, 'lng': 108.835624}, 'address': '三桥天台路A15号西部车城向南1000米', 'province': '陕西省', 'city': '西安市', 'area': '未央区', 'street_id': 'b533ea4a8dcfec584e6d46f1', 'detail': 1, 'uid': 'b533ea4a8dcfec584e6d46f1', 'detail_info': {'tag': '旅游景点;文物古迹', 'navi_location': {'lng': 108.83678154597, 'lat': 34.2717992362}, 'type': 'scope', 'detail_url': 'http://api.map.baidu.com/place/detail?uid=b533ea4a8dcfec584e6d46f1&output=html&source=placeapi_v2', 'overall_rating': '4.3', 'comment_num': '17', 'children': []}}"
"{'name': '阿房宫前殿遗址', 'location': {'lat': 34.266166, 'lng': 108.821742}, 'address': '陕西省西安市未央区沣东大道(阿房宫考古遗址公园西北)', 'province': '陕西省', 'city': '西安市', 'area': '未央区', 'street_id': 'd4a0f7639285936543ab9a84', 'telephone': '15102938931', 'detail': 1, 'uid': 'd4a0f7639285936543ab9a84', 'detail_info': {'tag': '旅游景点;文物古迹', 'navi_location': {'lng': 108.82269713155, 'lat': 34.266037661429}, 'type': 'scope', 'detail_url': 'http://api.map.baidu.com/place/detail?uid=d4a0f7639285936543ab9a84&output=html&source=placeapi_v2', 'overall_rating': '4.4', 'comment_num': '5', 'children': []}}"
"{'name': '红光公园', 'location': {'lat': 34.269452, 'lng': 108.847944}, 'address': '陕西省西安市未央区西三环', 'province': '陕西省', 'city': '西安市', 'area': '未央区', 'street_id': '195c23ba31b5d404c42ba1e9', 'detail': 1, 'uid': '195c23ba31b5d404c42ba1e9', 'detail_info': {'tag': '旅游景点;公园', 'navi_location': {'lng': 108.84670498141, 'lat': 34.269586487322}, 'type': 'scope', 'detail_url': 'http://api.map.baidu.com/place/detail?uid=195c23ba31b5d404c42ba1e9&output=html&source=placeapi_v2', 'overall_rating': '4.0', 'comment_num': '34', 'children': []}}"
"{'name': '阿房宫遗址', 'location': {'lat': 34.268325, 'lng': 108.819113}, 'address': '三桥天台路A15号西部车城向南1000米', 'province': '陕西省', 'city': '西安市', 'area': '未央区', 'street_id': 'cb5d7902ce4f5291f503b8c2', 'telephone': '(029)84518526', 'detail': 1, 'uid': 'cb5d7902ce4f5291f503b8c2', 'detail_info': {'tag': '旅游景点;文物古迹', 'navi_location': {'lng': 108.82268912316, 'lat': 34.266086516506}, 'type': 'scope', 'detail_url': 'http://api.map.baidu.com/place/detail?uid=cb5d7902ce4f5291f503b8c2&output=html&source=placeapi_v2', 'overall_rating': '3.5', 'comment_num': '20', 'children': []}}"
"{'name': '土门小树林公园', 'location': {'lat': 34.270349, 'lng': 108.888711}, 'address': '西安市莲湖区团结北路43号翡丽城西侧3号楼1212室', 'province': '陕西省', 'city': '西安市', 'area': '莲湖区', 'street_id': '65fe94544b2880204c6d46f6', 'detail': 1, 'uid': '65fe94544b2880204c6d46f6', 'detail_info': {'tag': '旅游景点;公园', 'navi_location': {'lng': 108.88910428014, 'lat': 34.270339142381}, 'type': 'scope', 'detail_url': 'http://api.map.baidu.com/place/detail?uid=65fe94544b2880204c6d46f6&output=html&source=placeapi_v2', 'overall_rating': '1.0', 'comment_num': '2', 'children': []}}"
"{'name': '丝路群雕', 'location': {'lat': 34.275114, 'lng': 108.888082}, 'address': '西安市莲湖区大庆路579号', 'province': '陕西省', 'city': '西安市', 'area': '莲湖区', 'street_id': '3be122e1185192521ef74d4e', 'detail': 1, 'uid': '3be122e1185192521ef74d4e', 'detail_info': {'tag': '旅游景点;文物古迹', 'navi_location': {'lng': 108.88885486472, 'lat': 34.275038084792}, 'type': 'scope', 'detail_url': 'http://api.map.baidu.com/place/detail?uid=3be122e1185192521ef74d4e&output=html&source=placeapi_v2', 'overall_rating': '4.0', 'comment_num': '52', 'children': []}}"
"{'name': '汉长安城城墙遗址', 'location': {'lat': 34.299541, 'lng': 108.856186}, 'address': 'G30(连霍高速公路)', 'province': '陕西省', 'city': '西安市', 'area': '未央区', 'street_id': '9482f7fb75ba32ce3a04b18d', 'detail': 1, 'uid': '9482f7fb75ba32ce3a04b18d', 'detail_info': {'tag': '旅游景点;文物古迹', 'type': 'scope', 'detail_url': 'http://api.map.baidu.com/place/detail?uid=9482f7fb75ba32ce3a04b18d&output=html&source=placeapi_v2', 'overall_rating': '5.0', 'image_num': '1', 'comment_num': '1', 'children': []}}"
"{'name': '西安门遗址', 'location': {'lat': 34.299268, 'lng': 108.872098}, 'address': '陕西省西安市未央区未央宫街道大兴西路西安门遗址', 'province': '陕西省', 'city': '西安市', 'area': '未央区', 'street_id': 'ebba6558aab4833490114cd5', 'telephone': '(029)84112322', 'detail': 1, 'uid': 'ebba6558aab4833490114cd5', 'detail_info': {'tag': '旅游景点;文物古迹', 'type': 'scope', 'detail_url': 'http://api.map.baidu.com/place/detail?uid=ebba6558aab4833490114cd5&output=html&source=placeapi_v2', 'overall_rating': '4.3', 'comment_num': '14', 'children': []}}"
"{'name': '聚驾观景台', 'location': {'lat': 34.265065, 'lng': 108.824172}, 'address': '西安市未央区红光路西段66号', 'province': '陕西省', 'city': '西安市', 'area': '未央区', 'street_id': '0d69534e522b3f9086420ecb', 'detail': 1, 'uid': '0d69534e522b3f9086420ecb', 'detail_info': {'tag': '旅游景点;景点', 'navi_location': {'lng': 108.82440352845, 'lat': 34.265560010171}, 'type': 'scope', 'detail_url': 'http://api.map.baidu.com/place/detail?uid=0d69534e522b3f9086420ecb&output=html&source=placeapi_v2', 'children': []}}"
"{'name': '汉建章宫遗址', 'location': {'lat': 34.313447, 'lng': 108.844494}, 'address': '陕西省西安市未央区万家和购物广场(三桥店)东南', 'province': '陕西省', 'city': '西安市', 'area': '未央区', 'street_id': '39bdc215d99e3dd6774ff13a', 'detail': 1, 'uid': '39bdc215d99e3dd6774ff13a', 'detail_info': {'tag': '旅游景点;文物古迹', 'navi_location': {'lng': 108.84448136266, 'lat': 34.313031063569}, 'type': 'scope', 'detail_url': 'http://api.map.baidu.com/place/detail?uid=39bdc215d99e3dd6774ff13a&output=html&source=placeapi_v2', 'overall_rating': '3.7', 'comment_num': '15', 'children': []}}"
"{'name': '万寿塔', 'location': {'lat': 34.308729, 'lng': 108.852046}, 'address': '陕西省西安市未央区西三环辅路', 'province': '陕西省', 'city': '西安市', 'area': '未央区', 'detail': 1, 'uid': '70ab40df86d6b433901fc9c4', 'detail_info': {'tag': '旅游景点', 'navi_location': {'lng': 108.85192026652, 'lat': 34.308673721299}, 'type': 'scope', 'detail_url': 'http://api.map.baidu.com/place/detail?uid=70ab40df86d6b433901fc9c4&output=html&source=placeapi_v2', 'overall_rating': '3.0', 'comment_num': '1', 'children': []}}"
"{'name': '大秦四合院', 'location': {'lat': 34.275041, 'lng': 108.828262}, 'address': '西安市未央区天台四路南100米', 'province': '陕西省', 'city': '西安市', 'area': '未央区', 'detail': 1, 'uid': 'a23ecad2fc098544b020a87d', 'detail_info': {'tag': '旅游景点;风景区', 'navi_location': {'lng': 108.82829978037, 'lat': 34.274860455992}, 'type': 'scope', 'detail_url': 'http://api.map.baidu.com/place/detail?uid=a23ecad2fc098544b020a87d&output=html&source=placeapi_v2', 'overall_rating': '5.0', 'comment_num': '3', 'children': []}}"
"{'name': '汉长安城未央宫遗址-前殿遗址', 'location': {'lat': 34.306615, 'lng': 108.869859}, 'address': '陕西省西安市未央区西三环路汉长安城未央宫遗址内', 'province': '陕西省', 'city': '西安市', 'area': '未央区', 'detail': 1, 'uid': 'f5055bf29ac59e7a38e4a632', 'detail_info': {'tag': '旅游景点;文物古迹', 'type': 'scope', 'detail_url': 'http://api.map.baidu.com/place/detail?uid=f5055bf29ac59e7a38e4a632&output=html&source=placeapi_v2', 'children': []}}"
"{'name': '汉长安城未央宫遗址-村寨印记', 'location': {'lat': 34.305393, 'lng': 108.874334}, 'address': '邓六路东50米附近', 'province': '陕西省', 'city': '西安市', 'area': '未央区', 'street_id': '2f6cf6117d5864ea09b93a95', 'detail': 1, 'uid': '2f6cf6117d5864ea09b93a95', 'detail_info': {'tag': '旅游景点;景点', 'navi_location': {'lng': 108.8736128031, 'lat': 34.305314351586}, 'type': 'scope', 'detail_url': 'http://api.map.baidu.com/place/detail?uid=2f6cf6117d5864ea09b93a95&output=html&source=placeapi_v2', 'overall_rating': '4.7', 'comment_num': '3', 'children': []}}"
"{'name': '唐代古塔', 'location': {'lat': 34.307616, 'lng': 108.828075}, 'address': '陕西省西安市未央区天章大道', 'province': '陕西省', 'city': '西安市', 'area': '未央区', 'detail': 1, 'uid': 'ed90278857aa28d94e2fdf5c', 'detail_info': {'tag': '旅游景点;景点', 'type': 'scope', 'detail_url': 'http://api.map.baidu.com/place/detail?uid=ed90278857aa28d94e2fdf5c&output=html&source=placeapi_v2', 'overall_rating': '1.0', 'comment_num': '2', 'children': []}}"
"{'name': '丛林骑士', 'location': {'lat': 34.296536, 'lng': 108.893113}, 'address': '西安市未央区北二环与朱宏路交汇处西北角汉城湖内', 'province': '陕西省', 'city': '西安市', 'area': '未央区', 'detail': 1, 'uid': '08a95d4841adcfc76b49f363', 'detail_info': {'tag': '旅游景点;景点', 'type': 'scope', 'detail_url': 'http://api.map.baidu.com/place/detail?uid=08a95d4841adcfc76b49f363&output=html&source=placeapi_v2', 'children': []}}"
"{'name': '韩信雕像', 'location': {'lat': 34.296156, 'lng': 108.893186}, 'address': '西安市未央区北二环与朱宏路交汇处西北角汉城湖内', 'province': '陕西省', 'city': '西安市', 'area': '未央区', 'detail': 1, 'uid': 'cdacc1ef438c454eb13c813b', 'detail_info': {'tag': '旅游景点;景点', 'type': 'scope', 'detail_url': 'http://api.map.baidu.com/place/detail?uid=cdacc1ef438c454eb13c813b&output=html&source=placeapi_v2', 'children': []}}"
"{'name': '茂林圣地', 'location': {'lat': 34.274988, 'lng': 108.83923}, 'address': '陕西省西安市未央区阿房一路49号西80米', 'province': '陕西省', 'city': '西安市', 'area': '未央区', 'detail': 1, 'uid': 'c94f9ae045bdcfdbf822137f', 'detail_info': {'tag': '旅游景点', 'type': 'scope', 'detail_url': 'http://api.map.baidu.com/place/detail?uid=c94f9ae045bdcfdbf822137f&output=html&source=placeapi_v2', 'children': []}}"
"{'name': 'meland儿童成长乐园', 'location': {'lat': 34.296724, 'lng': 108.835862}, 'address': '三桥新街1076号华润万象城2层', 'province': '陕西省', 'city': '西安市', 'area': '未央区', 'telephone': '(029)89599079', 'detail': 1, 'uid': '798414878f9d86cb03ec0111', 'detail_info': {'tag': '旅游景点;游乐园', 'type': 'scope', 'detail_url': 'http://api.map.baidu.com/place/detail?uid=798414878f9d86cb03ec0111&output=html&source=placeapi_v2', 'overall_rating': '4.7', 'comment_num': '69', 'children': []}}"
"{'name': '碰碰车', 'location': {'lat': 34.2967, 'lng': 108.892944}, 'address': '西安市未央区北二环与朱宏路交汇处西北角汉城湖内', 'province': '陕西省', 'city': '西安市', 'area': '未央区', 'detail': 1, 'uid': '1dd928cd8be36a92deee8b8d', 'detail_info': {'tag': '旅游景点;景点', 'type': 'scope', 'detail_url': 'http://api.map.baidu.com/place/detail?uid=1dd928cd8be36a92deee8b8d&output=html&source=placeapi_v2', 'children': []}}"
"{'name': '少府遗址', 'location': {'lat': 34.313467, 'lng': 108.863775}, 'address': '陕西省西安市未央区汉长安城未央宫遗址(丰景路南)', 'province': '陕西省', 'city': '西安市', 'area': '未央区', 'detail': 1, 'uid': 'e17457b0b9fcb4a87ab55c46', 'detail_info': {'tag': '旅游景点;文物古迹', 'type': 'scope', 'detail_url': 'http://api.map.baidu.com/place/detail?uid=e17457b0b9fcb4a87ab55c46&output=html&source=placeapi_v2', 'overall_rating': '4.5', 'comment_num': '2', 'children': []}}"
"{'name': '趣味沙滩(华东·万锦城购物中心店)', 'location': {'lat': 34.266379, 'lng': 108.877727}, 'address': '西安市莲湖区汉城南路100号华东·万锦城购物中心F3', 'province': '陕西省', 'city': '西安市', 'area': '莲湖区', 'street_id': 'd3be49736112d1ecae04573a', 'detail': 1, 'uid': 'd3be49736112d1ecae04573a', 'detail_info': {'tag': '旅游景点;海滨浴场', 'indoor_floor': 'F3', 'type': 'scope', 'detail_url': 'http://api.map.baidu.com/place/detail?uid=d3be49736112d1ecae04573a&output=html&source=placeapi_v2', 'children': []}}"
"{'name': '风水宫', 'location': {'lat': 34.253099, 'lng': 108.877008}, 'address': '西安市雁塔区秦美花卉市场南排15号', 'province': '陕西省', 'city': '西安市', 'area': '雁塔区', 'telephone': '13201476345,13474687753', 'detail': 1, 'uid': '0ec13914345c8320f8dc8535', 'detail_info': {'tag': '旅游景点;风景区', 'type': 'scope', 'detail_url': 'http://api.map.baidu.com/place/detail?uid=0ec13914345c8320f8dc8535&output=html&source=placeapi_v2', 'children': []}}"
"{'name': '张良雕像', 'location': {'lat': 34.29626, 'lng': 108.893095}, 'address': '西安市未央区北二环与朱宏路交汇处西北角汉城湖内', 'province': '陕西省', 'city': '西安市', 'area': '未央区', 'detail': 1, 'uid': '98a4b77a3d322b31f33cbab7', 'detail_info': {'tag': '旅游景点;景点', 'type': 'scope', 'detail_url': 'http://api.map.baidu.com/place/detail?uid=98a4b77a3d322b31f33cbab7&output=html&source=placeapi_v2', 'children': []}}"
"{'name': '第十四通道水房', 'location': {'lat': 34.306117, 'lng': 108.813898}, 'address': '陕西省西安市未央区西安高架快速干道', 'province': '陕西省', 'city': '西安市', 'area': '未央区', 'street_id': 'cffd5d5e710c277da7c75606', 'detail': 1, 'uid': 'cffd5d5e710c277da7c75606', 'detail_info': {'tag': '旅游景点;景点', 'type': 'scope', 'detail_url': 'http://api.map.baidu.com/place/detail?uid=cffd5d5e710c277da7c75606&output=html&source=placeapi_v2', 'children': []}}"
"{'name': '鲲鹏展翅', 'location': {'lat': 34.251649, 'lng': 108.850625}, 'address': '陕西省西安市雁塔区大寨路', 'province': '陕西省', 'city': '西安市', 'area': '雁塔区', 'detail': 1, 'uid': '35e88603e10813d7f33cba85', 'detail_info': {'tag': '旅游景点;景点', 'type': 'scope', 'detail_url': 'http://api.map.baidu.com/place/detail?uid=35e88603e10813d7f33cba85&output=html&source=placeapi_v2', 'image_num': '1', 'children': []}}"
"{'name': '戏唐', 'location': {'lat': 34.260624, 'lng': 108.831267}, 'address': '陕西省西安市未央区一号路16号西南50米', 'province': '陕西省', 'city': '西安市', 'area': '未央区', 'detail': 1, 'uid': '2e265a6fb18465fc593ac817', 'detail_info': {'tag': '旅游景点', 'type': 'scope', 'detail_url': 'http://api.map.baidu.com/place/detail?uid=2e265a6fb18465fc593ac817&output=html&source=placeapi_v2', 'image_num': '1', 'children': []}}"
"{'name': '汉长安城章城门遗址', 'location': {'lat': 34.30599, 'lng': 108.855947}, 'address': '陕西省西安市未央区汉长安城未央宫遗址(西三环东170米)', 'province': '陕西省', 'city': '西安市', 'area': '未央区', 'street_id': '43211f1cf05d18e8eddfcad6', 'detail': 1, 'uid': '43211f1cf05d18e8eddfcad6', 'detail_info': {'tag': '旅游景点;文物古迹', 'type': 'scope', 'detail_url': 'http://api.map.baidu.com/place/detail?uid=43211f1cf05d18e8eddfcad6&output=html&source=placeapi_v2', 'children': []}}"
"{'name': '弘德园', 'location': {'lat': 34.278985, 'lng': 108.836927}, 'address': '南区西路6号附近', 'province': '陕西省', 'city': '西安市', 'area': '未央区', 'street_id': 'bf29b702dd67ebe409b93a3c', 'detail': 1, 'uid': 'bf29b702dd67ebe409b93a3c', 'detail_info': {'tag': '旅游景点;景点', 'navi_location': {'lng': 108.83683721845, 'lat': 34.279505026166}, 'type': 'scope', 'detail_url': 'http://api.map.baidu.com/place/detail?uid=bf29b702dd67ebe409b93a3c&output=html&source=placeapi_v2', 'children': []}}"
"{'name': '儿童城堡', 'location': {'lat': 34.296726, 'lng': 108.892685}, 'address': '西安市未央区北二环与朱宏路交汇处西北角汉城湖内', 'province': '陕西省', 'city': '西安市', 'area': '未央区', 'detail': 1, 'uid': 'fc59073bf8f2388183a00c76', 'detail_info': {'tag': '旅游景点;景点', 'type': 'scope', 'detail_url': 'http://api.map.baidu.com/place/detail?uid=fc59073bf8f2388183a00c76&output=html&source=placeapi_v2', 'children': []}}"
"{'name': '南宫墙遗址', 'location': {'lat': 34.299228, 'lng': 108.869615}, 'address': '西安市未央区未央宫街道连霍高速公路南宫墙遗址', 'province': '陕西省', 'city': '西安市', 'area': '未央区', 'street_id': '09d2326570fea7ac61685814', 'detail': 1, 'uid': '09d2326570fea7ac61685814', 'detail_info': {'tag': '旅游景点;文物古迹', 'type': 'scope', 'detail_url': 'http://api.map.baidu.com/place/detail?uid=09d2326570fea7ac61685814&output=html&source=placeapi_v2', 'overall_rating': '5.0', 'comment_num': '2', 'children': []}}"
"{'name': '萧何雕像', 'location': {'lat': 34.296402, 'lng': 108.893195}, 'address': '西安市未央区北二环与朱宏路交汇处西北角汉城湖内', 'province': '陕西省', 'city': '西安市', 'area': '未央区', 'detail': 1, 'uid': 'c9763fc5adb8e816e6073876', 'detail_info': {'tag': '旅游景点;景点', 'type': 'scope', 'detail_url': 'http://api.map.baidu.com/place/detail?uid=c9763fc5adb8e816e6073876&output=html&source=placeapi_v2', 'children': []}}"
"{'name': '百般雕难', 'location': {'lat': 34.254346, 'lng': 108.838167}, 'address': '西安市未央区', 'province': '陕西省', 'city': '西安市', 'area': '未央区', 'detail': 1, 'uid': '6759a82d755b2328430245a6', 'detail_info': {'tag': '旅游景点;景点', 'type': 'scope', 'detail_url': 'http://api.map.baidu.com/place/detail?uid=6759a82d755b2328430245a6&output=html&source=placeapi_v2', 'children': []}}"
"{'name': '张裕长城', 'location': {'lat': 34.294539, 'lng': 108.878589}, 'address': '西安市未央区', 'province': '陕西省', 'city': '西安市', 'area': '未央区', 'telephone': '(029)84420856,13991132844', 'detail': 1, 'uid': '9c781d5b92473784f423105b', 'detail_info': {'tag': '旅游景点', 'type': 'scope', 'detail_url': 'http://api.map.baidu.com/place/detail?uid=9c781d5b92473784f423105b&output=html&source=placeapi_v2', 'children': []}}"
"{'name': '儿童弹跳机', 'location': {'lat': 34.296537, 'lng': 108.892799}, 'address': '西安市未央区北二环与朱宏路交汇处西北角汉城湖内', 'province': '陕西省', 'city': '西安市', 'area': '未央区', 'detail': 1, 'uid': 'e7f1afe7a5bb5ace2afc4846', 'detail_info': {'tag': '旅游景点;景点', 'type': 'scope', 'detail_url': 'http://api.map.baidu.com/place/detail?uid=e7f1afe7a5bb5ace2afc4846&output=html&source=placeapi_v2', 'children': []}}"
"{'name': '西城墙环涂遗址', 'location': {'lat': 34.313487, 'lng': 108.856539}, 'address': '陕西省西安市未央区西城墙环涂遗址(西三环路东)', 'province': '陕西省', 'city': '西安市', 'area': '未央区', 'street_id': '2120cd3de9eeca51e856faf7', 'detail': 1, 'uid': '2120cd3de9eeca51e856faf7', 'detail_info': {'tag': '旅游景点;文物古迹', 'type': 'scope', 'detail_url': 'http://api.map.baidu.com/place/detail?uid=2120cd3de9eeca51e856faf7&output=html&source=placeapi_v2', 'overall_rating': '5.0', 'comment_num': '1', 'children': []}}"
"{'name': '狂车飞舞', 'location': {'lat': 34.29652, 'lng': 108.892856}, 'address': '西安市未央区北二环与朱宏路交汇处西北角汉城湖内', 'province': '陕西省', 'city': '西安市', 'area': '未央区', 'detail': 1, 'uid': 'a7839d394304a0acabf0cd50', 'detail_info': {'tag': '旅游景点;景点', 'type': 'scope', 'detail_url': 'http://api.map.baidu.com/place/detail?uid=a7839d394304a0acabf0cd50&output=html&source=placeapi_v2', 'children': []}}"
"{'name': '龙潭水景', 'location': {'lat': 34.253224, 'lng': 108.876705}, 'address': '昆明池路东100米', 'province': '陕西省', 'city': '西安市', 'area': '雁塔区', 'street_id': '196793d086bf187879dbd24f', 'telephone': '15129007969,18220581528', 'detail': 1, 'uid': '196793d086bf187879dbd24f', 'detail_info': {'tag': '旅游景点;公园', 'type': 'scope', 'detail_url': 'http://api.map.baidu.com/place/detail?uid=196793d086bf187879dbd24f&output=html&source=placeapi_v2', 'children': []}}"
"{'name': '百力格蒙古风情园', 'location': {'lat': 34.265238, 'lng': 108.865631}, 'address': '莲湖区红光路58号西安钢铁厂院内', 'province': '陕西省', 'city': '西安市', 'area': '莲湖区', 'detail': 1, 'uid': '6e29ee71a851dcc430f71d9b', 'detail_info': {'tag': '旅游景点;其他', 'type': 'cater', 'detail_url': 'http://api.map.baidu.com/place/detail?uid=6e29ee71a851dcc430f71d9b&output=html&source=placeapi_v2', 'image_num': '1', 'children': []}}"
"{'name': '优游谷儿童乐园', 'location': {'lat': 34.28797, 'lng': 108.841927}, 'address': '武警路福美超市', 'province': '陕西省', 'city': '西安市', 'area': '未央区', 'detail': 1, 'uid': 'd423d05f422207626fc02cae', 'detail_info': {'tag': '旅游景点', 'type': 'scope', 'detail_url': 'http://api.map.baidu.com/place/detail?uid=d423d05f422207626fc02cae&output=html&source=placeapi_v2', 'children': []}}"
"{'name': '油饼', 'location': {'lat': 34.278999, 'lng': 108.862182}, 'address': '丰盛路23号附近', 'province': '陕西省', 'city': '西安市', 'area': '莲湖区', 'street_id': '3a0a129925d71301df1e52c0', 'detail': 1, 'uid': '3a0a129925d71301df1e52c0', 'detail_info': {'tag': '旅游景点;景点', 'type': 'scope', 'detail_url': 'http://api.map.baidu.com/place/detail?uid=3a0a129925d71301df1e52c0&output=html&source=placeapi_v2', 'children': []}}"
"{'name': '东宫墙遗址', 'location': {'lat': 34.309519, 'lng': 108.881781}, 'address': '陕西省西安市未央区', 'province': '陕西省', 'city': '西安市', 'area': '未央区', 'detail': 1, 'uid': '46fa50d2e41df196e60738e6', 'detail_info': {'tag': '旅游景点;文物古迹', 'type': 'scope', 'detail_url': 'http://api.map.baidu.com/place/detail?uid=46fa50d2e41df196e60738e6&output=html&source=placeapi_v2', 'children': []}}"
"{'name': '考拉大冒险儿童成长主题乐园', 'location': {'lat': 34.270785, 'lng': 108.890055}, 'address': '西安市莲湖区团结中路45号附近', 'province': '陕西省', 'city': '西安市', 'area': '莲湖区', 'street_id': '6d45dab0ab252be99ef77966', 'detail': 1, 'uid': '6d45dab0ab252be99ef77966', 'detail_info': {'tag': '旅游景点;游乐园', 'type': 'scope', 'detail_url': 'http://api.map.baidu.com/place/detail?uid=6d45dab0ab252be99ef77966&output=html&source=placeapi_v2', 'children': []}}"
"{'name': '关圣殿', 'location': {'lat': 34.314381, 'lng': 108.817628}, 'address': '西安市未央区', 'province': '陕西省', 'city': '西安市', 'area': '未央区', 'detail': 1, 'uid': '976fc6f868255d6b2902e190', 'detail_info': {'tag': '旅游景点;文物古迹', 'type': 'scope', 'detail_url': 'http://api.map.baidu.com/place/detail?uid=976fc6f868255d6b2902e190&output=html&source=placeapi_v2', 'children': []}}"
"{'name': '慈云福地', 'location': {'lat': 34.252473, 'lng': 108.845923}, 'address': '陕西省西安市雁塔区北岳路', 'province': '陕西省', 'city': '西安市', 'area': '雁塔区', 'detail': 1, 'uid': '7c4181481674ed44eaf853f0', 'detail_info': {'tag': '旅游景点;文物古迹', 'type': 'scope', 'detail_url': 'http://api.map.baidu.com/place/detail?uid=7c4181481674ed44eaf853f0&output=html&source=placeapi_v2', 'children': []}}"
"{'name': '中央官署遗址', 'location': {'lat': 34.311395, 'lng': 108.858683}, 'address': '陕西省西安市未央区汉长安城未央宫遗址', 'province': '陕西省', 'city': '西安市', 'area': '未央区', 'street_id': '857214d557c9e2f39d95dec4', 'detail': 1, 'uid': '857214d557c9e2f39d95dec4', 'detail_info': {'tag': '旅游景点;文物古迹', 'type': 'scope', 'detail_url': 'http://api.map.baidu.com/place/detail?uid=857214d557c9e2f39d95dec4&output=html&source=placeapi_v2', 'children': []}}"
"{'name': '儿童主题乐园', 'location': {'lat': 34.29169, 'lng': 108.892452}, 'address': '陕西省西安市莲湖区白家口大兴西路30号大唐世家临街商铺2楼(大唐世家)', 'province': '陕西省', 'city': '西安市', 'area': '莲湖区', 'street_id': '8566025c89f2534790114cf6', 'detail': 1, 'uid': '8566025c89f2534790114cf6', 'detail_info': {'tag': '旅游景点;游乐园', 'type': 'scope', 'detail_url': 'http://api.map.baidu.com/place/detail?uid=8566025c89f2534790114cf6&output=html&source=placeapi_v2', 'overall_rating': '0.0', 'children': []}}"
"{'name': '九龙山公墓(三桥办事处)', 'location': {'lat': 34.306684, 'lng': 108.848509}, 'address': '建章路东50米', 'province': '陕西省', 'city': '西安市', 'area': '未央区', 'street_id': '927a8e11a8d22a8d2e47334c', 'detail': 1, 'uid': '927a8e11a8d22a8d2e47334c', 'detail_info': {'tag': '旅游景点;文物古迹', 'type': 'scope', 'detail_url': 'http://api.map.baidu.com/place/detail?uid=927a8e11a8d22a8d2e47334c&output=html&source=placeapi_v2', 'children': []}}"
"{'name': '三圣佛殿', 'location': {'lat': 34.285062, 'lng': 108.870333}, 'address': '枣园北路4号附近', 'province': '陕西省', 'city': '西安市', 'area': '莲湖区', 'street_id': '387ec508e2c965ef9f09f722', 'detail': 1, 'uid': '387ec508e2c965ef9f09f722', 'detail_info': {'tag': '旅游景点;文物古迹', 'type': 'scope', 'detail_url': 'http://api.map.baidu.com/place/detail?uid=387ec508e2c965ef9f09f722&output=html&source=placeapi_v2', 'children': []}}"
"{'name': '乐翻天旅行(土门店)', 'location': {'lat': 34.265359, 'lng': 108.890984}, 'address': '陕西省西安市莲湖区沣镐西路102-1西北方向50米', 'province': '陕西省', 'city': '西安市', 'area': '莲湖区', 'street_id': '4c41de44d3e07b25ae04571a', 'telephone': '(029)84354612', 'detail': 1, 'uid': '4c41de44d3e07b25ae04571a', 'detail_info': {'tag': '旅游景点;游乐园', 'type': 'scope', 'detail_url': 'http://api.map.baidu.com/place/detail?uid=4c41de44d3e07b25ae04571a&output=html&source=placeapi_v2', 'children': []}}"
"{'name': '美加乐儿童主题乐园', 'location': {'lat': 34.30389, 'lng': 108.84877}, 'address': '陕西省西安市未央区建章北路12号东北50米', 'province': '陕西省', 'city': '西安市', 'area': '未央区', 'detail': 1, 'uid': '330ee657c9405dbbcb213d2d', 'detail_info': {'tag': '旅游景点;游乐园', 'type': 'scope', 'detail_url': 'http://api.map.baidu.com/place/detail?uid=330ee657c9405dbbcb213d2d&output=html&source=placeapi_v2', 'children': []}}"
"{'name': '乐翔儿童主题乐园', 'location': {'lat': 34.253471, 'lng': 108.883319}, 'address': '民洁路风林华府西门建设银行2楼上(卡布奇诺对面)', 'province': '陕西省', 'city': '西安市', 'area': '雁塔区', 'street_id': 'e1e0e1e194e62fbe51e5c5c4', 'detail': 1, 'uid': 'e1e0e1e194e62fbe51e5c5c4', 'detail_info': {'tag': '旅游景点;游乐园', 'type': 'scope', 'detail_url': 'http://api.map.baidu.com/place/detail?uid=e1e0e1e194e62fbe51e5c5c4&output=html&source=placeapi_v2', 'children': []}}"
"{'name': '斯马兰儿童乐园', 'location': {'lat': 34.254513, 'lng': 108.849385}, 'address': '西三环三桥立交东南角', 'province': '陕西省', 'city': '西安市', 'area': '未央区', 'street_id': 'ebc7a35ec6b41f43d9d891b0', 'detail': 1, 'uid': 'ebc7a35ec6b41f43d9d891b0', 'detail_info': {'tag': '旅游景点;游乐园', 'type': 'scope', 'detail_url': 'http://api.map.baidu.com/place/detail?uid=ebc7a35ec6b41f43d9d891b0&output=html&source=placeapi_v2', 'children': []}}"
"{'name': '儿童游乐园', 'location': {'lat': 34.275408, 'lng': 108.867424}, 'address': '陕西省西安市莲湖区大庆路905号附近', 'province': '陕西省', 'city': '西安市', 'area': '莲湖区', 'detail': 1, 'uid': '6b9e8b114f7580761fe9994b', 'detail_info': {'tag': '旅游景点;游乐园', 'type': 'scope', 'detail_url': 'http://api.map.baidu.com/place/detail?uid=6b9e8b114f7580761fe9994b&output=html&source=placeapi_v2', 'children': []}}"
"{'name': '波比儿童乐园', 'location': {'lat': 34.288237, 'lng': 108.841611}, 'address': '陕西省西安市未央区武警路36号-副34号附近', 'province': '陕西省', 'city': '西安市', 'area': '未央区', 'detail': 1, 'uid': 'a891aafa50a324df25e0a080', 'detail_info': {'tag': '旅游景点;游乐园', 'type': 'scope', 'detail_url': 'http://api.map.baidu.com/place/detail?uid=a891aafa50a324df25e0a080&output=html&source=placeapi_v2', 'children': []}}"
"{'name': '金樽桌球竞技', 'location': {'lat': 34.265541, 'lng': 108.879342}, 'address': '陕西省西安市莲湖区土门丰镐西路西安莲湖协和医院南门', 'province': '陕西省', 'city': '西安市', 'area': '莲湖区', 'street_id': 'aa6ed3d6ca603bb28bb98889', 'detail': 1, 'uid': 'aa6ed3d6ca603bb28bb98889', 'detail_info': {'tag': '旅游景点;游乐园', 'type': 'scope', 'detail_url': 'http://api.map.baidu.com/place/detail?uid=aa6ed3d6ca603bb28bb98889&output=html&source=placeapi_v2', 'children': []}}"
"{'name': '丫丫儿童乐园', 'location': {'lat': 34.30949, 'lng': 108.848503}, 'address': '陕西省西安市未央区三桥,西安北车医院向北150米路西,艾宁商务酒店5楼,建章路81号', 'province': '陕西省', 'city': '西安市', 'area': '未央区', 'street_id': '30306f81ad50a8ed9e9d686d', 'detail': 1, 'uid': '30306f81ad50a8ed9e9d686d', 'detail_info': {'tag': '旅游景点;游乐园', 'type': 'scope', 'detail_url': 'http://api.map.baidu.com/place/detail?uid=30306f81ad50a8ed9e9d686d&output=html&source=placeapi_v2', 'children': []}}"
"{'name': '海豚湾婴幼水上乐园', 'location': {'lat': 34.303288, 'lng': 108.848484}, 'address': '陕西省西安市未央区建章路205号附近', 'province': '陕西省', 'city': '西安市', 'area': '未央区', 'street_id': 'edfc947eb43c1888715e805b', 'detail': 1, 'uid': 'edfc947eb43c1888715e805b', 'detail_info': {'tag': '旅游景点;游乐园', 'type': 'scope', 'detail_url': 'http://api.map.baidu.com/place/detail?uid=edfc947eb43c1888715e805b&output=html&source=placeapi_v2', 'overall_rating': '0.0', 'children': []}}"
"{'name': '呆咖儿童乐园', 'location': {'lat': 34.262846, 'lng': 108.874493}, 'address': '陕西省西安市莲湖区宏府鹍翔九天(红光路南)', 'province': '陕西省', 'city': '西安市', 'area': '莲湖区', 'street_id': '238f78e4795cb7f2cb213de9', 'detail': 1, 'uid': '238f78e4795cb7f2cb213de9', 'detail_info': {'tag': '旅游景点;游乐园', 'navi_location': {'lng': 108.87457459904, 'lat': 34.262893076494}, 'type': 'scope', 'detail_url': 'http://api.map.baidu.com/place/detail?uid=238f78e4795cb7f2cb213de9&output=html&source=placeapi_v2', 'overall_rating': '0.0', 'children': []}}"
"{'name': '秦阿房宫遗址博物馆', 'location': {'lat': 34.265325, 'lng': 108.818568}, 'address': '王寺东街172号', 'province': '陕西省', 'city': '西安市', 'area': '未央区', 'street_id': '78693e22efa3372bfbf0cbc0', 'detail': 1, 'uid': '78693e22efa3372bfbf0cbc0', 'detail_info': {'tag': '旅游景点;博物馆', 'navi_location': {'lng': 108.81854352587, 'lat': 34.265476246151}, 'type': 'scope', 'detail_url': 'http://api.map.baidu.com/place/detail?uid=78693e22efa3372bfbf0cbc0&output=html&source=placeapi_v2', 'overall_rating': '5.0', 'comment_num': '3', 'children': []}}"
"{'name': '名车展览馆', 'location': {'lat': 34.299954, 'lng': 108.823688}, 'address': '疏导线58号西部国际车城', 'province': '陕西省', 'city': '西安市', 'area': '未央区', 'street_id': '305c3f8ec7065f290c0a70e8', 'detail': 1, 'uid': '305c3f8ec7065f290c0a70e8', 'detail_info': {'tag': '文化传媒;展览馆', 'type': 'enterprise', 'detail_url': 'http://api.map.baidu.com/place/detail?uid=305c3f8ec7065f290c0a70e8&output=html&source=placeapi_v2', 'overall_rating': '3.0', 'comment_num': '1', 'children': []}}"
"{'name': '西安市莲湖区大庆西路基督教礼拜堂', 'location': {'lat': 34.274589, 'lng': 108.860858}, 'address': '陕西省西安市未央区大庆西路798号附近', 'province': '陕西省', 'city': '西安市', 'area': '未央区', 'detail': 1, 'uid': 'de07333afb411463f603b84c', 'detail_info': {'tag': '旅游景点;教堂', 'type': 'scope', 'detail_url': 'http://api.map.baidu.com/place/detail?uid=de07333afb411463f603b84c&output=html&source=placeapi_v2', 'overall_rating': '0.0', 'comment_num': '1', 'children': []}}"
"{'name': '西山寺', 'location': {'lat': 34.294433, 'lng': 108.781119}, 'address': '陕西省西安市长安区', 'province': '陕西省', 'city': '西安市', 'area': '长安区', 'detail': 1, 'uid': 'adf8b79ba0f136a9901fc99b', 'detail_info': {'tag': '旅游景点;寺庙', 'navi_location': {'lng': 108.78055281325, 'lat': 34.293708833595}, 'type': 'scope', 'detail_url': 'http://api.map.baidu.com/place/detail?uid=adf8b79ba0f136a9901fc99b&output=html&source=placeapi_v2', 'overall_rating': '5.0', 'comment_num': '4', 'children': []}}"
"{'name': '西安市莲湖区土门基督教礼拜堂', 'location': {'lat': 34.261609, 'lng': 108.888795}, 'address': '土门街道土门创新路周家围墙165号', 'province': '陕西省', 'city': '西安市', 'area': '莲湖区', 'street_id': '2e014cc632dce531d92f289f', 'telephone': '(029)84237841', 'detail': 1, 'uid': '2e014cc632dce531d92f289f', 'detail_info': {'tag': '旅游景点;教堂', 'navi_location': {'lng': 108.88918898676, 'lat': 34.261656724179}, 'type': 'scope', 'detail_url': 'http://api.map.baidu.com/place/detail?uid=2e014cc632dce531d92f289f&output=html&source=placeapi_v2', 'overall_rating': '3.5', 'comment_num': '4', 'children': []}}"
"{'name': '天主教西安教区圣安多尼堂', 'location': {'lat': 34.263011, 'lng': 108.881785}, 'address': '莲湖区益民坊29号', 'province': '陕西省', 'city': '西安市', 'area': '莲湖区', 'street_id': '1887ebeedee553051b11d537', 'detail': 1, 'uid': '1887ebeedee553051b11d537', 'detail_info': {'tag': '旅游景点;教堂', 'navi_location': {'lng': 108.88163294026, 'lat': 34.263095676818}, 'type': 'scope', 'detail_url': 'http://api.map.baidu.com/place/detail?uid=1887ebeedee553051b11d537&output=html&source=placeapi_v2', 'overall_rating': '1.0', 'comment_num': '1', 'children': []}}"
"{'name': '结缘寺', 'location': {'lat': 34.301083, 'lng': 108.816761}, 'address': '陕西省西安市未央区三桥街道连霍高速公路结缘寺', 'province': '陕西省', 'city': '西安市', 'area': '未央区', 'street_id': 'e1ef1f3a15014ae072455b38', 'detail': 1, 'uid': 'e1ef1f3a15014ae072455b38', 'detail_info': {'tag': '旅游景点;寺庙', 'type': 'scope', 'detail_url': 'http://api.map.baidu.com/place/detail?uid=e1ef1f3a15014ae072455b38&output=html&source=placeapi_v2', 'overall_rating': '0.0', 'children': []}}"
"{'name': '锦尚云天古镇', 'location': {'lat': 34.288035, 'lng': 108.842352}, 'address': '陕西省西安市未央区阿房四路', 'province': '陕西省', 'city': '西安市', 'area': '未央区', 'street_id': 'ce2f1cf510dba07fba17e7dc', 'detail': 1, 'uid': 'ce2f1cf510dba07fba17e7dc', 'detail_info': {'tag': '房地产;住宅区', 'navi_location': {'lng': 108.84275438918, 'lat': 34.288785118934}, 'type': 'house', 'detail_url': 'http://api.map.baidu.com/place/detail?uid=ce2f1cf510dba07fba17e7dc&output=html&source=placeapi_v2', 'children': []}}"
"{'name': '新西北清真寺', 'location': {'lat': 34.278608, 'lng': 108.860727}, 'address': '陕西省西安市未央区三桥街道大庆路南何新村住宅小区', 'province': '陕西省', 'city': '西安市', 'area': '未央区', 'street_id': '083a55faf58b2979246e9860', 'detail': 1, 'uid': '083a55faf58b2979246e9860', 'detail_info': {'tag': '旅游景点;寺庙', 'navi_location': {'lng': 108.86106337631, 'lat': 34.278730649065}, 'type': 'scope', 'detail_url': 'http://api.map.baidu.com/place/detail?uid=083a55faf58b2979246e9860&output=html&source=placeapi_v2', 'overall_rating': '5.0', 'comment_num': '3', 'children': []}}"
"{'name': '秦阿房宫遗址展览馆', 'location': {'lat': 34.26496, 'lng': 108.818568}, 'address': '西安市长安区王寺东街172号', 'province': '陕西省', 'city': '西安市', 'area': '长安区', 'street_id': 'f46d33327540ca6deee4a5cd', 'telephone': '(029)84368038', 'detail': 1, 'uid': 'f46d33327540ca6deee4a5cd', 'detail_info': {'tag': '文化传媒;展览馆', 'navi_location': {'lng': 108.8186903054, 'lat': 34.265477966824}, 'type': 'scope', 'detail_url': 'http://api.map.baidu.com/place/detail?uid=f46d33327540ca6deee4a5cd&output=html&source=placeapi_v2', 'overall_rating': '0.0', 'children': []}}"
"{'name': '北寺庙', 'location': {'lat': 34.281574, 'lng': 108.804047}, 'address': '天人路西150米', 'province': '陕西省', 'city': '西安市', 'area': '长安区', 'detail': 1, 'uid': '1fc0cb3119091e7e0482c2f1', 'detail_info': {'tag': '旅游景点;寺庙', 'type': 'scope', 'detail_url': 'http://api.map.baidu.com/place/detail?uid=1fc0cb3119091e7e0482c2f1&output=html&source=placeapi_v2', 'children': []}}"
"{'name': '陕西汉唐石刻博物馆', 'location': {'lat': 34.265188, 'lng': 108.820585}, 'address': '陕西省西安市未央区沣东大道', 'province': '陕西省', 'city': '西安市', 'area': '未央区', 'detail': 1, 'uid': '609517d60df3285d1a11d5af', 'detail_info': {'tag': '旅游景点;博物馆', 'type': 'scope', 'detail_url': 'http://api.map.baidu.com/place/detail?uid=609517d60df3285d1a11d5af&output=html&source=placeapi_v2', 'children': []}}"
"{'name': '大米王国(华润万象城店)', 'location': {'lat': 34.297078, 'lng': 108.835983}, 'address': '西安三桥新街华润万象城三楼大米王国', 'province': '陕西省', 'city': '西安市', 'area': '未央区', 'street_id': '81808ce3f5aa124efbf0cb30', 'telephone': '(029)89599970', 'detail': 1, 'uid': '81808ce3f5aa124efbf0cb30', 'detail_info': {'tag': '教育培训;亲子教育', 'type': 'education', 'detail_url': 'http://api.map.baidu.com/place/detail?uid=81808ce3f5aa124efbf0cb30&output=html&source=placeapi_v2', 'overall_rating': '4.0', 'comment_num': '17', 'children': []}}"
"{'name': '基督教新西北教会', 'location': {'lat': 34.274652, 'lng': 108.860908}, 'address': '西安市未央区大庆路920号', 'province': '陕西省', 'city': '西安市', 'area': '未央区', 'street_id': 'e3a7fd13b152342c28b97c3f', 'detail': 1, 'uid': 'e3a7fd13b152342c28b97c3f', 'detail_info': {'tag': '旅游景点;教堂', 'navi_location': {'lng': 108.86090789579, 'lat': 34.275051341109}, 'type': 'scope', 'detail_url': 'http://api.map.baidu.com/place/detail?uid=e3a7fd13b152342c28b97c3f&output=html&source=placeapi_v2', 'overall_rating': '0.0', 'children': []}}"
"{'name': '中华民俗博物馆', 'location': {'lat': 34.279336, 'lng': 108.82096}, 'address': '陕西省西安市长安区西户公路附近', 'province': '陕西省', 'city': '西安市', 'area': '长安区', 'street_id': '06fedcf4222cf6f4ddee8b20', 'detail': 1, 'uid': '06fedcf4222cf6f4ddee8b20', 'detail_info': {'tag': '旅游景点;博物馆', 'type': 'scope', 'detail_url': 'http://api.map.baidu.com/place/detail?uid=06fedcf4222cf6f4ddee8b20&output=html&source=placeapi_v2', 'children': []}}"
"{'name': '汉长安城遗址陈列馆', 'location': {'lat': 34.308824, 'lng': 108.868664}, 'address': '西安市未央区未央宫街道办邓六路中段', 'province': '陕西省', 'city': '西安市', 'area': '未央区', 'detail': 1, 'uid': '526dfc6c1af456a3d8eced8c', 'detail_info': {'tag': '旅游景点;博物馆', 'type': 'scope', 'detail_url': 'http://api.map.baidu.com/place/detail?uid=526dfc6c1af456a3d8eced8c&output=html&source=placeapi_v2', 'children': []}}"
"{'name': '西好汉庙', 'location': {'lat': 34.314514, 'lng': 108.817617}, 'address': '西安市未央区', 'province': '陕西省', 'city': '西安市', 'area': '未央区', 'detail': 1, 'uid': '7d0bf818e43efd28f4e73b29', 'detail_info': {'tag': '旅游景点;寺庙', 'type': 'life', 'detail_url': 'http://api.map.baidu.com/place/detail?uid=7d0bf818e43efd28f4e73b29&output=html&source=placeapi_v2', 'image_num': '1', 'children': []}}"
"{'name': '西安莲湖区规划展示中心', 'location': {'lat': 34.27445, 'lng': 108.889486}, 'address': '陕西省西安市莲湖区大庆路付156号附近', 'province': '陕西省', 'city': '西安市', 'area': '莲湖区', 'detail': 1, 'uid': 'dcc2be9feac0c75929fc4881', 'detail_info': {'tag': '文化传媒;展览馆', 'type': 'life', 'detail_url': 'http://api.map.baidu.com/place/detail?uid=dcc2be9feac0c75929fc4881&output=html&source=placeapi_v2', 'image_num': '1', 'children': []}}"
"{'name': '三圣寺', 'location': {'lat': 34.307315, 'lng': 108.852049}, 'address': '西三环与西三环出口交叉口西南200米', 'province': '陕西省', 'city': '西安市', 'area': '未央区', 'detail': 1, 'uid': '594c2bda7bd65a3ca9059da6', 'detail_info': {'tag': '旅游景点;寺庙', 'type': 'scope', 'detail_url': 'http://api.map.baidu.com/place/detail?uid=594c2bda7bd65a3ca9059da6&output=html&source=placeapi_v2', 'children': []}}"
"{'name': '汇都酒店会议中心', 'location': {'lat': 34.308828, 'lng': 108.830019}, 'address': '陕西省西安市未央区天章大道', 'province': '陕西省', 'city': '西安市', 'area': '未央区', 'detail': 1, 'uid': 'f953419d1923c1f848fd3f56', 'detail_info': {'tag': '文化传媒;展览馆', 'type': 'enterprise', 'detail_url': 'http://api.map.baidu.com/place/detail?uid=f953419d1923c1f848fd3f56&output=html&source=placeapi_v2', 'children': []}}"
"{'name': '基督教会(大兴西路小区西南)', 'location': {'lat': 34.289706, 'lng': 108.891787}, 'address': '陕西省西安市莲湖区桃园路街道大兴西路32号', 'province': '陕西省', 'city': '西安市', 'area': '莲湖区', 'street_id': '82177e4f770d619a82a12eea', 'detail': 1, 'uid': '82177e4f770d619a82a12eea', 'detail_info': {'tag': '旅游景点;教堂', 'type': 'scope', 'detail_url': 'http://api.map.baidu.com/place/detail?uid=82177e4f770d619a82a12eea&output=html&source=placeapi_v2', 'children': []}}"
"{'name': '西安青年美术馆', 'location': {'lat': 34.251561, 'lng': 108.868692}, 'address': '大寨路大寨路7号附近', 'province': '陕西省', 'city': '西安市', 'area': '雁塔区', 'street_id': 'e0dcb91195b07a4f2a02e163', 'detail': 1, 'uid': 'e0dcb91195b07a4f2a02e163', 'detail_info': {'tag': '文化传媒;美术馆', 'type': 'scope', 'detail_url': 'http://api.map.baidu.com/place/detail?uid=e0dcb91195b07a4f2a02e163&output=html&source=placeapi_v2', 'children': []}}"
"{'name': '金海书画艺术馆', 'location': {'lat': 34.309129, 'lng': 108.848532}, 'address': '陕西省西安市未央区孙武路与建章路交汇向南260米', 'province': '陕西省', 'city': '西安市', 'area': '未央区', 'street_id': 'e9bf3b69746ec1fff942b28b', 'telephone': '13032924992', 'detail': 1, 'uid': 'e9bf3b69746ec1fff942b28b', 'detail_info': {'tag': '文化传媒;美术馆', 'type': 'scope', 'detail_url': 'http://api.map.baidu.com/place/detail?uid=e9bf3b69746ec1fff942b28b&output=html&source=placeapi_v2', 'children': []}}"
"{'name': '涂涂派艺术馆(西安启航馆)', 'location': {'lat': 34.305485, 'lng': 108.822891}, 'address': '西咸新区沣东新城后卫寨地铁站D启航佳苑东区南门B9栋商铺三层', 'province': '陕西省', 'city': '西安市', 'area': '未央区', 'telephone': '13259941158', 'detail': 1, 'uid': '1a844f860ef8db7b9b68b43f', 'detail_info': {'tag': '文化传媒;美术馆', 'type': 'life', 'detail_url': 'http://api.map.baidu.com/place/detail?uid=1a844f860ef8db7b9b68b43f&output=html&source=placeapi_v2', 'image_num': '1', 'children': []}}"
"{'name': '阿妮贝贝儿童主题乐园(华东·万锦城购物中心店)', 'location': {'lat': 34.267067, 'lng': 108.877916}, 'address': '汉城南路100号华东·万锦城购物中心F3', 'province': '陕西省', 'city': '西安市', 'area': '莲湖区', 'detail': 1, 'uid': '1fadd8147e686605fea778b0', 'detail_info': {'tag': '休闲娱乐;游戏场所', 'type': 'life', 'detail_url': 'http://api.map.baidu.com/place/detail?uid=1fadd8147e686605fea778b0&output=html&source=placeapi_v2', 'image_num': '1', 'children': []}}"
"{'name': '红蚂蚁少儿创意美术馆', 'location': {'lat': 34.306666, 'lng': 108.822465}, 'address': '陕西省西安市未央区后围寨启航佳苑B区3层商铺', 'province': '陕西省', 'city': '西安市', 'area': '未央区', 'telephone': '18209227178,15229372642', 'detail': 1, 'uid': 'e3fd730bb528b40015c9050c', 'detail_info': {'tag': '文化传媒;美术馆', 'type': 'scope', 'detail_url': 'http://api.map.baidu.com/place/detail?uid=e3fd730bb528b40015c9050c&output=html&source=placeapi_v2', 'overall_rating': '0.0', 'children': []}}"
"{'name': '金桥国际展示中心', 'location': {'lat': 34.294984, 'lng': 108.837963}, 'address': '西安市未央区双拥路与西户公路交叉路口往南约100米(金桥国际)', 'province': '陕西省', 'city': '西安市', 'area': '未央区', 'street_id': '44f7ba3a59a872b3c71e518d', 'detail': 1, 'uid': '44f7ba3a59a872b3c71e518d', 'detail_info': {'tag': '文化传媒;展览馆', 'navi_location': {'lng': 108.83796291114, 'lat': 34.294984268871}, 'type': 'life', 'detail_url': 'http://api.map.baidu.com/place/detail?uid=44f7ba3a59a872b3c71e518d&output=html&source=placeapi_v2', 'overall_rating': '0.0', 'image_num': '1', 'children': []}}"
"{'name': '宝宝乐园(中堡子村二期东南)', 'location': {'lat': 34.252172, 'lng': 108.870646}, 'address': '大寨路北150米', 'province': '陕西省', 'city': '西安市', 'area': '雁塔区', 'detail': 1, 'uid': '507f5cacbe9948d988db73a9', 'detail_info': {'type': 'life', 'detail_url': 'http://api.map.baidu.com/place/detail?uid=507f5cacbe9948d988db73a9&output=html&source=placeapi_v2', 'image_num': '1', 'children': []}}"
"{'name': 'YY儿童乐园', 'location': {'lat': 34.309755, 'lng': 108.848541}, 'address': '陕西省西安市未央区建章路83号乐成大厦4层', 'province': '陕西省', 'city': '西安市', 'area': '未央区', 'street_id': 'e5ba56fedf23ecee9cec2bf2', 'detail': 1, 'uid': 'e5ba56fedf23ecee9cec2bf2', 'detail_info': {'tag': '教育培训;亲子教育', 'navi_location': {'lng': 108.8483129357, 'lat': 34.30954925884}, 'type': 'education', 'detail_url': 'http://api.map.baidu.com/place/detail?uid=e5ba56fedf23ecee9cec2bf2&output=html&source=placeapi_v2', 'children': []}}"
"{'name': '秦岭雪泉', 'location': {'lat': 34.297528, 'lng': 108.828751}, 'address': '陕西省西安市未央区征和六路华润二十四城二期9栋107号', 'province': '陕西省', 'city': '西安市', 'area': '未央区', 'detail': 1, 'uid': 'e86c24255608f825a8f729bd', 'detail_info': {'tag': '生活服务;家政服务', 'type': 'life', 'detail_url': 'http://api.map.baidu.com/place/detail?uid=e86c24255608f825a8f729bd&output=html&source=placeapi_v2', 'overall_rating': '0.0', 'image_num': '3', 'comment_num': '1', 'children': []}}"
"{'name': '咔咔兔亲子乐园', 'location': {'lat': 34.252449, 'lng': 108.874979}, 'address': '大寨路恒大影城3楼10303商铺', 'province': '陕西省', 'city': '西安市', 'area': '雁塔区', 'detail': 1, 'uid': '06e655e623d9ae12128824e7', 'detail_info': {'tag': '教育培训', 'type': 'education', 'detail_url': 'http://api.map.baidu.com/place/detail?uid=06e655e623d9ae12128824e7&output=html&source=placeapi_v2', 'overall_rating': '1.5', 'comment_num': '2', 'children': []}}"
"{'name': '热气球亲子营嘉阅书馆', 'location': {'lat': 34.270329, 'lng': 108.891624}, 'address': '陕西省西安市莲湖区团结中路31附1号附近', 'province': '陕西省', 'city': '西安市', 'area': '莲湖区', 'detail': 1, 'uid': 'fe59e63758049845b11e3669', 'detail_info': {'tag': '教育培训;图书馆', 'type': 'education', 'detail_url': 'http://api.map.baidu.com/place/detail?uid=fe59e63758049845b11e3669&output=html&source=placeapi_v2', 'children': []}}"
"{'name': '海盗主题超级乐园(华东·万锦城购物中心店)', 'location': {'lat': 34.266373, 'lng': 108.877779}, 'address': '西安市莲湖区汉城南路100号华东·万锦城购物中心F3', 'province': '陕西省', 'city': '西安市', 'area': '莲湖区', 'street_id': 'd106abea274eeec40782c2ce', 'detail': 1, 'uid': 'd106abea274eeec40782c2ce', 'detail_info': {'tag': '休闲娱乐;游戏场所', 'indoor_floor': 'F3', 'type': 'life', 'detail_url': 'http://api.map.baidu.com/place/detail?uid=d106abea274eeec40782c2ce&output=html&source=placeapi_v2', 'image_num': '1', 'children': []}}"
"{'name': '长乐宫遗址', 'location': {'lat': 34.318517, 'lng': 108.877035}, 'address': '丰景路附近', 'province': '陕西省', 'city': '西安市', 'area': '未央区', 'street_id': 'cec673294841013eabf72928', 'detail': 1, 'uid': 'cec673294841013eabf72928', 'detail_info': {'tag': '旅游景点;文物古迹', 'navi_location': {'lng': 108.87719176274, 'lat': 34.317733607151}, 'type': 'scope', 'detail_url': 'http://api.map.baidu.com/place/detail?uid=cec673294841013eabf72928&output=html&source=placeapi_v2', 'overall_rating': '0.0', 'children': []}}"
"{'name': '雍光门', 'location': {'lat': 34.338349, 'lng': 108.854367}, 'address': '西安市未央区', 'province': '陕西省', 'city': '西安市', 'area': '未央区', 'detail': 1, 'uid': '61e56a8ccc4f6175b8df8fa5', 'detail_info': {'tag': '旅游景点;风景区', 'navi_location': {'lng': 108.85454838146, 'lat': 34.338266944443}, 'type': 'scope', 'detail_url': 'http://api.map.baidu.com/place/detail?uid=61e56a8ccc4f6175b8df8fa5&output=html&source=placeapi_v2', 'overall_rating': '5.0', 'comment_num': '1', 'children': []}}"
"{'name': '尚稷公园', 'location': {'lat': 34.367452, 'lng': 108.831595}, 'address': '陕西省西安市未央区尚稷路与福银高速交叉口', 'province': '陕西省', 'city': '西安市', 'area': '未央区', 'street_id': '38efbc5dfc47d11a8c55ec68', 'detail': 1, 'uid': '38efbc5dfc47d11a8c55ec68', 'detail_info': {'tag': '旅游景点;公园', 'type': 'scope', 'detail_url': 'http://api.map.baidu.com/place/detail?uid=38efbc5dfc47d11a8c55ec68&output=html&source=placeapi_v2', 'children': []}}"
"{'name': '汉长安城遗址天禄阁', 'location': {'lat': 34.317595, 'lng': 108.869907}, 'address': '陕西省西安市未央区未央宫街道邓六路汉长安城遗址天禄阁', 'province': '陕西省', 'city': '西安市', 'area': '未央区', 'street_id': '8515191246586236bd48427c', 'detail': 1, 'uid': '8515191246586236bd48427c', 'detail_info': {'tag': '旅游景点;文物古迹', 'navi_location': {'lng': 108.87000325615, 'lat': 34.317152584773}, 'type': 'scope', 'detail_url': 'http://api.map.baidu.com/place/detail?uid=8515191246586236bd48427c&output=html&source=placeapi_v2', 'overall_rating': '5.0', 'comment_num': '3', 'children': []}}"
"{'name': '汉太液池遗址', 'location': {'lat': 34.317143, 'lng': 108.837894}, 'address': '苗圃孙武路', 'province': '陕西省', 'city': '西安市', 'area': '未央区', 'street_id': '9b151418eedcf5be83a12e6f', 'detail': 1, 'uid': '9b151418eedcf5be83a12e6f', 'detail_info': {'tag': '旅游景点;文物古迹', 'navi_location': {'lng': 108.83849415554, 'lat': 34.317365253382}, 'type': 'scope', 'detail_url': 'http://api.map.baidu.com/place/detail?uid=9b151418eedcf5be83a12e6f&output=html&source=placeapi_v2', 'overall_rating': '3.3', 'comment_num': '3', 'children': []}}"
"{'name': '西安经开区草滩', 'location': {'lat': 34.373753, 'lng': 108.891643}, 'address': '陕西省西安市未央区西安秦都得力洗涤服务有限公司地址西安经开区草滩', 'province': '陕西省', 'city': '西安市', 'area': '未央区', 'detail': 1, 'uid': '139efc572a81e59ef72310ba', 'detail_info': {'tag': '旅游景点;景点', 'type': 'scope', 'detail_url': 'http://api.map.baidu.com/place/detail?uid=139efc572a81e59ef72310ba&output=html&source=placeapi_v2', 'children': []}}"
"{'name': '汉长安城遗址-后城阁', 'location': {'lat': 34.319108, 'lng': 108.858978}, 'address': '丰景路', 'province': '陕西省', 'city': '西安市', 'area': '未央区', 'street_id': '18e468aa929746235a3ac8a4', 'detail': 1, 'uid': '18e468aa929746235a3ac8a4', 'detail_info': {'tag': '旅游景点;文物古迹', 'type': 'scope', 'detail_url': 'http://api.map.baidu.com/place/detail?uid=18e468aa929746235a3ac8a4&output=html&source=placeapi_v2', 'overall_rating': '5.0', 'comment_num': '1', 'children': []}}"
"{'name': '时代列车', 'location': {'lat': 34.326616, 'lng': 108.842244}, 'address': '陕西省西安市未央区石化大道中段65', 'province': '陕西省', 'city': '西安市', 'area': '未央区', 'street_id': '686bba4e42d99360715e800f', 'detail': 1, 'uid': '686bba4e42d99360715e800f', 'detail_info': {'tag': '旅游景点;景点', 'type': 'enterprise', 'detail_url': 'http://api.map.baidu.com/place/detail?uid=686bba4e42d99360715e800f&output=html&source=placeapi_v2', 'children': []}}"
"{'name': '大明岗亭', 'location': {'lat': 34.336877, 'lng': 108.856332}, 'address': '丰产路六村堡派出所向南300米', 'province': '陕西省', 'city': '西安市', 'area': '未央区', 'telephone': '(029)86702322', 'detail': 1, 'uid': '50a0aaa1302af0461288248a', 'detail_info': {'tag': '旅游景点;景点', 'type': 'scope', 'detail_url': 'http://api.map.baidu.com/place/detail?uid=50a0aaa1302af0461288248a&output=html&source=placeapi_v2', 'children': []}}"
"{'name': '风景水上乐园', 'location': {'lat': 34.318067, 'lng': 108.88599}, 'address': '陕西省西安市未央区讲武殿村西丰景路108号', 'province': '陕西省', 'city': '西安市', 'area': '未央区', 'street_id': '434b02cc207dca9dc4f50d03', 'telephone': '13088997037', 'detail': 1, 'uid': '434b02cc207dca9dc4f50d03', 'detail_info': {'tag': '旅游景点;游乐园', 'type': 'scope', 'detail_url': 'http://api.map.baidu.com/place/detail?uid=434b02cc207dca9dc4f50d03&output=html&source=placeapi_v2', 'children': []}}"
"{'name': '古城武殿', 'location': {'lat': 34.317031, 'lng': 108.892701}, 'address': '丰景路', 'province': '陕西省', 'city': '西安市', 'area': '未央区', 'detail': 1, 'uid': '87f6108551bf850385420ef0', 'detail_info': {'tag': '旅游景点;文物古迹', 'type': 'scope', 'detail_url': 'http://api.map.baidu.com/place/detail?uid=87f6108551bf850385420ef0&output=html&source=placeapi_v2', 'children': []}}"
"{'name': '寿终纪念堂', 'location': {'lat': 34.321195, 'lng': 108.868836}, 'address': '西安市未央区', 'province': '陕西省', 'city': '西安市', 'area': '未央区', 'detail': 1, 'uid': '1635370d06c71596eaf85303', 'detail_info': {'tag': '旅游景点;文物古迹', 'type': 'scope', 'detail_url': 'http://api.map.baidu.com/place/detail?uid=1635370d06c71596eaf85303&output=html&source=placeapi_v2', 'children': []}}"
"{'name': '少儿游乐园', 'location': {'lat': 34.337116, 'lng': 108.849507}, 'address': '陕西省西安市未央区丰产路59号西60米', 'province': '陕西省', 'city': '西安市', 'area': '未央区', 'detail': 1, 'uid': 'cf2c48693e2bf076f80cad4e', 'detail_info': {'tag': '旅游景点;游乐园', 'type': 'scope', 'detail_url': 'http://api.map.baidu.com/place/detail?uid=cf2c48693e2bf076f80cad4e&output=html&source=placeapi_v2', 'children': []}}"
"{'name': '健身房儿童乐园', 'location': {'lat': 34.337525, 'lng': 108.84973}, 'address': '丰产路59号附近', 'province': '陕西省', 'city': '西安市', 'area': '未央区', 'street_id': '92dad2100dca9d6db1077da6', 'detail': 1, 'uid': '92dad2100dca9d6db1077da6', 'detail_info': {'tag': '旅游景点;游乐园', 'type': 'scope', 'detail_url': 'http://api.map.baidu.com/place/detail?uid=92dad2100dca9d6db1077da6&output=html&source=placeapi_v2', 'children': []}}"
"{'name': '儿童乐园', 'location': {'lat': 34.330236, 'lng': 108.887144}, 'address': '陕西省西安市未央区石化大道', 'province': '陕西省', 'city': '西安市', 'area': '未央区', 'street_id': 'fe2f8ccbef67b0e979b55caa', 'detail': 1, 'uid': 'fe2f8ccbef67b0e979b55caa', 'detail_info': {'tag': '旅游景点;游乐园', 'type': 'scope', 'detail_url': 'http://api.map.baidu.com/place/detail?uid=fe2f8ccbef67b0e979b55caa&output=html&source=placeapi_v2', 'children': []}}"
"{'name': '快乐体验服务区', 'location': {'lat': 34.334686, 'lng': 108.853345}, 'address': '陕西省西安市未央区西三环辅路', 'province': '陕西省', 'city': '西安市', 'area': '未央区', 'street_id': '8fef17d5c118eda707fef535', 'detail': 1, 'uid': '8fef17d5c118eda707fef535', 'detail_info': {'tag': '旅游景点;游乐园', 'type': 'life', 'detail_url': 'http://api.map.baidu.com/place/detail?uid=8fef17d5c118eda707fef535&output=html&source=placeapi_v2', 'image_num': '1', 'children': []}}"
"{'name': '风景动漫水世界', 'location': {'lat': 34.317881, 'lng': 108.882587}, 'address': '陕西省西安市未央区讲武殿村西丰景路108号', 'province': '陕西省', 'city': '西安市', 'area': '未央区', 'street_id': 'ea1898ed7380e5cf95f08c92', 'detail': 1, 'uid': 'ea1898ed7380e5cf95f08c92', 'detail_info': {'tag': '旅游景点;游乐园', 'type': 'scope', 'detail_url': 'http://api.map.baidu.com/place/detail?uid=ea1898ed7380e5cf95f08c92&output=html&source=placeapi_v2', 'children': []}}"
"{'name': '沙河滩龙王庙', 'location': {'lat': 34.355066, 'lng': 108.816078}, 'address': '陕西省西安市未央区沙河滩村', 'province': '陕西省', 'city': '西安市', 'area': '未央区', 'detail': 1, 'uid': '484fab08161f6444eb1e97e0', 'detail_info': {'tag': '旅游景点;寺庙', 'type': 'scope', 'detail_url': 'http://api.map.baidu.com/place/detail?uid=484fab08161f6444eb1e97e0&output=html&source=placeapi_v2', 'overall_rating': '5.0', 'comment_num': '3', 'children': []}}"
"{'name': '西安美都艺术博物馆', 'location': {'lat': 34.31873, 'lng': 108.876975}, 'address': '陕西省西安市未央区汉长安城未央宫遗址西安未央汉城医院', 'province': '陕西省', 'city': '西安市', 'area': '未央区', 'street_id': '64ff3be1a0339ec690114cc9', 'telephone': '(029)88699651', 'detail': 1, 'uid': '300d7810f6030fffb04c496d', 'detail_info': {'tag': '旅游景点;博物馆', 'navi_location': {'lng': 108.87719777959, 'lat': 34.317716499762}, 'type': 'scope', 'detail_url': 'http://api.map.baidu.com/place/detail?uid=300d7810f6030fffb04c496d&output=html&source=placeapi_v2', 'overall_rating': '5.0', 'comment_num': '3', 'children': []}}"
"{'name': '法照寺', 'location': {'lat': 34.345356, 'lng': 108.86692}, 'address': '西安市未央区', 'province': '陕西省', 'city': '西安市', 'area': '未央区', 'detail': 1, 'uid': '1526c9d48b40f1f4f7eafc7d', 'detail_info': {'tag': '旅游景点;寺庙', 'type': 'scope', 'detail_url': 'http://api.map.baidu.com/place/detail?uid=1526c9d48b40f1f4f7eafc7d&output=html&source=placeapi_v2', 'overall_rating': '5.0', 'comment_num': '1', 'children': []}}"
"{'name': '西乐寺', 'location': {'lat': 34.342884, 'lng': 108.828016}, 'address': '西安市未央区西坡观光一路西150米', 'province': '陕西省', 'city': '西安市', 'area': '未央区', 'street_id': 'a484af5323766d988c55ec6a', 'detail': 1, 'uid': 'a484af5323766d988c55ec6a', 'detail_info': {'tag': '旅游景点;寺庙', 'type': 'scope', 'detail_url': 'http://api.map.baidu.com/place/detail?uid=a484af5323766d988c55ec6a&output=html&source=placeapi_v2', 'children': []}}"
"{'name': '梦庐书画艺术馆', 'location': {'lat': 34.317291, 'lng': 108.848532}, 'address': '陕西省西安市未央区建章路117号', 'province': '陕西省', 'city': '西安市', 'area': '未央区', 'street_id': '6e2ff1c88e6031bab6147f80', 'telephone': '18049095426,18049095425', 'detail': 1, 'uid': '6e2ff1c88e6031bab6147f80', 'detail_info': {'tag': '文化传媒;美术馆', 'navi_location': {'lng': 108.84838901499, 'lat': 34.317372045771}, 'type': 'scope', 'detail_url': 'http://api.map.baidu.com/place/detail?uid=6e2ff1c88e6031bab6147f80&output=html&source=placeapi_v2', 'overall_rating': '0.0', 'children': []}}"
"{'name': '大唐芙蓉园', 'location': {'lat': 34.218949, 'lng': 108.980724}, 'address': '西安市雁塔区曲江新区芙蓉西路99号', 'province': '陕西省', 'city': '西安市', 'area': '雁塔区', 'street_id': '4eb3b5335b4c6f6c420245f1', 'telephone': '(029)85511888', 'detail': 1, 'uid': '4eb3b5335b4c6f6c420245f1', 'detail_info': {'tag': '旅游景点;风景区', 'navi_location': {'lng': 108.976206, 'lat': 34.219055036427}, 'type': 'scope', 'detail_url': 'http://api.map.baidu.com/place/detail?uid=4eb3b5335b4c6f6c420245f1&output=html&source=placeapi_v2', 'overall_rating': '3.8', 'comment_num': '100', 'children': []}}"
"{'name': '大雁塔文化休闲景区', 'location': {'lat': 34.225619, 'lng': 108.971152}, 'address': '陕西省西安市雁塔区大雁塔街道广场东路3号', 'province': '陕西省', 'city': '西安市', 'area': '雁塔区', 'street_id': '35debf29cf4ee444a6da3954', 'detail': 1, 'uid': '35debf29cf4ee444a6da3954', 'detail_info': {'tag': '旅游景点;风景区', 'navi_location': {'lng': 108.972518, 'lat': 34.225562035644}, 'type': 'scope', 'detail_url': 'http://api.map.baidu.com/place/detail?uid=35debf29cf4ee444a6da3954&output=html&source=placeapi_v2', 'overall_rating': '4.4', 'comment_num': '100', 'children': []}}"
"{'name': '曲江池', 'location': {'lat': 34.207963, 'lng': 108.990527}, 'address': '西安市雁塔区曲江池西路', 'province': '陕西省', 'city': '西安市', 'area': '雁塔区', 'street_id': 'b2de90d395e009af373a71d6', 'telephone': '(029)85562540,(029)85563398', 'detail': 1, 'uid': '4642844a6fc83ed9c9fa5fde', 'detail_info': {'tag': '旅游景点;文物古迹', 'navi_location': {'lng': 108.99055836096, 'lat': 34.210788141418}, 'type': 'scope', 'detail_url': 'http://api.map.baidu.com/place/detail?uid=4642844a6fc83ed9c9fa5fde&output=html&source=placeapi_v2', 'overall_rating': '4.7', 'comment_num': '100', 'children': []}}"
"{'name': '大唐不夜城', 'location': {'lat': 34.220781, 'lng': 108.970556}, 'address': '西安市雁塔区慈恩路46号', 'province': '陕西省', 'city': '西安市', 'area': '雁塔区', 'street_id': '178e30a02614018d2902e120', 'detail': 1, 'uid': '178e30a02614018d2902e120', 'detail_info': {'tag': '旅游景点;景点', 'navi_location': {'lng': 108.97073166063, 'lat': 34.221530669807}, 'type': 'scope', 'detail_url': 'http://api.map.baidu.com/place/detail?uid=178e30a02614018d2902e120&output=html&source=placeapi_v2', 'overall_rating': '4.7', 'comment_num': '100', 'children': []}}"
"{'name': '永阳公园', 'location': {'lat': 34.202212, 'lng': 108.898676}, 'address': '西安市雁塔区丈八东路', 'province': '陕西省', 'city': '西安市', 'area': '雁塔区', 'street_id': '7388dffd3d50beebd3ff2354', 'detail': 1, 'uid': '7388dffd3d50beebd3ff2354', 'detail_info': {'tag': '旅游景点;公园', 'navi_location': {'lng': 108.89704857607, 'lat': 34.201181848641}, 'type': 'scope', 'detail_url': 'http://api.map.baidu.com/place/detail?uid=7388dffd3d50beebd3ff2354&output=html&source=placeapi_v2', 'overall_rating': '4.2', 'comment_num': '69', 'children': []}}"
"{'name': '西安大唐西市文化景区', 'location': {'lat': 34.250685, 'lng': 108.912974}, 'address': '陕西省西安市莲湖区劳动南路118号', 'province': '陕西省', 'city': '西安市', 'area': '莲湖区', 'street_id': 'ae8c8386200ab96dc92915c9', 'telephone': '(029)88361111', 'detail': 1, 'uid': 'ae8c8386200ab96dc92915c9', 'detail_info': {'tag': '旅游景点;风景区', 'navi_location': {'lng': 108.91265652831, 'lat': 34.251517604279}, 'indoor_floor': 'F1', 'type': 'scope', 'detail_url': 'http://api.map.baidu.com/place/detail?uid=ae8c8386200ab96dc92915c9&output=html&source=placeapi_v2', 'overall_rating': '2.7', 'comment_num': '9', 'children': []}}"
"{'name': '小雁塔', 'location': {'lat': 34.245484, 'lng': 108.948496}, 'address': '西安市碑林区友谊西路72号', 'province': '陕西省', 'city': '西安市', 'area': '碑林区', 'street_id': '74c933fb70e240209e82ea7e', 'detail': 1, 'uid': '74c933fb70e240209e82ea7e', 'detail_info': {'tag': '旅游景点;文物古迹', 'navi_location': {'lng': 108.94878523866, 'lat': 34.24711473465},